{
  "790001": {
    "state": "ARUNACHAL PRADESH",
    "district": "WEST KAMENG",
    "offices": [
      {
        "officename": "Nafra B.O",
        "officetype": "BO",
        "delivery": "Delivery",
        "divisionname": "Arunachal Pradesh Division",
        "regionname": "Shillong HQ Region",
        "circlename": "North Eastern Circle",
        "latitude": "27.370347299999999",
        "longitude": "92.559664999999995"
      },
      {
        "officename": "Rahung B.O",
        "officetype": "BO",
        "delivery": "Delivery",
        "divisionname": "Arunachal Pradesh Division",
        "regionname": "Shillong HQ Region",
        "circlename": "North Eastern Circle",
        "latitude": "27.316129499999999",
        "longitude": "92.373817000000003"
      },
      {
        "officename": "Salari B.O",
        "officetype": "BO",
        "delivery": "Delivery",
        "divisionname": "Arunachal Pradesh Division",
        "regionname": "Shillong HQ Region",
        "circlename": "North Eastern Circle",
        "latitude": "27.309690499999999",
        "longitude": "92.412689599999993"
      },
      {
        "officename": "Ditchik",
        "officetype": "BO",
        "delivery": "Delivery",
        "divisionname": "Arunachal Pradesh Division",
        "regionname": "Shillong HQ Region",
        "circlename": "North Eastern Circle",
        "latitude": "27.245287999999999",
        "longitude": "92.3026081"
      },
      {
        "officename": "Bomdila S.O",
        "officetype": "PO",
        "delivery": "Delivery",
        "divisionname": "Arunachal Pradesh Division",
        "regionname": "Shillong HQ Region",
        "circlename": "North Eastern Circle",
        "latitude": "27.26536111",
        "longitude": "92.42102778"
      }
    ]
  },
  "790002": {
    "state": "ARUNACHAL PRADESH",
    "district": "WEST KAMENG",
    "offices": [
      {
        "officename": "Balemu B.O",
        "officetype": "BO",
        "delivery": "Delivery",
        "divisionname": "Arunachal Pradesh Division",
        "regionname": "Shillong HQ Region",
        "circlename": "North Eastern Circle",
        "latitude": "26.959761100000001",
        "longitude": "92.145339699999994"
      },
      {
        "officename": "Tenzingaon B.O",
        "officetype": "BO",
        "delivery": "Delivery",
        "divisionname": "Arunachal Pradesh Division",
        "regionname": "Shillong HQ Region",
        "circlename": "North Eastern Circle",
        "latitude": "27.109735100000002",
        "longitude": "92.258272500000004"
      },
      {
        "officename": "Kalaktang S.O",
        "officetype": "PO",
        "delivery": "Delivery",
        "divisionname": "Arunachal Pradesh Division",
        "regionname": "Shillong HQ Region",
        "circlename": "North Eastern Circle",
        "latitude": "27.2928540",
        "longitude": "92.4974340"
      }
    ]
  },
  "790003": {
    "state": "ARUNACHAL PRADESH",
    "district": "WEST KAMENG",
    "offices": [
      {
        "officename": "Jigaon",
        "officetype": "BO",
        "delivery": "Delivery",
        "divisionname": "Arunachal Pradesh Division",
        "regionname": "Shillong HQ Region",
        "circlename": "North Eastern Circle",
        "latitude": "27.119509999999998",
        "longitude": "92.193472"
      },
      {
        "officename": "Shergaon B.O",
        "officetype": "BO",
        "delivery": "Delivery",
        "divisionname": "Arunachal Pradesh Division",
        "regionname": "Shillong HQ Region",
        "circlename": "North Eastern Circle",
        "latitude": "27.195200799999999",
        "longitude": "92.399039500000001"
      },
      {
        "officename": "Rupa S.O",
        "officetype": "PO",
        "delivery": "Delivery",
        "divisionname": "Arunachal Pradesh Division",
        "regionname": "Shillong HQ Region",
        "circlename": "North Eastern Circle",
        "latitude": "27.2928540",
        "longitude": "92.4974340"
      }
    ]
  },
  "790101": {
    "state": "ARUNACHAL PRADESH",
    "district": "WEST KAMENG",
    "offices": [
      {
        "officename": "Dirang S.O",
        "officetype": "PO",
        "delivery": "Delivery",
        "divisionname": "Arunachal Pradesh Division",
        "regionname": "Shillong HQ Region",
        "circlename": "North Eastern Circle",
        "latitude": "27.2928540",
        "longitude": "92.4974340"
      },
      {
        "officename": "Lish B.O",
        "officetype": "BO",
        "delivery": "Delivery",
        "divisionname": "Arunachal Pradesh Division",
        "regionname": "Shillong HQ Region",
        "circlename": "North Eastern Circle",
        "latitude": "27.370356699999999",
        "longitude": "92.246097700000007"
      },
      {
        "officename": "Sangti B.O",
        "officetype": "BO",
        "delivery": "Delivery",
        "divisionname": "Arunachal Pradesh Division",
        "regionname": "Shillong HQ Region",
        "circlename": "North Eastern Circle",
        "latitude": "27.405859100000001",
        "longitude": "92.275893600000003"
      },
      {
        "officename": "Senge B.O",
        "officetype": "BO",
        "delivery": "Delivery",
        "divisionname": "Arunachal Pradesh Division",
        "regionname": "Shillong HQ Region",
        "circlename": "North Eastern Circle",
        "latitude": "27.483430899999998",
        "longitude": "92.110159600000003"
      },
      {
        "officename": "Dirang Basti B.O",
        "officetype": "BO",
        "delivery": "Delivery",
        "divisionname": "Arunachal Pradesh Division",
        "regionname": "Shillong HQ Region",
        "circlename": "North Eastern Circle",
        "latitude": "27.331290200000002",
        "longitude": "92.293899300000007"
      },
      {
        "officename": "Munna Camp B.O",
        "officetype": "BO",
        "delivery": "Delivery",
        "divisionname": "Arunachal Pradesh Division",
        "regionname": "Shillong HQ Region",
        "circlename": "North Eastern Circle",
        "latitude": "27.337540199999999",
        "longitude": "92.328365199999993"
      }
    ]
  },
  "790102": {
    "state": "ARUNACHAL PRADESH",
    "district": "EAST KAMENG",
    "offices": [
      {
        "officename": "Bameng B.O",
        "officetype": "BO",
        "delivery": "Delivery",
        "divisionname": "Arunachal Pradesh Division",
        "regionname": "Shillong HQ Region",
        "circlename": "North Eastern Circle",
        "latitude": "27.5466263",
        "longitude": "92.947077800000002"
      },
      {
        "officename": "Lada B.O",
        "officetype": "BO",
        "delivery": "Delivery",
        "divisionname": "Arunachal Pradesh Division",
        "regionname": "Shillong HQ Region",
        "circlename": "North Eastern Circle",
        "latitude": "27.5700042",
        "longitude": "92.781336300000007"
      },
      {
        "officename": "Pipu-dipu B.O",
        "officetype": "BO",
        "delivery": "Delivery",
        "divisionname": "Arunachal Pradesh Division",
        "regionname": "Shillong HQ Region",
        "circlename": "North Eastern Circle",
        "latitude": "27.517598899999999",
        "longitude": "93.053060299999999"
      },
      {
        "officename": "Seba",
        "officetype": "BO",
        "delivery": "Delivery",
        "divisionname": "Arunachal Pradesh Division",
        "regionname": "Shillong HQ Region",
        "circlename": "North Eastern Circle",
        "latitude": "27.133308199999998",
        "longitude": "93.216939999999994"
      },
      {
        "officename": "Lumdung",
        "officetype": "BO",
        "delivery": "Delivery",
        "divisionname": "Arunachal Pradesh Division",
        "regionname": "Shillong HQ Region",
        "circlename": "North Eastern Circle",
        "latitude": "27.171897399999999",
        "longitude": "93.412929000000005"
      },
      {
        "officename": "Pabua",
        "officetype": "BO",
        "delivery": "Delivery",
        "divisionname": "Arunachal Pradesh Division",
        "regionname": "Shillong HQ Region",
        "circlename": "North Eastern Circle",
        "latitude": "27.2447236",
        "longitude": "93.336234000000005"
      },
      {
        "officename": "Bisai",
        "officetype": "BO",
        "delivery": "Delivery",
        "divisionname": "Arunachal Pradesh Division",
        "regionname": "Shillong HQ Region",
        "circlename": "North Eastern Circle",
        "latitude": "27.404908500000001",
        "longitude": "92.415983600000004"
      },
      {
        "officename": "Sallang",
        "officetype": "BO",
        "delivery": "Delivery",
        "divisionname": "Arunachal Pradesh Division",
        "regionname": "Shillong HQ Region",
        "circlename": "North Eastern Circle",
        "latitude": "27.333248000000001",
        "longitude": "92.474325100000001"
      },
      {
        "officename": "Rojo",
        "officetype": "BO",
        "delivery": "Delivery",
        "divisionname": "Arunachal Pradesh Division",
        "regionname": "Shillong HQ Region",
        "circlename": "North Eastern Circle",
        "latitude": "27.303990500000001",
        "longitude": "92.444108"
      },
      {
        "officename": "Londa",
        "officetype": "BO",
        "delivery": "Delivery",
        "divisionname": "Arunachal Pradesh Division",
        "regionname": "Shillong HQ Region",
        "circlename": "North Eastern Circle",
        "latitude": "27.305489600000001",
        "longitude": "93.112437999999997"
      },
      {
        "officename": "40 K.M. Camp",
        "officetype": "BO",
        "delivery": "Delivery",
        "divisionname": "Arunachal Pradesh Division",
        "regionname": "Shillong HQ Region",
        "circlename": "North Eastern Circle",
        "latitude": "27.345262099999999",
        "longitude": "93.030240000000006"
      },
      {
        "officename": "Lochung",
        "officetype": "BO",
        "delivery": "Delivery",
        "divisionname": "Arunachal Pradesh Division",
        "regionname": "Shillong HQ Region",
        "circlename": "North Eastern Circle",
        "latitude": "27.313848199999999",
        "longitude": "93.359770999999995"
      },
      {
        "officename": "Kapu Dada",
        "officetype": "BO",
        "delivery": "Delivery",
        "divisionname": "Arunachal Pradesh Division",
        "regionname": "Shillong HQ Region",
        "circlename": "North Eastern Circle",
        "latitude": "27.293616199999999",
        "longitude": "93.486419999999995"
      },
      {
        "officename": "Serewa",
        "officetype": "BO",
        "delivery": "Delivery",
        "divisionname": "Arunachal Pradesh Division",
        "regionname": "Shillong HQ Region",
        "circlename": "North Eastern Circle",
        "latitude": "27.240853000000001",
        "longitude": "93.636018000000007"
      },
      {
        "officename": "Jejudada",
        "officetype": "BO",
        "delivery": "Delivery",
        "divisionname": "Arunachal Pradesh Division",
        "regionname": "Shillong HQ Region",
        "circlename": "North Eastern Circle",
        "latitude": "27.254466300000001",
        "longitude": "93.455789999999993"
      },
      {
        "officename": "Dipu Lamgu",
        "officetype": "BO",
        "delivery": "Delivery",
        "divisionname": "Arunachal Pradesh Division",
        "regionname": "Shillong HQ Region",
        "circlename": "North Eastern Circle",
        "latitude": "27.311339799999999",
        "longitude": "93.740949999999998"
      },
      {
        "officename": "Dokre Gyadi",
        "officetype": "BO",
        "delivery": "Delivery",
        "divisionname": "Arunachal Pradesh Division",
        "regionname": "Shillong HQ Region",
        "circlename": "North Eastern Circle",
        "latitude": "27.281862",
        "longitude": "93.811868000000004"
      },
      {
        "officename": "Wada Bagang",
        "officetype": "BO",
        "delivery": "Delivery",
        "divisionname": "Arunachal Pradesh Division",
        "regionname": "Shillong HQ Region",
        "circlename": "North Eastern Circle",
        "latitude": "27.422366199999999",
        "longitude": "93.101718000000005"
      },
      {
        "officename": "Doripu Bagang",
        "officetype": "BO",
        "delivery": "Delivery",
        "divisionname": "Arunachal Pradesh Division",
        "regionname": "Shillong HQ Region",
        "circlename": "North Eastern Circle",
        "latitude": "27.373002499999998",
        "longitude": "93.746204000000006"
      },
      {
        "officename": "Dao",
        "officetype": "BO",
        "delivery": "Delivery",
        "divisionname": "Arunachal Pradesh Division",
        "regionname": "Shillong HQ Region",
        "circlename": "North Eastern Circle",
        "latitude": "27.451499399999999",
        "longitude": "92.562939600000007"
      },
      {
        "officename": "Lao",
        "officetype": "BO",
        "delivery": "Delivery",
        "divisionname": "Arunachal Pradesh Division",
        "regionname": "Shillong HQ Region",
        "circlename": "North Eastern Circle",
        "latitude": "27.057106000000001",
        "longitude": "93.171285600000004"
      },
      {
        "officename": "Tapiaso",
        "officetype": "BO",
        "delivery": "Delivery",
        "divisionname": "Arunachal Pradesh Division",
        "regionname": "Shillong HQ Region",
        "circlename": "North Eastern Circle",
        "latitude": "27.246337",
        "longitude": "93.182679399999998"
      },
      {
        "officename": "Nyoing",
        "officetype": "BO",
        "delivery": "Delivery",
        "divisionname": "Arunachal Pradesh Division",
        "regionname": "Shillong HQ Region",
        "circlename": "North Eastern Circle",
        "latitude": "27.105260000000001",
        "longitude": "93.174025299999997"
      },
      {
        "officename": "Bana B.O",
        "officetype": "BO",
        "delivery": "Delivery",
        "divisionname": "Arunachal Pradesh Division",
        "regionname": "Shillong HQ Region",
        "circlename": "North Eastern Circle",
        "latitude": "27.267565999999999",
        "longitude": "92.879998900000004"
      },
      {
        "officename": "Veo B.O",
        "officetype": "BO",
        "delivery": "Delivery",
        "divisionname": "Arunachal Pradesh Division",
        "regionname": "Shillong HQ Region",
        "circlename": "North Eastern Circle",
        "latitude": "27.249372000000001",
        "longitude": "93.093674199999995"
      },
      {
        "officename": "Gumtung",
        "officetype": "BO",
        "delivery": "Delivery",
        "divisionname": "Arunachal Pradesh Division",
        "regionname": "Shillong HQ Region",
        "circlename": "North Eastern Circle",
        "latitude": "27.184589800000001",
        "longitude": "93.102466100000001"
      },
      {
        "officename": "Sede",
        "officetype": "BO",
        "delivery": "Delivery",
        "divisionname": "Arunachal Pradesh Division",
        "regionname": "Shillong HQ Region",
        "circlename": "North Eastern Circle",
        "latitude": "27.181816000000001",
        "longitude": "93.622935999999996"
      },
      {
        "officename": "Kamrung(Neping)",
        "officetype": "BO",
        "delivery": "Delivery",
        "divisionname": "Arunachal Pradesh Division",
        "regionname": "Shillong HQ Region",
        "circlename": "North Eastern Circle",
        "latitude": "27.142932099999999",
        "longitude": "93.210657999999995"
      },
      {
        "officename": "Chamduk Leyak",
        "officetype": "BO",
        "delivery": "Delivery",
        "divisionname": "Arunachal Pradesh Division",
        "regionname": "Shillong HQ Region",
        "circlename": "North Eastern Circle",
        "latitude": "27.2334292",
        "longitude": "92.485878099999994"
      },
      {
        "officename": "Fengche Jayanti",
        "officetype": "BO",
        "delivery": "Delivery",
        "divisionname": "Arunachal Pradesh Division",
        "regionname": "Shillong HQ Region",
        "circlename": "North Eastern Circle",
        "latitude": "27.185140799999999",
        "longitude": "92.590395000000001"
      },
      {
        "officename": "Neking",
        "officetype": "BO",
        "delivery": "Delivery",
        "divisionname": "Arunachal Pradesh Division",
        "regionname": "Shillong HQ Region",
        "circlename": "North Eastern Circle",
        "latitude": "27.174909599999999",
        "longitude": "92.571602400000003"
      },
      {
        "officename": "18th Mile Camp",
        "officetype": "BO",
        "delivery": "Delivery",
        "divisionname": "Arunachal Pradesh Division",
        "regionname": "Shillong HQ Region",
        "circlename": "North Eastern Circle",
        "latitude": "27.292058600000001",
        "longitude": "93.124555000000001"
      },
      {
        "officename": "Sepilliang",
        "officetype": "BO",
        "delivery": "Delivery",
        "divisionname": "Arunachal Pradesh Division",
        "regionname": "Shillong HQ Region",
        "circlename": "North Eastern Circle",
        "latitude": "27.357112000000001",
        "longitude": "92.553211399999995"
      },
      {
        "officename": "Flago",
        "officetype": "BO",
        "delivery": "Delivery",
        "divisionname": "Arunachal Pradesh Division",
        "regionname": "Shillong HQ Region",
        "circlename": "North Eastern Circle",
        "latitude": "27.362836600000001",
        "longitude": "93.721778999999998"
      },
      {
        "officename": "Nerewa",
        "officetype": "BO",
        "delivery": "Delivery",
        "divisionname": "Arunachal Pradesh Division",
        "regionname": "Shillong HQ Region",
        "circlename": "North Eastern Circle",
        "latitude": "27.245514199999999",
        "longitude": "93.659628999999995"
      },
      {
        "officename": "Laimoya",
        "officetype": "BO",
        "delivery": "Delivery",
        "divisionname": "Arunachal Pradesh Division",
        "regionname": "Shillong HQ Region",
        "circlename": "North Eastern Circle",
        "latitude": "27.2445302",
        "longitude": "93.529439999999994"
      },
      {
        "officename": "Miri Sollung",
        "officetype": "BO",
        "delivery": "Delivery",
        "divisionname": "Arunachal Pradesh Division",
        "regionname": "Shillong HQ Region",
        "circlename": "North Eastern Circle",
        "latitude": "27.2828877",
        "longitude": "93.913583000000003"
      },
      {
        "officename": "Bodhi",
        "officetype": "BO",
        "delivery": "Delivery",
        "divisionname": "Arunachal Pradesh Division",
        "regionname": "Shillong HQ Region",
        "circlename": "North Eastern Circle",
        "latitude": "27.374105499999999",
        "longitude": "93.507760000000005"
      },
      {
        "officename": "Nampe Bagang",
        "officetype": "BO",
        "delivery": "Delivery",
        "divisionname": "Arunachal Pradesh Division",
        "regionname": "Shillong HQ Region",
        "circlename": "North Eastern Circle",
        "latitude": "27.425099299999999",
        "longitude": "93.152496999999997"
      },
      {
        "officename": "Palap",
        "officetype": "BO",
        "delivery": "Delivery",
        "divisionname": "Arunachal Pradesh Division",
        "regionname": "Shillong HQ Region",
        "circlename": "North Eastern Circle",
        "latitude": "27.220980999999998",
        "longitude": "93.1622062"
      },
      {
        "officename": "Pakke-Keshang H.Q./Upper Bazar Line/Lowe",
        "officetype": "BO",
        "delivery": "Delivery",
        "divisionname": "Arunachal Pradesh Division",
        "regionname": "Shillong HQ Region",
        "circlename": "North Eastern Circle",
        "latitude": "27.950424999999999",
        "longitude": "93.134348500000002"
      },
      {
        "officename": "Passo Camp",
        "officetype": "BO",
        "delivery": "Delivery",
        "divisionname": "Arunachal Pradesh Division",
        "regionname": "Shillong HQ Region",
        "circlename": "North Eastern Circle",
        "latitude": "27.133472999999999",
        "longitude": "93.64734"
      },
      {
        "officename": "Devegolo",
        "officetype": "BO",
        "delivery": "Delivery",
        "divisionname": "Arunachal Pradesh Division",
        "regionname": "Shillong HQ Region",
        "circlename": "North Eastern Circle",
        "latitude": "27.2023282",
        "longitude": "93.122455000000002"
      },
      {
        "officename": "Ningcho",
        "officetype": "BO",
        "delivery": "Delivery",
        "divisionname": "Arunachal Pradesh Division",
        "regionname": "Shillong HQ Region",
        "circlename": "North Eastern Circle",
        "latitude": "27.144686700000001",
        "longitude": "93.156520999999998"
      },
      {
        "officename": "Yangsey",
        "officetype": "BO",
        "delivery": "Delivery",
        "divisionname": "Arunachal Pradesh Division",
        "regionname": "Shillong HQ Region",
        "circlename": "North Eastern Circle",
        "latitude": "27.171457",
        "longitude": "92.511577500000001"
      },
      {
        "officename": "Loffa",
        "officetype": "BO",
        "delivery": "Delivery",
        "divisionname": "Arunachal Pradesh Division",
        "regionname": "Shillong HQ Region",
        "circlename": "North Eastern Circle",
        "latitude": "27.234060299999999",
        "longitude": "93.033879999999996"
      },
      {
        "officename": "Lada H.Q.",
        "officetype": "BO",
        "delivery": "Delivery",
        "divisionname": "Arunachal Pradesh Division",
        "regionname": "Shillong HQ Region",
        "circlename": "North Eastern Circle",
        "latitude": "27.341709300000002",
        "longitude": "92.463261200000005"
      },
      {
        "officename": "Kojo",
        "officetype": "BO",
        "delivery": "Delivery",
        "divisionname": "Arunachal Pradesh Division",
        "regionname": "Shillong HQ Region",
        "circlename": "North Eastern Circle",
        "latitude": "27.3054676",
        "longitude": "92.444246199999995"
      },
      {
        "officename": "Lower Liyak",
        "officetype": "BO",
        "delivery": "Delivery",
        "divisionname": "Arunachal Pradesh Division",
        "regionname": "Shillong HQ Region",
        "circlename": "North Eastern Circle",
        "latitude": "27.311706099999999",
        "longitude": "92.491453800000002"
      },
      {
        "officename": "Effa",
        "officetype": "BO",
        "delivery": "Delivery",
        "divisionname": "Arunachal Pradesh Division",
        "regionname": "Shillong HQ Region",
        "circlename": "North Eastern Circle",
        "latitude": "27.302440099999998",
        "longitude": "92.543242899999996"
      },
      {
        "officename": "Poube Sullung",
        "officetype": "BO",
        "delivery": "Delivery",
        "divisionname": "Arunachal Pradesh Division",
        "regionname": "Shillong HQ Region",
        "circlename": "North Eastern Circle",
        "latitude": "27.335749",
        "longitude": "92.523016600000005"
      },
      {
        "officename": "Bameng H.Q.",
        "officetype": "BO",
        "delivery": "Delivery",
        "divisionname": "Arunachal Pradesh Division",
        "regionname": "Shillong HQ Region",
        "circlename": "North Eastern Circle",
        "latitude": "27.3228367",
        "longitude": "92.571997999999994"
      },
      {
        "officename": "Bokar",
        "officetype": "BO",
        "delivery": "Delivery",
        "divisionname": "Arunachal Pradesh Division",
        "regionname": "Shillong HQ Region",
        "circlename": "North Eastern Circle",
        "latitude": "27.3225376",
        "longitude": "93.539613000000003"
      },
      {
        "officename": "Wotte Cheda",
        "officetype": "BO",
        "delivery": "Delivery",
        "divisionname": "Arunachal Pradesh Division",
        "regionname": "Shillong HQ Region",
        "circlename": "North Eastern Circle",
        "latitude": "27.3314606",
        "longitude": "93.108386999999993"
      },
      {
        "officename": "Paffa",
        "officetype": "BO",
        "delivery": "Delivery",
        "divisionname": "Arunachal Pradesh Division",
        "regionname": "Shillong HQ Region",
        "circlename": "North Eastern Circle",
        "latitude": "27.355379200000002",
        "longitude": "93.328107000000003"
      },
      {
        "officename": "Waii",
        "officetype": "BO",
        "delivery": "Delivery",
        "divisionname": "Arunachal Pradesh Division",
        "regionname": "Shillong HQ Region",
        "circlename": "North Eastern Circle",
        "latitude": "27.354767599999999",
        "longitude": "92.564842900000002"
      },
      {
        "officename": "Yangfo",
        "officetype": "BO",
        "delivery": "Delivery",
        "divisionname": "Arunachal Pradesh Division",
        "regionname": "Shillong HQ Region",
        "circlename": "North Eastern Circle",
        "latitude": "27.448205999999999",
        "longitude": "93.840163000000004"
      },
      {
        "officename": "Chayangtajo H.Q.",
        "officetype": "BO",
        "delivery": "Delivery",
        "divisionname": "Arunachal Pradesh Division",
        "regionname": "Shillong HQ Region",
        "circlename": "North Eastern Circle",
        "latitude": "27.405083300000001",
        "longitude": "93.884299999999996"
      },
      {
        "officename": "Lamrah",
        "officetype": "BO",
        "delivery": "Delivery",
        "divisionname": "Arunachal Pradesh Division",
        "regionname": "Shillong HQ Region",
        "circlename": "North Eastern Circle",
        "latitude": "27.414919600000001",
        "longitude": "93.211929999999995"
      },
      {
        "officename": "Chyangtajo B.O",
        "officetype": "BO",
        "delivery": "Delivery",
        "divisionname": "Arunachal Pradesh Division",
        "regionname": "Shillong HQ Region",
        "circlename": "North Eastern Circle",
        "latitude": "93.134100000000004",
        "longitude": "27.680099999999999"
      },
      {
        "officename": "Khenewa B.O",
        "officetype": "BO",
        "delivery": "Delivery",
        "divisionname": "Arunachal Pradesh Division",
        "regionname": "Shillong HQ Region",
        "circlename": "North Eastern Circle",
        "latitude": "27.5941391",
        "longitude": "93.0339089"
      },
      {
        "officename": "P.Kessang B.O",
        "officetype": "BO",
        "delivery": "Delivery",
        "divisionname": "Arunachal Pradesh Division",
        "regionname": "Shillong HQ Region",
        "circlename": "North Eastern Circle",
        "latitude": "27.151671799999999",
        "longitude": "93.258452300000002"
      },
      {
        "officename": "Palizi B.O",
        "officetype": "BO",
        "delivery": "Delivery",
        "divisionname": "Arunachal Pradesh Division",
        "regionname": "Shillong HQ Region",
        "circlename": "North Eastern Circle",
        "latitude": "92.795699999999997",
        "longitude": "27.284800000000001"
      },
      {
        "officename": "Khodaso",
        "officetype": "BO",
        "delivery": "Delivery",
        "divisionname": "Arunachal Pradesh Division",
        "regionname": "Shillong HQ Region",
        "circlename": "North Eastern Circle",
        "latitude": "27.1055891",
        "longitude": "93.173929000000001"
      },
      {
        "officename": "Palin",
        "officetype": "BO",
        "delivery": "Delivery",
        "divisionname": "Arunachal Pradesh Division",
        "regionname": "Shillong HQ Region",
        "circlename": "North Eastern Circle",
        "latitude": "27.174714999999999",
        "longitude": "93.756179000000003"
      },
      {
        "officename": "Hote Veo",
        "officetype": "BO",
        "delivery": "Delivery",
        "divisionname": "Arunachal Pradesh Division",
        "regionname": "Shillong HQ Region",
        "circlename": "North Eastern Circle",
        "latitude": "27.161836600000001",
        "longitude": "93.592830000000006"
      },
      {
        "officename": "Talomsima",
        "officetype": "BO",
        "delivery": "Delivery",
        "divisionname": "Arunachal Pradesh Division",
        "regionname": "Shillong HQ Region",
        "circlename": "North Eastern Circle",
        "latitude": "27.223974900000002",
        "longitude": "92.504464999999996"
      },
      {
        "officename": "Richukrong H.Q.",
        "officetype": "BO",
        "delivery": "Delivery",
        "divisionname": "Arunachal Pradesh Division",
        "regionname": "Shillong HQ Region",
        "circlename": "North Eastern Circle",
        "latitude": "27.225525000000001",
        "longitude": "92.492979099999999"
      },
      {
        "officename": "Kafla",
        "officetype": "BO",
        "delivery": "Delivery",
        "divisionname": "Arunachal Pradesh Division",
        "regionname": "Shillong HQ Region",
        "circlename": "North Eastern Circle",
        "latitude": "27.181874199999999",
        "longitude": "92.564027899999999"
      },
      {
        "officename": "Champing",
        "officetype": "BO",
        "delivery": "Delivery",
        "divisionname": "Arunachal Pradesh Division",
        "regionname": "Shillong HQ Region",
        "circlename": "North Eastern Circle",
        "latitude": "27.163874400000001",
        "longitude": "92.552128800000006"
      },
      {
        "officename": "Drakshi",
        "officetype": "BO",
        "delivery": "Delivery",
        "divisionname": "Arunachal Pradesh Division",
        "regionname": "Shillong HQ Region",
        "circlename": "North Eastern Circle",
        "latitude": "27.324453800000001",
        "longitude": "92.472167999999996"
      },
      {
        "officename": "Rapung",
        "officetype": "BO",
        "delivery": "Delivery",
        "divisionname": "Arunachal Pradesh Division",
        "regionname": "Shillong HQ Region",
        "circlename": "North Eastern Circle",
        "latitude": "27.303000900000001",
        "longitude": "92.481532000000001"
      },
      {
        "officename": "Pakke Camp",
        "officetype": "BO",
        "delivery": "Delivery",
        "divisionname": "Arunachal Pradesh Division",
        "regionname": "Shillong HQ Region",
        "circlename": "North Eastern Circle",
        "latitude": "27.334524500000001",
        "longitude": "92.5846193"
      },
      {
        "officename": "Tabri",
        "officetype": "BO",
        "delivery": "Delivery",
        "divisionname": "Arunachal Pradesh Division",
        "regionname": "Shillong HQ Region",
        "circlename": "North Eastern Circle",
        "latitude": "27.311095999999999",
        "longitude": "93.316344000000001"
      },
      {
        "officename": "Dafri",
        "officetype": "BO",
        "delivery": "Delivery",
        "divisionname": "Arunachal Pradesh Division",
        "regionname": "Shillong HQ Region",
        "circlename": "North Eastern Circle",
        "latitude": "27.313289900000001",
        "longitude": "93.664079999999998"
      },
      {
        "officename": "Ligwa Gyadi",
        "officetype": "BO",
        "delivery": "Delivery",
        "divisionname": "Arunachal Pradesh Division",
        "regionname": "Shillong HQ Region",
        "circlename": "North Eastern Circle",
        "latitude": "27.3033149",
        "longitude": "93.732299999999995"
      },
      {
        "officename": "Richi Lamgu",
        "officetype": "BO",
        "delivery": "Delivery",
        "divisionname": "Arunachal Pradesh Division",
        "regionname": "Shillong HQ Region",
        "circlename": "North Eastern Circle",
        "latitude": "27.274066600000001",
        "longitude": "93.712823999999998"
      },
      {
        "officename": "Loto Yangfo",
        "officetype": "BO",
        "delivery": "Delivery",
        "divisionname": "Arunachal Pradesh Division",
        "regionname": "Shillong HQ Region",
        "circlename": "North Eastern Circle",
        "latitude": "27.445924000000002",
        "longitude": "93.441829999999996"
      },
      {
        "officename": "Namta Yangfo",
        "officetype": "BO",
        "delivery": "Delivery",
        "divisionname": "Arunachal Pradesh Division",
        "regionname": "Shillong HQ Region",
        "circlename": "North Eastern Circle",
        "latitude": "27.426158000000001",
        "longitude": "93.387929999999997"
      },
      {
        "officename": "Veo",
        "officetype": "BO",
        "delivery": "Delivery",
        "divisionname": "Arunachal Pradesh Division",
        "regionname": "Shillong HQ Region",
        "circlename": "North Eastern Circle",
        "latitude": "27.431902900000001",
        "longitude": "93.131500000000003"
      },
      {
        "officename": "Thrizino B.O",
        "officetype": "BO",
        "delivery": "Delivery",
        "divisionname": "Arunachal Pradesh Division",
        "regionname": "Shillong HQ Region",
        "circlename": "North Eastern Circle",
        "latitude": "92.665199999999999",
        "longitude": "27.286100000000001"
      },
      {
        "officename": "New Sapong",
        "officetype": "BO",
        "delivery": "Delivery",
        "divisionname": "Arunachal Pradesh Division",
        "regionname": "Shillong HQ Region",
        "circlename": "North Eastern Circle",
        "latitude": "27.179841",
        "longitude": "92.495120400000005"
      },
      {
        "officename": "Fengche",
        "officetype": "BO",
        "delivery": "Delivery",
        "divisionname": "Arunachal Pradesh Division",
        "regionname": "Shillong HQ Region",
        "circlename": "North Eastern Circle",
        "latitude": "27.191504200000001",
        "longitude": "92.574192600000003"
      },
      {
        "officename": "Pakoti",
        "officetype": "BO",
        "delivery": "Delivery",
        "divisionname": "Arunachal Pradesh Division",
        "regionname": "Shillong HQ Region",
        "circlename": "North Eastern Circle",
        "latitude": "27.245326599999999",
        "longitude": "93.025754000000006"
      },
      {
        "officename": "Nyari Welly Model Village",
        "officetype": "BO",
        "delivery": "Delivery",
        "divisionname": "Arunachal Pradesh Division",
        "regionname": "Shillong HQ Region",
        "circlename": "North Eastern Circle",
        "latitude": "27.222747300000002",
        "longitude": "93.240235999999996"
      },
      {
        "officename": "Sachung",
        "officetype": "BO",
        "delivery": "Delivery",
        "divisionname": "Arunachal Pradesh Division",
        "regionname": "Shillong HQ Region",
        "circlename": "North Eastern Circle",
        "latitude": "27.365770099999999",
        "longitude": "92.441349500000001"
      },
      {
        "officename": "Tawe",
        "officetype": "BO",
        "delivery": "Delivery",
        "divisionname": "Arunachal Pradesh Division",
        "regionname": "Shillong HQ Region",
        "circlename": "North Eastern Circle",
        "latitude": "27.373465800000002",
        "longitude": "92.444990200000007"
      },
      {
        "officename": "Nabalang",
        "officetype": "BO",
        "delivery": "Delivery",
        "divisionname": "Arunachal Pradesh Division",
        "regionname": "Shillong HQ Region",
        "circlename": "North Eastern Circle",
        "latitude": "27.3300245",
        "longitude": "92.475114500000004"
      },
      {
        "officename": "Jawa Camp",
        "officetype": "BO",
        "delivery": "Delivery",
        "divisionname": "Arunachal Pradesh Division",
        "regionname": "Shillong HQ Region",
        "circlename": "North Eastern Circle",
        "latitude": "27.3533498",
        "longitude": "93.115309999999994"
      },
      {
        "officename": "Paksa",
        "officetype": "BO",
        "delivery": "Delivery",
        "divisionname": "Arunachal Pradesh Division",
        "regionname": "Shillong HQ Region",
        "circlename": "North Eastern Circle",
        "latitude": "27.322279300000002",
        "longitude": "92.535568999999995"
      },
      {
        "officename": "Attarang",
        "officetype": "BO",
        "delivery": "Delivery",
        "divisionname": "Arunachal Pradesh Division",
        "regionname": "Shillong HQ Region",
        "circlename": "North Eastern Circle",
        "latitude": "27.287576999999999",
        "longitude": "93.311750000000004"
      },
      {
        "officename": "Tagang Warang",
        "officetype": "BO",
        "delivery": "Delivery",
        "divisionname": "Arunachal Pradesh Division",
        "regionname": "Shillong HQ Region",
        "circlename": "North Eastern Circle",
        "latitude": "27.272374200000002",
        "longitude": "93.652996000000002"
      },
      {
        "officename": "Sangbia",
        "officetype": "BO",
        "delivery": "Delivery",
        "divisionname": "Arunachal Pradesh Division",
        "regionname": "Shillong HQ Region",
        "circlename": "North Eastern Circle",
        "latitude": "27.371132599999999",
        "longitude": "93.315869000000006"
      },
      {
        "officename": "Saria Takhang",
        "officetype": "BO",
        "delivery": "Delivery",
        "divisionname": "Arunachal Pradesh Division",
        "regionname": "Shillong HQ Region",
        "circlename": "North Eastern Circle",
        "latitude": "27.441144000000001",
        "longitude": "92.5725312"
      },
      {
        "officename": "Yakli Sullung",
        "officetype": "BO",
        "delivery": "Delivery",
        "divisionname": "Arunachal Pradesh Division",
        "regionname": "Shillong HQ Region",
        "circlename": "North Eastern Circle",
        "latitude": "27.455232899999999",
        "longitude": "93.116150000000005"
      },
      {
        "officename": "Rusi",
        "officetype": "BO",
        "delivery": "Delivery",
        "divisionname": "Arunachal Pradesh Division",
        "regionname": "Shillong HQ Region",
        "circlename": "North Eastern Circle",
        "latitude": "27.243791000000002",
        "longitude": "93.195178600000006"
      },
      {
        "officename": "Habia",
        "officetype": "BO",
        "delivery": "Delivery",
        "divisionname": "Arunachal Pradesh Division",
        "regionname": "Shillong HQ Region",
        "circlename": "North Eastern Circle",
        "latitude": "27.643201000000001",
        "longitude": "93.184325599999994"
      },
      {
        "officename": "Seppa S.O",
        "officetype": "PO",
        "delivery": "Delivery",
        "divisionname": "Arunachal Pradesh Division",
        "regionname": "Shillong HQ Region",
        "circlename": "North Eastern Circle",
        "latitude": "27.4732630",
        "longitude": "93.0606430"
      }
    ]
  },
  "790103": {
    "state": "ARUNACHAL PRADESH",
    "district": "PAKKE KESSANG",
    "offices": [
      {
        "officename": "Khari",
        "officetype": "BO",
        "delivery": "Delivery",
        "divisionname": "Arunachal Pradesh Division",
        "regionname": "Shillong HQ Region",
        "circlename": "North Eastern Circle",
        "latitude": "26.584857100000001",
        "longitude": "92.551525699999999"
      },
      {
        "officename": "Gumte",
        "officetype": "BO",
        "delivery": "Delivery",
        "divisionname": "Arunachal Pradesh Division",
        "regionname": "Shillong HQ Region",
        "circlename": "North Eastern Circle",
        "latitude": "27.133687399999999",
        "longitude": "93.102139300000005"
      },
      {
        "officename": "Keko",
        "officetype": "BO",
        "delivery": "Delivery",
        "divisionname": "Arunachal Pradesh Division",
        "regionname": "Shillong HQ Region",
        "circlename": "North Eastern Circle",
        "latitude": "27.947666000000002",
        "longitude": "93.113880499999993"
      },
      {
        "officename": "Palov",
        "officetype": "BO",
        "delivery": "Delivery",
        "divisionname": "Arunachal Pradesh Division",
        "regionname": "Shillong HQ Region",
        "circlename": "North Eastern Circle",
        "latitude": "27.918361000000001",
        "longitude": "93.939166999999998"
      },
      {
        "officename": "Longpong",
        "officetype": "BO",
        "delivery": "Delivery",
        "divisionname": "Arunachal Pradesh Division",
        "regionname": "Shillong HQ Region",
        "circlename": "North Eastern Circle",
        "latitude": "27.116292999999999",
        "longitude": "93.161945500000002"
      },
      {
        "officename": "Namorah B.O",
        "officetype": "BO",
        "delivery": "Delivery",
        "divisionname": "Arunachal Pradesh Division",
        "regionname": "Shillong HQ Region",
        "circlename": "North Eastern Circle",
        "latitude": "26.9345",
        "longitude": "93.125200000000007"
      },
      {
        "officename": "Passo",
        "officetype": "BO",
        "delivery": "Delivery",
        "divisionname": "Arunachal Pradesh Division",
        "regionname": "Shillong HQ Region",
        "circlename": "North Eastern Circle",
        "latitude": "26.5616795",
        "longitude": "93.126985000000005"
      },
      {
        "officename": "Seramso",
        "officetype": "BO",
        "delivery": "Delivery",
        "divisionname": "Arunachal Pradesh Division",
        "regionname": "Shillong HQ Region",
        "circlename": "North Eastern Circle",
        "latitude": "27.113028",
        "longitude": "93.1441035"
      },
      {
        "officename": "Seijosa S.O",
        "officetype": "PO",
        "delivery": "Delivery",
        "divisionname": "Arunachal Pradesh Division",
        "regionname": "Shillong HQ Region",
        "circlename": "North Eastern Circle",
        "latitude": "27.4732630",
        "longitude": "93.0606430"
      },
      {
        "officename": "Dikalmukh B.O",
        "officetype": "BO",
        "delivery": "Delivery",
        "divisionname": "Arunachal Pradesh Division",
        "regionname": "Shillong HQ Region",
        "circlename": "North Eastern Circle",
        "latitude": "27.140000000000001",
        "longitude": "93.609999999999999"
      },
      {
        "officename": "West Dekorai",
        "officetype": "BO",
        "delivery": "Delivery",
        "divisionname": "Arunachal Pradesh Division",
        "regionname": "Shillong HQ Region",
        "circlename": "North Eastern Circle",
        "latitude": "26.561554900000001",
        "longitude": "92.584265599999995"
      },
      {
        "officename": "Dirring",
        "officetype": "BO",
        "delivery": "Delivery",
        "divisionname": "Arunachal Pradesh Division",
        "regionname": "Shillong HQ Region",
        "circlename": "North Eastern Circle",
        "latitude": "26.5447804",
        "longitude": "93.517871999999997"
      },
      {
        "officename": "Tayarso",
        "officetype": "BO",
        "delivery": "Delivery",
        "divisionname": "Arunachal Pradesh Division",
        "regionname": "Shillong HQ Region",
        "circlename": "North Eastern Circle",
        "latitude": "27.258965",
        "longitude": "93.141942999999998"
      },
      {
        "officename": "Jolly",
        "officetype": "BO",
        "delivery": "Delivery",
        "divisionname": "Arunachal Pradesh Division",
        "regionname": "Shillong HQ Region",
        "circlename": "North Eastern Circle",
        "latitude": "27.037409",
        "longitude": "93.228206999999998"
      },
      {
        "officename": "Namorah",
        "officetype": "BO",
        "delivery": "Delivery",
        "divisionname": "Arunachal Pradesh Division",
        "regionname": "Shillong HQ Region",
        "circlename": "North Eastern Circle",
        "latitude": "26.5619513",
        "longitude": "93.115797000000001"
      },
      {
        "officename": "Baliso",
        "officetype": "BO",
        "delivery": "Delivery",
        "divisionname": "Arunachal Pradesh Division",
        "regionname": "Shillong HQ Region",
        "circlename": "North Eastern Circle",
        "latitude": "26.577300000000001",
        "longitude": "93.112312000000003"
      },
      {
        "officename": "Upper Dikal Mukh",
        "officetype": "BO",
        "delivery": "Delivery",
        "divisionname": "Arunachal Pradesh Division",
        "regionname": "Shillong HQ Region",
        "circlename": "North Eastern Circle",
        "latitude": "26.570222000000001",
        "longitude": "93.145872199999999"
      },
      {
        "officename": "Dipik",
        "officetype": "BO",
        "delivery": "Delivery",
        "divisionname": "Arunachal Pradesh Division",
        "regionname": "Shillong HQ Region",
        "circlename": "North Eastern Circle",
        "latitude": "26.962399999999999",
        "longitude": "93.334900000000005"
      }
    ]
  },
  "790104": {
    "state": "ARUNACHAL PRADESH",
    "district": "TAWANG",
    "offices": [
      {
        "officename": "Sakpret B.O",
        "officetype": "BO",
        "delivery": "Delivery",
        "divisionname": "Arunachal Pradesh Division",
        "regionname": "Shillong HQ Region",
        "circlename": "North Eastern Circle",
        "latitude": "27.544410500000001",
        "longitude": "91.823267000000001"
      },
      {
        "officename": "8 K.M. Labour Camp",
        "officetype": "BO",
        "delivery": "Delivery",
        "divisionname": "Arunachal Pradesh Division",
        "regionname": "Shillong HQ Region",
        "circlename": "North Eastern Circle",
        "latitude": "27.362616800000001",
        "longitude": "91.477745999999996"
      },
      {
        "officename": "Shyo",
        "officetype": "BO",
        "delivery": "Delivery",
        "divisionname": "Arunachal Pradesh Division",
        "regionname": "Shillong HQ Region",
        "circlename": "North Eastern Circle",
        "latitude": "27.352190799999999",
        "longitude": "91.513293500000003"
      },
      {
        "officename": "Kyableng",
        "officetype": "BO",
        "delivery": "Delivery",
        "divisionname": "Arunachal Pradesh Division",
        "regionname": "Shillong HQ Region",
        "circlename": "North Eastern Circle",
        "latitude": "27.351845600000001",
        "longitude": "91.501567199999997"
      },
      {
        "officename": "Tawang S.O",
        "officetype": "PO",
        "delivery": "Delivery",
        "divisionname": "Arunachal Pradesh Division",
        "regionname": "Shillong HQ Region",
        "circlename": "North Eastern Circle",
        "latitude": "27.59230556",
        "longitude": "91.87488889"
      },
      {
        "officename": "B.Supply B.O",
        "officetype": "BO",
        "delivery": "Delivery",
        "divisionname": "Arunachal Pradesh Division",
        "regionname": "Shillong HQ Region",
        "circlename": "North Eastern Circle",
        "latitude": "27.590391100000002",
        "longitude": "91.871075099999999"
      },
      {
        "officename": "Khrimu",
        "officetype": "BO",
        "delivery": "Delivery",
        "divisionname": "Arunachal Pradesh Division",
        "regionname": "Shillong HQ Region",
        "circlename": "North Eastern Circle",
        "latitude": "27.359434",
        "longitude": "91.531142500000001"
      },
      {
        "officename": "Temple Gompa B.O",
        "officetype": "BO",
        "delivery": "Delivery",
        "divisionname": "Arunachal Pradesh Division",
        "regionname": "Shillong HQ Region",
        "circlename": "North Eastern Circle",
        "latitude": "27.6042299",
        "longitude": "91.8008588"
      },
      {
        "officename": "Kitpi B.O",
        "officetype": "BO",
        "delivery": "Delivery",
        "divisionname": "Arunachal Pradesh Division",
        "regionname": "Shillong HQ Region",
        "circlename": "North Eastern Circle",
        "latitude": "27.588451299999999",
        "longitude": "91.8722767"
      },
      {
        "officename": "Langbutse",
        "officetype": "BO",
        "delivery": "Delivery",
        "divisionname": "Arunachal Pradesh Division",
        "regionname": "Shillong HQ Region",
        "circlename": "North Eastern Circle",
        "latitude": "27.360212600000001",
        "longitude": "91.533361600000006"
      },
      {
        "officename": "Lumberdung B.O",
        "officetype": "BO",
        "delivery": "Delivery",
        "divisionname": "Arunachal Pradesh Division",
        "regionname": "Shillong HQ Region",
        "circlename": "North Eastern Circle",
        "latitude": "27.567984299999999",
        "longitude": "91.845522000000003"
      },
      {
        "officename": "Lebrang",
        "officetype": "BO",
        "delivery": "Delivery",
        "divisionname": "Arunachal Pradesh Division",
        "regionname": "Shillong HQ Region",
        "circlename": "North Eastern Circle",
        "latitude": "27.365984600000001",
        "longitude": "91.501683200000002"
      }
    ]
  },
  "790105": {
    "state": "ARUNACHAL PRADESH",
    "district": "TAWANG",
    "offices": [
      {
        "officename": "Lhou B.O",
        "officetype": "BO",
        "delivery": "Delivery",
        "divisionname": "Arunachal Pradesh Division",
        "regionname": "Shillong HQ Region",
        "circlename": "North Eastern Circle",
        "latitude": "27.580374299999999",
        "longitude": "91.941823600000006"
      },
      {
        "officename": "Mukto B.O",
        "officetype": "BO",
        "delivery": "Delivery",
        "divisionname": "Arunachal Pradesh Division",
        "regionname": "Shillong HQ Region",
        "circlename": "North Eastern Circle",
        "latitude": "91.908157200000005",
        "longitude": "27.546445500000001"
      },
      {
        "officename": "Jang S.O",
        "officetype": "PO",
        "delivery": "Delivery",
        "divisionname": "Arunachal Pradesh Division",
        "regionname": "Shillong HQ Region",
        "circlename": "North Eastern Circle",
        "latitude": "27.6317760",
        "longitude": "92.1034960"
      },
      {
        "officename": "Thingbu B.O",
        "officetype": "BO",
        "delivery": "Delivery",
        "divisionname": "Arunachal Pradesh Division",
        "regionname": "Shillong HQ Region",
        "circlename": "North Eastern Circle",
        "latitude": "92.106284400000007",
        "longitude": "27.637043899999998"
      },
      {
        "officename": "Yuthumbu",
        "officetype": "BO",
        "delivery": "Delivery",
        "divisionname": "Arunachal Pradesh Division",
        "regionname": "Shillong HQ Region",
        "circlename": "North Eastern Circle",
        "latitude": "27.345792599999999",
        "longitude": "91.584968900000007"
      }
    ]
  },
  "790106": {
    "state": "ARUNACHAL PRADESH",
    "district": "TAWANG",
    "offices": [
      {
        "officename": "Gispu B.O",
        "officetype": "BO",
        "delivery": "Delivery",
        "divisionname": "Arunachal Pradesh Division",
        "regionname": "Shillong HQ Region",
        "circlename": "North Eastern Circle",
        "latitude": "27.5672",
        "longitude": "91.698499999999996"
      },
      {
        "officename": "Mangnam",
        "officetype": "BO",
        "delivery": "Delivery",
        "divisionname": "Arunachal Pradesh Division",
        "regionname": "Shillong HQ Region",
        "circlename": "North Eastern Circle",
        "latitude": "27.3229045",
        "longitude": "91.433525799999998"
      },
      {
        "officename": "Yabab",
        "officetype": "BO",
        "delivery": "Delivery",
        "divisionname": "Arunachal Pradesh Division",
        "regionname": "Shillong HQ Region",
        "circlename": "North Eastern Circle",
        "latitude": "27.325984800000001",
        "longitude": "91.415747400000001"
      },
      {
        "officename": "New Lumla",
        "officetype": "BO",
        "delivery": "Delivery",
        "divisionname": "Arunachal Pradesh Division",
        "regionname": "Shillong HQ Region",
        "circlename": "North Eastern Circle",
        "latitude": "27.3229045",
        "longitude": "91.433525799999998"
      },
      {
        "officename": "Sazo",
        "officetype": "BO",
        "delivery": "Delivery",
        "divisionname": "Arunachal Pradesh Division",
        "regionname": "Shillong HQ Region",
        "circlename": "North Eastern Circle",
        "latitude": "27.305647799999999",
        "longitude": "91.424467300000003"
      },
      {
        "officename": "Lumla S.O",
        "officetype": "PO",
        "delivery": "Delivery",
        "divisionname": "Arunachal Pradesh Division",
        "regionname": "Shillong HQ Region",
        "circlename": "North Eastern Circle",
        "latitude": "27.6317760",
        "longitude": "92.1034960"
      },
      {
        "officename": "Zimithang B.O",
        "officetype": "BO",
        "delivery": "Delivery",
        "divisionname": "Arunachal Pradesh Division",
        "regionname": "Shillong HQ Region",
        "circlename": "North Eastern Circle",
        "latitude": "27.709925500000001",
        "longitude": "91.728368700000004"
      },
      {
        "officename": "Lumla H.Q.",
        "officetype": "BO",
        "delivery": "Delivery",
        "divisionname": "Arunachal Pradesh Division",
        "regionname": "Shillong HQ Region",
        "circlename": "North Eastern Circle",
        "latitude": "27.323912499999999",
        "longitude": "91.434256199999993"
      },
      {
        "officename": "Kungba",
        "officetype": "BO",
        "delivery": "Delivery",
        "divisionname": "Arunachal Pradesh Division",
        "regionname": "Shillong HQ Region",
        "circlename": "North Eastern Circle",
        "latitude": "27.3042692",
        "longitude": "91.414237099999994"
      }
    ]
  },
  "790114": {
    "state": "ARUNACHAL PRADESH",
    "district": "WEST KAMENG",
    "offices": [
      {
        "officename": "Elephant Flat",
        "officetype": "BO",
        "delivery": "Delivery",
        "divisionname": "Arunachal Pradesh Division",
        "regionname": "Shillong HQ Region",
        "circlename": "North Eastern Circle",
        "latitude": "27.531324999999999",
        "longitude": "92.352163200000007"
      },
      {
        "officename": "Sessa",
        "officetype": "BO",
        "delivery": "Delivery",
        "divisionname": "Arunachal Pradesh Division",
        "regionname": "Shillong HQ Region",
        "circlename": "North Eastern Circle",
        "latitude": "27.554819999999999",
        "longitude": "92.321168400000005"
      },
      {
        "officename": "Upper Bhalukpong HQ",
        "officetype": "BO",
        "delivery": "Delivery",
        "divisionname": "Arunachal Pradesh Division",
        "regionname": "Shillong HQ Region",
        "circlename": "North Eastern Circle",
        "latitude": "27.055683999999999",
        "longitude": "92.381593899999999"
      },
      {
        "officename": "Khellong B.O",
        "officetype": "BO",
        "delivery": "Delivery",
        "divisionname": "Arunachal Pradesh Division",
        "regionname": "Shillong HQ Region",
        "circlename": "North Eastern Circle",
        "latitude": "26.991018700000001",
        "longitude": "92.412177"
      },
      {
        "officename": "Lower Bhalukpong",
        "officetype": "BO",
        "delivery": "Delivery",
        "divisionname": "Arunachal Pradesh Division",
        "regionname": "Shillong HQ Region",
        "circlename": "North Eastern Circle",
        "latitude": "27.043196999999999",
        "longitude": "92.384352500000006"
      },
      {
        "officename": "Kamengbari",
        "officetype": "BO",
        "delivery": "Delivery",
        "divisionname": "Arunachal Pradesh Division",
        "regionname": "Shillong HQ Region",
        "circlename": "North Eastern Circle",
        "latitude": "26.554704000000001",
        "longitude": "92.255221899999995"
      },
      {
        "officename": "Painaktang",
        "officetype": "BO",
        "delivery": "Delivery",
        "divisionname": "Arunachal Pradesh Division",
        "regionname": "Shillong HQ Region",
        "circlename": "North Eastern Circle",
        "latitude": "26.555281799999999",
        "longitude": "92.743070000000003"
      },
      {
        "officename": "Yollongripam",
        "officetype": "BO",
        "delivery": "Delivery",
        "divisionname": "Arunachal Pradesh Division",
        "regionname": "Shillong HQ Region",
        "circlename": "North Eastern Circle",
        "latitude": "26.5732222",
        "longitude": "92.102539199999995"
      },
      {
        "officename": "Bhalukpong S.O",
        "officetype": "PO",
        "delivery": "Delivery",
        "divisionname": "Arunachal Pradesh Division",
        "regionname": "Shillong HQ Region",
        "circlename": "North Eastern Circle",
        "latitude": "27.2928540",
        "longitude": "92.4974340"
      },
      {
        "officename": "Tippi B.O",
        "officetype": "BO",
        "delivery": "Delivery",
        "divisionname": "Arunachal Pradesh Division",
        "regionname": "Shillong HQ Region",
        "circlename": "North Eastern Circle",
        "latitude": "27.1011715",
        "longitude": "92.581739999999996"
      },
      {
        "officename": "1700 Chain PWD Camp",
        "officetype": "BO",
        "delivery": "Delivery",
        "divisionname": "Arunachal Pradesh Division",
        "regionname": "Shillong HQ Region",
        "circlename": "North Eastern Circle",
        "latitude": "26.5532124",
        "longitude": "92.0721451"
      }
    ]
  },
  "790116": {
    "state": "ARUNACHAL PRADESH",
    "district": "WEST KAMENG",
    "offices": [
      {
        "officename": "Kimi Village",
        "officetype": "BO",
        "delivery": "Delivery",
        "divisionname": "Arunachal Pradesh Division",
        "regionname": "Shillong HQ Region",
        "circlename": "North Eastern Circle",
        "latitude": "27.102156900000001",
        "longitude": "92.421192700000006"
      },
      {
        "officename": "Dahung B.O",
        "officetype": "BO",
        "delivery": "Delivery",
        "divisionname": "Arunachal Pradesh Division",
        "regionname": "Shillong HQ Region",
        "circlename": "North Eastern Circle",
        "latitude": "27.211119499999999",
        "longitude": "92.506136299999994"
      },
      {
        "officename": "Thessa",
        "officetype": "BO",
        "delivery": "Delivery",
        "divisionname": "Arunachal Pradesh Division",
        "regionname": "Shillong HQ Region",
        "circlename": "North Eastern Circle",
        "latitude": "27.183293599999999",
        "longitude": "92.412208100000001"
      },
      {
        "officename": "Singchung B.O",
        "officetype": "BO",
        "delivery": "Delivery",
        "divisionname": "Arunachal Pradesh Division",
        "regionname": "Shillong HQ Region",
        "circlename": "North Eastern Circle",
        "latitude": "27.198342",
        "longitude": "92.487171200000006"
      },
      {
        "officename": "Bichom",
        "officetype": "BO",
        "delivery": "Delivery",
        "divisionname": "Arunachal Pradesh Division",
        "regionname": "Shillong HQ Region",
        "circlename": "North Eastern Circle",
        "latitude": "27.185359999999999",
        "longitude": "92.364865399999999"
      },
      {
        "officename": "Ramdagania",
        "officetype": "BO",
        "delivery": "Delivery",
        "divisionname": "Arunachal Pradesh Division",
        "regionname": "Shillong HQ Region",
        "circlename": "North Eastern Circle",
        "latitude": "27.162265999999999",
        "longitude": "92.443549099999998"
      },
      {
        "officename": "Pharizin",
        "officetype": "BO",
        "delivery": "Delivery",
        "divisionname": "Arunachal Pradesh Division",
        "regionname": "Shillong HQ Region",
        "circlename": "North Eastern Circle",
        "latitude": "27.200308",
        "longitude": "92.434939999999997"
      },
      {
        "officename": "Karangania",
        "officetype": "BO",
        "delivery": "Delivery",
        "divisionname": "Arunachal Pradesh Division",
        "regionname": "Shillong HQ Region",
        "circlename": "North Eastern Circle",
        "latitude": "27.1755262",
        "longitude": "92.423822799999996"
      },
      {
        "officename": "Ditching",
        "officetype": "BO",
        "delivery": "Delivery",
        "divisionname": "Arunachal Pradesh Division",
        "regionname": "Shillong HQ Region",
        "circlename": "North Eastern Circle",
        "latitude": "27.163305300000001",
        "longitude": "92.303942000000006"
      },
      {
        "officename": "Maraka",
        "officetype": "BO",
        "delivery": "Delivery",
        "divisionname": "Arunachal Pradesh Division",
        "regionname": "Shillong HQ Region",
        "circlename": "North Eastern Circle",
        "latitude": "27.151185099999999",
        "longitude": "92.392609300000004"
      },
      {
        "officename": "Tenga Market S.O",
        "officetype": "PO",
        "delivery": "Delivery",
        "divisionname": "Arunachal Pradesh Division",
        "regionname": "Shillong HQ Region",
        "circlename": "North Eastern Circle",
        "latitude": "27.2928540",
        "longitude": "92.4974340"
      },
      {
        "officename": "Dedza B.O",
        "officetype": "BO",
        "delivery": "Delivery",
        "divisionname": "Arunachal Pradesh Division",
        "regionname": "Shillong HQ Region",
        "circlename": "North Eastern Circle",
        "latitude": "27.181058100000001",
        "longitude": "92.574994099999998"
      }
    ]
  },
  "791001": {
    "state": "ARUNACHAL PRADESH",
    "district": "WEST SIANG",
    "offices": [
      {
        "officename": "Bagra B.O",
        "officetype": "BO",
        "delivery": "Delivery",
        "divisionname": "Arunachal Pradesh Division",
        "regionname": "Shillong HQ Region",
        "circlename": "North Eastern Circle",
        "latitude": "28.063872799999999",
        "longitude": "94.756447699999995"
      },
      {
        "officename": "Darak B.O",
        "officetype": "BO",
        "delivery": "Delivery",
        "divisionname": "Arunachal Pradesh Division",
        "regionname": "Shillong HQ Region",
        "circlename": "North Eastern Circle",
        "latitude": "28.163753199999999",
        "longitude": "94.805408"
      },
      {
        "officename": "Kaying B.O",
        "officetype": "BO",
        "delivery": "Delivery",
        "divisionname": "Arunachal Pradesh Division",
        "regionname": "Shillong HQ Region",
        "circlename": "North Eastern Circle",
        "latitude": "28.453338500000001",
        "longitude": "94.668607499999993"
      },
      {
        "officename": "Logum Jining B.O",
        "officetype": "BO",
        "delivery": "Delivery",
        "divisionname": "Arunachal Pradesh Division",
        "regionname": "Shillong HQ Region",
        "circlename": "North Eastern Circle",
        "latitude": "28.197330900000001",
        "longitude": "94.824680799999996"
      },
      {
        "officename": "Payum B.O",
        "officetype": "BO",
        "delivery": "Delivery",
        "divisionname": "Arunachal Pradesh Division",
        "regionname": "Shillong HQ Region",
        "circlename": "North Eastern Circle",
        "latitude": "28.542269999999998",
        "longitude": "94.639735000000002"
      },
      {
        "officename": "Pessing B.O",
        "officetype": "BO",
        "delivery": "Delivery",
        "divisionname": "Arunachal Pradesh Division",
        "regionname": "Shillong HQ Region",
        "circlename": "North Eastern Circle",
        "latitude": "28.176727700000001",
        "longitude": "94.798074499999998"
      },
      {
        "officename": "Yoji Yora B.O",
        "officetype": "BO",
        "delivery": "Delivery",
        "divisionname": "Arunachal Pradesh Division",
        "regionname": "Shillong HQ Region",
        "circlename": "North Eastern Circle",
        "latitude": "28.155919399999998",
        "longitude": "94.803043700000003"
      },
      {
        "officename": "Mega",
        "officetype": "BO",
        "delivery": "Delivery",
        "divisionname": "Arunachal Pradesh Division",
        "regionname": "Shillong HQ Region",
        "circlename": "North Eastern Circle",
        "latitude": "28.293991299999998",
        "longitude": "94.401550099999994"
      },
      {
        "officename": "Jomlo Bari",
        "officetype": "BO",
        "delivery": "Delivery",
        "divisionname": "Arunachal Pradesh Division",
        "regionname": "Shillong HQ Region",
        "circlename": "North Eastern Circle",
        "latitude": "28.141529899999998",
        "longitude": "94.487261000000004"
      },
      {
        "officename": "Jomlo Mongku",
        "officetype": "BO",
        "delivery": "Delivery",
        "divisionname": "Arunachal Pradesh Division",
        "regionname": "Shillong HQ Region",
        "circlename": "North Eastern Circle",
        "latitude": "28.130512",
        "longitude": "94.491708000000003"
      },
      {
        "officename": "Damda Deku",
        "officetype": "BO",
        "delivery": "Delivery",
        "divisionname": "Arunachal Pradesh Division",
        "regionname": "Shillong HQ Region",
        "circlename": "North Eastern Circle",
        "latitude": "28.152743900000001",
        "longitude": "94.552824999999999"
      },
      {
        "officename": "Pokto",
        "officetype": "BO",
        "delivery": "Delivery",
        "divisionname": "Arunachal Pradesh Division",
        "regionname": "Shillong HQ Region",
        "circlename": "North Eastern Circle",
        "latitude": "28.515806000000001",
        "longitude": "94.305521999999996"
      },
      {
        "officename": "Laggi Gamlin",
        "officetype": "BO",
        "delivery": "Delivery",
        "divisionname": "Arunachal Pradesh Division",
        "regionname": "Shillong HQ Region",
        "circlename": "North Eastern Circle",
        "latitude": "28.598880000000001",
        "longitude": "94.335527400000004"
      },
      {
        "officename": "Tapiyor",
        "officetype": "BO",
        "delivery": "Delivery",
        "divisionname": "Arunachal Pradesh Division",
        "regionname": "Shillong HQ Region",
        "circlename": "North Eastern Circle",
        "latitude": "28.880120000000002",
        "longitude": "94.354708000000002"
      },
      {
        "officename": "Ragyi",
        "officetype": "BO",
        "delivery": "Delivery",
        "divisionname": "Arunachal Pradesh Division",
        "regionname": "Shillong HQ Region",
        "circlename": "North Eastern Circle",
        "latitude": "28.934538",
        "longitude": "94.432298700000004"
      },
      {
        "officename": "Vivek Nagar (R.K. Mission)",
        "officetype": "BO",
        "delivery": "Delivery",
        "divisionname": "Arunachal Pradesh Division",
        "regionname": "Shillong HQ Region",
        "circlename": "North Eastern Circle",
        "latitude": "28.982330000000001",
        "longitude": "94.477144999999993"
      },
      {
        "officename": "Ngomdir",
        "officetype": "BO",
        "delivery": "Delivery",
        "divisionname": "Arunachal Pradesh Division",
        "regionname": "Shillong HQ Region",
        "circlename": "North Eastern Circle",
        "latitude": "28.317107",
        "longitude": "94.495056000000005"
      },
      {
        "officename": "Monigong B.O",
        "officetype": "BO",
        "delivery": "Delivery",
        "divisionname": "Arunachal Pradesh Division",
        "regionname": "Shillong HQ Region",
        "circlename": "North Eastern Circle",
        "latitude": "28.7818207",
        "longitude": "94.280376"
      },
      {
        "officename": "Nikte B.O",
        "officetype": "BO",
        "delivery": "Delivery",
        "divisionname": "Arunachal Pradesh Division",
        "regionname": "Shillong HQ Region",
        "circlename": "North Eastern Circle",
        "latitude": "28.132650900000002",
        "longitude": "94.670253700000004"
      },
      {
        "officename": "Vivek Nagar B.O",
        "officetype": "BO",
        "delivery": "Delivery",
        "divisionname": "Arunachal Pradesh Division",
        "regionname": "Shillong HQ Region",
        "circlename": "North Eastern Circle",
        "latitude": "28.152734599999999",
        "longitude": "94.787208000000007"
      },
      {
        "officename": "Kamba H.Q.",
        "officetype": "BO",
        "delivery": "Delivery",
        "divisionname": "Arunachal Pradesh Division",
        "regionname": "Shillong HQ Region",
        "circlename": "North Eastern Circle",
        "latitude": "28.154413999999999",
        "longitude": "94.402965399999999"
      },
      {
        "officename": "Yogong",
        "officetype": "BO",
        "delivery": "Delivery",
        "divisionname": "Arunachal Pradesh Division",
        "regionname": "Shillong HQ Region",
        "circlename": "North Eastern Circle",
        "latitude": "28.214073800000001",
        "longitude": "94.521312699999996"
      },
      {
        "officename": "Kamdi",
        "officetype": "BO",
        "delivery": "Delivery",
        "divisionname": "Arunachal Pradesh Division",
        "regionname": "Shillong HQ Region",
        "circlename": "North Eastern Circle",
        "latitude": "27.533378500000001",
        "longitude": "96.474276000000003"
      },
      {
        "officename": "Rumgong B.O",
        "officetype": "BO",
        "delivery": "Delivery",
        "divisionname": "Arunachal Pradesh Division",
        "regionname": "Shillong HQ Region",
        "circlename": "North Eastern Circle",
        "latitude": "28.311625800000002",
        "longitude": "94.8869787"
      },
      {
        "officename": "Gune Bane(including Popn Camp)",
        "officetype": "BO",
        "delivery": "Delivery",
        "divisionname": "Arunachal Pradesh Division",
        "regionname": "Shillong HQ Region",
        "circlename": "North Eastern Circle",
        "latitude": "28.1154668",
        "longitude": "94.432393399999995"
      },
      {
        "officename": "Darka B.O",
        "officetype": "BO",
        "delivery": "Delivery",
        "divisionname": "Arunachal Pradesh Division",
        "regionname": "Shillong HQ Region",
        "circlename": "North Eastern Circle",
        "latitude": "28.114626900000001",
        "longitude": "94.791816600000004"
      },
      {
        "officename": "Kambang B.O",
        "officetype": "BO",
        "delivery": "Delivery",
        "divisionname": "Arunachal Pradesh Division",
        "regionname": "Shillong HQ Region",
        "circlename": "North Eastern Circle",
        "latitude": "28.2790064",
        "longitude": "94.678043099999996"
      },
      {
        "officename": "Tato B.O",
        "officetype": "BO",
        "delivery": "Delivery",
        "divisionname": "Arunachal Pradesh Division",
        "regionname": "Shillong HQ Region",
        "circlename": "North Eastern Circle",
        "latitude": "28.5034137",
        "longitude": "94.3901758"
      },
      {
        "officename": "Gaming",
        "officetype": "BO",
        "delivery": "Delivery",
        "divisionname": "Arunachal Pradesh Division",
        "regionname": "Shillong HQ Region",
        "circlename": "North Eastern Circle",
        "latitude": "28.352552299999999",
        "longitude": "94.401988200000005"
      },
      {
        "officename": "Molo",
        "officetype": "BO",
        "delivery": "Delivery",
        "divisionname": "Arunachal Pradesh Division",
        "regionname": "Shillong HQ Region",
        "circlename": "North Eastern Circle",
        "latitude": "28.322763200000001",
        "longitude": "94.382204200000004"
      },
      {
        "officename": "Bogne",
        "officetype": "BO",
        "delivery": "Delivery",
        "divisionname": "Arunachal Pradesh Division",
        "regionname": "Shillong HQ Region",
        "circlename": "North Eastern Circle",
        "latitude": "28.1838044",
        "longitude": "94.422139000000001"
      },
      {
        "officename": "Ruyi",
        "officetype": "BO",
        "delivery": "Delivery",
        "divisionname": "Arunachal Pradesh Division",
        "regionname": "Shillong HQ Region",
        "circlename": "North Eastern Circle",
        "latitude": "28.155407199999999",
        "longitude": "94.417912000000001"
      },
      {
        "officename": "Jomlo Mobuk",
        "officetype": "BO",
        "delivery": "Delivery",
        "divisionname": "Arunachal Pradesh Division",
        "regionname": "Shillong HQ Region",
        "circlename": "North Eastern Circle",
        "latitude": "28.133579600000001",
        "longitude": "94.494417999999996"
      },
      {
        "officename": "Rampa(including Patum Camp)",
        "officetype": "BO",
        "delivery": "Delivery",
        "divisionname": "Arunachal Pradesh Division",
        "regionname": "Shillong HQ Region",
        "circlename": "North Eastern Circle",
        "latitude": "28.124392400000001",
        "longitude": "94.494959499999993"
      },
      {
        "officename": "Bole",
        "officetype": "BO",
        "delivery": "Delivery",
        "divisionname": "Arunachal Pradesh Division",
        "regionname": "Shillong HQ Region",
        "circlename": "North Eastern Circle",
        "latitude": "28.734928",
        "longitude": "94.273948099999998"
      },
      {
        "officename": "Lipu Yomcha",
        "officetype": "BO",
        "delivery": "Delivery",
        "divisionname": "Arunachal Pradesh Division",
        "regionname": "Shillong HQ Region",
        "circlename": "North Eastern Circle",
        "latitude": "28.722259999999999",
        "longitude": "94.342693299999993"
      },
      {
        "officename": "Yomcha H.Q.",
        "officetype": "BO",
        "delivery": "Delivery",
        "divisionname": "Arunachal Pradesh Division",
        "regionname": "Shillong HQ Region",
        "circlename": "North Eastern Circle",
        "latitude": "28.747005999999999",
        "longitude": "94.341911699999997"
      },
      {
        "officename": "Bene B.O",
        "officetype": "BO",
        "delivery": "Delivery",
        "divisionname": "Arunachal Pradesh Division",
        "regionname": "Shillong HQ Region",
        "circlename": "North Eastern Circle",
        "latitude": "28.194877200000001",
        "longitude": "94.716092200000006"
      },
      {
        "officename": "Kombo B.O",
        "officetype": "BO",
        "delivery": "Delivery",
        "divisionname": "Arunachal Pradesh Division",
        "regionname": "Shillong HQ Region",
        "circlename": "North Eastern Circle",
        "latitude": "28.121747299999999",
        "longitude": "94.833298600000006"
      },
      {
        "officename": "Yomcha B.O",
        "officetype": "BO",
        "delivery": "Delivery",
        "divisionname": "Arunachal Pradesh Division",
        "regionname": "Shillong HQ Region",
        "circlename": "North Eastern Circle",
        "latitude": "28.1308455",
        "longitude": "94.571373100000002"
      },
      {
        "officename": "Gate",
        "officetype": "BO",
        "delivery": "Delivery",
        "divisionname": "Arunachal Pradesh Division",
        "regionname": "Shillong HQ Region",
        "circlename": "North Eastern Circle",
        "latitude": "28.399674999999998",
        "longitude": "94.371587399999996"
      },
      {
        "officename": "Gasheng",
        "officetype": "BO",
        "delivery": "Delivery",
        "divisionname": "Arunachal Pradesh Division",
        "regionname": "Shillong HQ Region",
        "circlename": "North Eastern Circle",
        "latitude": "28.384744999999999",
        "longitude": "94.397289999999998"
      },
      {
        "officename": "Boru Raksap",
        "officetype": "BO",
        "delivery": "Delivery",
        "divisionname": "Arunachal Pradesh Division",
        "regionname": "Shillong HQ Region",
        "circlename": "North Eastern Circle",
        "latitude": "28.1530244",
        "longitude": "94.352010100000001"
      },
      {
        "officename": "DPG College Kamki",
        "officetype": "BO",
        "delivery": "Delivery",
        "divisionname": "Arunachal Pradesh Division",
        "regionname": "Shillong HQ Region",
        "circlename": "North Eastern Circle",
        "latitude": "28.164382400000001",
        "longitude": "94.412170000000003"
      },
      {
        "officename": "Kato Moku",
        "officetype": "BO",
        "delivery": "Delivery",
        "divisionname": "Arunachal Pradesh Division",
        "regionname": "Shillong HQ Region",
        "circlename": "North Eastern Circle",
        "latitude": "28.143117799999999",
        "longitude": "94.403130000000004"
      },
      {
        "officename": "Ligok Kayi",
        "officetype": "BO",
        "delivery": "Delivery",
        "divisionname": "Arunachal Pradesh Division",
        "regionname": "Shillong HQ Region",
        "circlename": "North Eastern Circle",
        "latitude": "28.882999999999999",
        "longitude": "94.272140899999997"
      },
      {
        "officename": "Liromoba",
        "officetype": "BO",
        "delivery": "Delivery",
        "divisionname": "Arunachal Pradesh Division",
        "regionname": "Shillong HQ Region",
        "circlename": "North Eastern Circle",
        "latitude": "28.412994000000001",
        "longitude": "94.294400199999998"
      },
      {
        "officename": "Lirum",
        "officetype": "BO",
        "delivery": "Delivery",
        "divisionname": "Arunachal Pradesh Division",
        "regionname": "Shillong HQ Region",
        "circlename": "North Eastern Circle",
        "latitude": "28.338092",
        "longitude": "94.291471599999994"
      },
      {
        "officename": "Along S.O",
        "officetype": "PO",
        "delivery": "Delivery",
        "divisionname": "Arunachal Pradesh Division",
        "regionname": "Shillong HQ Region",
        "circlename": "North Eastern Circle",
        "latitude": "28.16988889",
        "longitude": "94.79788889"
      }
    ]
  },
  "791002": {
    "state": "ARUNACHAL PRADESH",
    "district": "UPPER SIANG",
    "offices": [
      {
        "officename": "Palling H.Q.",
        "officetype": "BO",
        "delivery": "Delivery",
        "divisionname": "Arunachal Pradesh Division",
        "regionname": "Shillong HQ Region",
        "circlename": "North Eastern Circle",
        "latitude": "28.509993000000001",
        "longitude": "94.482996499999999"
      },
      {
        "officename": "Janbo",
        "officetype": "BO",
        "delivery": "Delivery",
        "divisionname": "Arunachal Pradesh Division",
        "regionname": "Shillong HQ Region",
        "circlename": "North Eastern Circle",
        "latitude": "28.474898499999998",
        "longitude": "94.513383599999997"
      },
      {
        "officename": "Mariyang B.O",
        "officetype": "BO",
        "delivery": "Delivery",
        "divisionname": "Arunachal Pradesh Division",
        "regionname": "Shillong HQ Region",
        "circlename": "North Eastern Circle",
        "latitude": "28.487146800000001",
        "longitude": "95.222883199999998"
      },
      {
        "officename": "Komkar(Rasing)",
        "officetype": "BO",
        "delivery": "Delivery",
        "divisionname": "Arunachal Pradesh Division",
        "regionname": "Shillong HQ Region",
        "circlename": "North Eastern Circle",
        "latitude": "28.291691199999999",
        "longitude": "95.648923999999994"
      },
      {
        "officename": "Damro-Gidum",
        "officetype": "BO",
        "delivery": "Delivery",
        "divisionname": "Arunachal Pradesh Division",
        "regionname": "Shillong HQ Region",
        "circlename": "North Eastern Circle",
        "latitude": "28.262180399999998",
        "longitude": "95.144431499999996"
      },
      {
        "officename": "Sibum",
        "officetype": "BO",
        "delivery": "Delivery",
        "divisionname": "Arunachal Pradesh Division",
        "regionname": "Shillong HQ Region",
        "circlename": "North Eastern Circle",
        "latitude": "28.185128200000001",
        "longitude": "95.918582999999998"
      },
      {
        "officename": "Silli",
        "officetype": "BO",
        "delivery": "Delivery",
        "divisionname": "Arunachal Pradesh Division",
        "regionname": "Shillong HQ Region",
        "circlename": "North Eastern Circle",
        "latitude": "28.1341243",
        "longitude": "95.133261399999995"
      },
      {
        "officename": "Shimong B.O",
        "officetype": "BO",
        "delivery": "Delivery",
        "divisionname": "Arunachal Pradesh Division",
        "regionname": "Shillong HQ Region",
        "circlename": "North Eastern Circle",
        "latitude": "28.6033498",
        "longitude": "95.071410599999993"
      },
      {
        "officename": "Komkar (Buksang)",
        "officetype": "BO",
        "delivery": "Delivery",
        "divisionname": "Arunachal Pradesh Division",
        "regionname": "Shillong HQ Region",
        "circlename": "North Eastern Circle",
        "latitude": "28.2945229",
        "longitude": "95.645849999999996"
      },
      {
        "officename": "Yingkiong S.O",
        "officetype": "PO",
        "delivery": "Delivery",
        "divisionname": "Arunachal Pradesh Division",
        "regionname": "Shillong HQ Region",
        "circlename": "North Eastern Circle",
        "latitude": "28.9983340",
        "longitude": "94.8147180"
      },
      {
        "officename": "Moying",
        "officetype": "BO",
        "delivery": "Delivery",
        "divisionname": "Arunachal Pradesh Division",
        "regionname": "Shillong HQ Region",
        "circlename": "North Eastern Circle",
        "latitude": "28.394493000000001",
        "longitude": "95.051739999999995"
      },
      {
        "officename": "Jommo-Kupak",
        "officetype": "BO",
        "delivery": "Delivery",
        "divisionname": "Arunachal Pradesh Division",
        "regionname": "Shillong HQ Region",
        "circlename": "North Eastern Circle",
        "latitude": "28.263621100000002",
        "longitude": "95.511291999999997"
      },
      {
        "officename": "Dalbing B.O",
        "officetype": "BO",
        "delivery": "Delivery",
        "divisionname": "Arunachal Pradesh Division",
        "regionname": "Shillong HQ Region",
        "circlename": "North Eastern Circle",
        "latitude": "28.5334489",
        "longitude": "95.1673045"
      },
      {
        "officename": "Geku B.O",
        "officetype": "BO",
        "delivery": "Delivery",
        "divisionname": "Arunachal Pradesh Division",
        "regionname": "Shillong HQ Region",
        "circlename": "North Eastern Circle",
        "latitude": "28.4190939",
        "longitude": "95.086637999999994"
      },
      {
        "officename": "Karko B.O",
        "officetype": "BO",
        "delivery": "Delivery",
        "divisionname": "Arunachal Pradesh Division",
        "regionname": "Shillong HQ Region",
        "circlename": "North Eastern Circle",
        "latitude": "28.593133399999999",
        "longitude": "94.996082000000001"
      },
      {
        "officename": "Komkar(Sizer)",
        "officetype": "BO",
        "delivery": "Delivery",
        "divisionname": "Arunachal Pradesh Division",
        "regionname": "Shillong HQ Region",
        "circlename": "North Eastern Circle",
        "latitude": "28.295507000000001",
        "longitude": "95.644773000000001"
      },
      {
        "officename": "Ramku",
        "officetype": "BO",
        "delivery": "Delivery",
        "divisionname": "Arunachal Pradesh Division",
        "regionname": "Shillong HQ Region",
        "circlename": "North Eastern Circle",
        "latitude": "28.251607",
        "longitude": "95.522373000000002"
      },
      {
        "officename": "Sumsing",
        "officetype": "BO",
        "delivery": "Delivery",
        "divisionname": "Arunachal Pradesh Division",
        "regionname": "Shillong HQ Region",
        "circlename": "North Eastern Circle",
        "latitude": "28.215991800000001",
        "longitude": "95.724850000000004"
      },
      {
        "officename": "Peki-Modi",
        "officetype": "BO",
        "delivery": "Delivery",
        "divisionname": "Arunachal Pradesh Division",
        "regionname": "Shillong HQ Region",
        "circlename": "North Eastern Circle",
        "latitude": "28.342058999999999",
        "longitude": "95.165704000000005"
      },
      {
        "officename": "Jeru",
        "officetype": "BO",
        "delivery": "Delivery",
        "divisionname": "Arunachal Pradesh Division",
        "regionname": "Shillong HQ Region",
        "circlename": "North Eastern Circle",
        "latitude": "28.151512",
        "longitude": "95.121935399999998"
      },
      {
        "officename": "Katan H.Q.",
        "officetype": "BO",
        "delivery": "Delivery",
        "divisionname": "Arunachal Pradesh Division",
        "regionname": "Shillong HQ Region",
        "circlename": "North Eastern Circle",
        "latitude": "28.182866700000002",
        "longitude": "95.104253"
      },
      {
        "officename": "Damro B.O",
        "officetype": "BO",
        "delivery": "Delivery",
        "divisionname": "Arunachal Pradesh Division",
        "regionname": "Shillong HQ Region",
        "circlename": "North Eastern Circle",
        "latitude": "28.448708799999999",
        "longitude": "95.239987999999997"
      },
      {
        "officename": "Gobuk",
        "officetype": "BO",
        "delivery": "Delivery",
        "divisionname": "Arunachal Pradesh Division",
        "regionname": "Shillong HQ Region",
        "circlename": "North Eastern Circle",
        "latitude": "28.343043600000001",
        "longitude": "95.755160000000004"
      },
      {
        "officename": "Sikadine",
        "officetype": "BO",
        "delivery": "Delivery",
        "divisionname": "Arunachal Pradesh Division",
        "regionname": "Shillong HQ Region",
        "circlename": "North Eastern Circle",
        "latitude": "28.284559000000002",
        "longitude": "95.531006000000005"
      }
    ]
  },
  "791003": {
    "state": "ARUNACHAL PRADESH",
    "district": "SHI YOMI",
    "offices": [
      {
        "officename": "Rapum",
        "officetype": "BO",
        "delivery": "Delivery",
        "divisionname": "Arunachal Pradesh Division",
        "regionname": "Shillong HQ Region",
        "circlename": "North Eastern Circle",
        "latitude": "28.315712900000001",
        "longitude": "94.152256100000002"
      },
      {
        "officename": "Geching",
        "officetype": "BO",
        "delivery": "Delivery",
        "divisionname": "Arunachal Pradesh Division",
        "regionname": "Shillong HQ Region",
        "circlename": "North Eastern Circle",
        "latitude": "28.436429",
        "longitude": "94.174427600000001"
      },
      {
        "officename": "Pidi H.Q.",
        "officetype": "BO",
        "delivery": "Delivery",
        "divisionname": "Arunachal Pradesh Division",
        "regionname": "Shillong HQ Region",
        "circlename": "North Eastern Circle",
        "latitude": "28.374057199999999",
        "longitude": "94.211721400000002"
      },
      {
        "officename": "Mechuka S.O",
        "officetype": "PO",
        "delivery": "Delivery",
        "divisionname": "Arunachal Pradesh Division",
        "regionname": "Shillong HQ Region",
        "circlename": "North Eastern Circle",
        "latitude": "28.1733440",
        "longitude": "94.7653200"
      },
      {
        "officename": "Barbo",
        "officetype": "BO",
        "delivery": "Delivery",
        "divisionname": "Arunachal Pradesh Division",
        "regionname": "Shillong HQ Region",
        "circlename": "North Eastern Circle",
        "latitude": "28.356065999999998",
        "longitude": "94.241642900000002"
      },
      {
        "officename": "Rego",
        "officetype": "BO",
        "delivery": "Delivery",
        "divisionname": "Arunachal Pradesh Division",
        "regionname": "Shillong HQ Region",
        "circlename": "North Eastern Circle",
        "latitude": "28.332656100000001",
        "longitude": "94.133350800000002"
      },
      {
        "officename": "Purying",
        "officetype": "BO",
        "delivery": "Delivery",
        "divisionname": "Arunachal Pradesh Division",
        "regionname": "Shillong HQ Region",
        "circlename": "North Eastern Circle",
        "latitude": "28.322599499999999",
        "longitude": "94.169878999999995"
      },
      {
        "officename": "Hirong",
        "officetype": "BO",
        "delivery": "Delivery",
        "divisionname": "Arunachal Pradesh Division",
        "regionname": "Shillong HQ Region",
        "circlename": "North Eastern Circle",
        "latitude": "28.343007499999999",
        "longitude": "94.235141900000002"
      },
      {
        "officename": "Tato H.Q. (including Labour Camp)",
        "officetype": "BO",
        "delivery": "Delivery",
        "divisionname": "Arunachal Pradesh Division",
        "regionname": "Shillong HQ Region",
        "circlename": "North Eastern Circle",
        "latitude": "28.3148023",
        "longitude": "94.222800599999999"
      },
      {
        "officename": "Monigong H.Q.",
        "officetype": "BO",
        "delivery": "Delivery",
        "divisionname": "Arunachal Pradesh Division",
        "regionname": "Shillong HQ Region",
        "circlename": "North Eastern Circle",
        "latitude": "28.465753100000001",
        "longitude": "94.164786100000001"
      },
      {
        "officename": "Lungte",
        "officetype": "BO",
        "delivery": "Delivery",
        "divisionname": "Arunachal Pradesh Division",
        "regionname": "Shillong HQ Region",
        "circlename": "North Eastern Circle",
        "latitude": "28.3614809",
        "longitude": "94.235860599999995"
      },
      {
        "officename": "Tadogita",
        "officetype": "BO",
        "delivery": "Delivery",
        "divisionname": "Arunachal Pradesh Division",
        "regionname": "Shillong HQ Region",
        "circlename": "North Eastern Circle",
        "latitude": "28.3028698",
        "longitude": "94.2455353"
      }
    ]
  },
  "791004": {
    "state": "ARUNACHAL PRADESH",
    "district": "EAST SIANG",
    "offices": [
      {
        "officename": "Babuk",
        "officetype": "BO",
        "delivery": "Delivery",
        "divisionname": "Arunachal Pradesh Division",
        "regionname": "Shillong HQ Region",
        "circlename": "North Eastern Circle",
        "latitude": "28.746423",
        "longitude": "95.626419999999996"
      },
      {
        "officename": "BOLENG SO",
        "officetype": "PO",
        "delivery": "Delivery",
        "divisionname": "Arunachal Pradesh Division",
        "regionname": "Shillong HQ Region",
        "circlename": "North Eastern Circle",
        "latitude": "28.3361746",
        "longitude": "94.9616457"
      }
    ]
  },
  "791101": {
    "state": "ARUNACHAL PRADESH",
    "district": "LEPARADA",
    "offices": [
      {
        "officename": "Bame B.O",
        "officetype": "BO",
        "delivery": "Delivery",
        "divisionname": "Arunachal Pradesh Division",
        "regionname": "Shillong HQ Region",
        "circlename": "North Eastern Circle",
        "latitude": "28.011400900000002",
        "longitude": "94.686594999999997"
      },
      {
        "officename": "Zirdo",
        "officetype": "BO",
        "delivery": "Delivery",
        "divisionname": "Arunachal Pradesh Division",
        "regionname": "Shillong HQ Region",
        "circlename": "North Eastern Circle",
        "latitude": "27.535881799999999",
        "longitude": "94.513807"
      },
      {
        "officename": "Dali B.O",
        "officetype": "BO",
        "delivery": "Delivery",
        "divisionname": "Arunachal Pradesh Division",
        "regionname": "Shillong HQ Region",
        "circlename": "North Eastern Circle",
        "latitude": "27.866758699999998",
        "longitude": "94.767030000000005"
      },
      {
        "officename": "Degom",
        "officetype": "BO",
        "delivery": "Delivery",
        "divisionname": "Arunachal Pradesh Division",
        "regionname": "Shillong HQ Region",
        "circlename": "North Eastern Circle",
        "latitude": "28.239286",
        "longitude": "94.344364799999994"
      },
      {
        "officename": "Ratak Gamlin",
        "officetype": "BO",
        "delivery": "Delivery",
        "divisionname": "Arunachal Pradesh Division",
        "regionname": "Shillong HQ Region",
        "circlename": "North Eastern Circle",
        "latitude": "28.123891",
        "longitude": "94.310159999999996"
      },
      {
        "officename": "Daring B.O",
        "officetype": "BO",
        "delivery": "Delivery",
        "divisionname": "Arunachal Pradesh Division",
        "regionname": "Shillong HQ Region",
        "circlename": "North Eastern Circle",
        "latitude": "27.850735799999999",
        "longitude": "94.810812600000006"
      },
      {
        "officename": "Liromoba B.O",
        "officetype": "BO",
        "delivery": "Delivery",
        "divisionname": "Arunachal Pradesh Division",
        "regionname": "Shillong HQ Region",
        "circlename": "North Eastern Circle",
        "latitude": "28.074370999999999",
        "longitude": "94.495044800000002"
      },
      {
        "officename": "Sago",
        "officetype": "BO",
        "delivery": "Delivery",
        "divisionname": "Arunachal Pradesh Division",
        "regionname": "Shillong HQ Region",
        "circlename": "North Eastern Circle",
        "latitude": "27.585714800000002",
        "longitude": "94.482242999999997"
      },
      {
        "officename": "Legi",
        "officetype": "BO",
        "delivery": "Delivery",
        "divisionname": "Arunachal Pradesh Division",
        "regionname": "Shillong HQ Region",
        "circlename": "North Eastern Circle",
        "latitude": "28.4 32628",
        "longitude": "94.28 28092"
      },
      {
        "officename": "Tirbin (HQ)",
        "officetype": "BO",
        "delivery": "Delivery",
        "divisionname": "Arunachal Pradesh Division",
        "regionname": "Shillong HQ Region",
        "circlename": "North Eastern Circle",
        "latitude": "28.228831",
        "longitude": "94.341989499999997"
      },
      {
        "officename": "Chirne",
        "officetype": "BO",
        "delivery": "Delivery",
        "divisionname": "Arunachal Pradesh Division",
        "regionname": "Shillong HQ Region",
        "circlename": "North Eastern Circle",
        "latitude": "27.5732742",
        "longitude": "94.393846199999999"
      },
      {
        "officename": "Tirbin B.O",
        "officetype": "BO",
        "delivery": "Delivery",
        "divisionname": "Arunachal Pradesh Division",
        "regionname": "Shillong HQ Region",
        "circlename": "North Eastern Circle",
        "latitude": "28.015301900000001",
        "longitude": "94.574339699999996"
      },
      {
        "officename": "Kadi",
        "officetype": "BO",
        "delivery": "Delivery",
        "divisionname": "Arunachal Pradesh Division",
        "regionname": "Shillong HQ Region",
        "circlename": "North Eastern Circle",
        "latitude": "27.593632400000001",
        "longitude": "94.411646200000007"
      },
      {
        "officename": "Old Daring",
        "officetype": "BO",
        "delivery": "Delivery",
        "divisionname": "Arunachal Pradesh Division",
        "regionname": "Shillong HQ Region",
        "circlename": "North Eastern Circle",
        "latitude": "27.514314599999999",
        "longitude": "94.482522200000005"
      },
      {
        "officename": "Basar S.O (West Siang)",
        "officetype": "PO",
        "delivery": "Delivery",
        "divisionname": "Arunachal Pradesh Division",
        "regionname": "Shillong HQ Region",
        "circlename": "North Eastern Circle",
        "latitude": "28.1733440",
        "longitude": "94.7653200"
      }
    ]
  },
  "791102": {
    "state": "ARUNACHAL PRADESH",
    "district": "EAST SIANG",
    "offices": [
      {
        "officename": "Ledum B.O",
        "officetype": "BO",
        "delivery": "Delivery",
        "divisionname": "Arunachal Pradesh Division",
        "regionname": "Shillong HQ Region",
        "circlename": "North Eastern Circle",
        "latitude": "27.9391888",
        "longitude": "95.125126199999997"
      },
      {
        "officename": "Riga B.O",
        "officetype": "BO",
        "delivery": "Delivery",
        "divisionname": "Arunachal Pradesh Division",
        "regionname": "Shillong HQ Region",
        "circlename": "North Eastern Circle",
        "latitude": "28.434311600000001",
        "longitude": "95.0417877"
      },
      {
        "officename": "Niglok",
        "officetype": "BO",
        "delivery": "Delivery",
        "divisionname": "Arunachal Pradesh Division",
        "regionname": "Shillong HQ Region",
        "circlename": "North Eastern Circle",
        "latitude": "27.544128000000001",
        "longitude": "95.1351552"
      },
      {
        "officename": "Dapi",
        "officetype": "BO",
        "delivery": "Delivery",
        "divisionname": "Arunachal Pradesh Division",
        "regionname": "Shillong HQ Region",
        "circlename": "North Eastern Circle",
        "latitude": "28.024987899999999",
        "longitude": "95.201629699999998"
      },
      {
        "officename": "GTC B.O",
        "officetype": "BO",
        "delivery": "Delivery",
        "divisionname": "Arunachal Pradesh Division",
        "regionname": "Shillong HQ Region",
        "circlename": "North Eastern Circle",
        "latitude": "28.0852942",
        "longitude": "95.317393899999999"
      },
      {
        "officename": "Ruksin B.O",
        "officetype": "BO",
        "delivery": "Delivery",
        "divisionname": "Arunachal Pradesh Division",
        "regionname": "Shillong HQ Region",
        "circlename": "North Eastern Circle",
        "latitude": "27.845577800000001",
        "longitude": "95.224398600000001"
      },
      {
        "officename": "Donyi Polo T.E.",
        "officetype": "BO",
        "delivery": "Delivery",
        "divisionname": "Arunachal Pradesh Division",
        "regionname": "Shillong HQ Region",
        "circlename": "North Eastern Circle",
        "latitude": "27.537858",
        "longitude": "95.201775799999993"
      },