{
  "781001": {
    "state": "ASSAM",
    "district": "KAMRUP METRO",
    "offices": [
      {
        "officename": "Uzanbazar S.O",
        "officetype": "PO",
        "delivery": "Non Delivery",
        "divisionname": "Guwahati Division",
        "regionname": "DivReportingCircle",
        "circlename": "Assam Circle",
        "latitude": "26.1924300",
        "longitude": "91.7553700"
      },
      {
        "officename": "Guwahati G.P.O.",
        "officetype": "HO",
        "delivery": "Delivery",
        "divisionname": "Guwahati Division",
        "regionname": "DivReportingCircle",
        "circlename": "Assam Circle",
        "latitude": "26.1887778",
        "longitude": "91.7456389"
      },
      {
        "officename": "Fancy Bazar S.O",
        "officetype": "PO",
        "delivery": "Non Delivery",
        "divisionname": "Guwahati Division",
        "regionname": "DivReportingCircle",
        "circlename": "Assam Circle",
        "latitude": "26.1787500",
        "longitude": "91.7359722"
      }
    ]
  },
  "781002": {
    "state": "ASSAM",
    "district": "KAMRUP METRO",
    "offices": [
      {
        "officename": "IBC Guwahati P.O",
        "officetype": "PO",
        "delivery": "Delivery",
        "divisionname": "Guwahati Division",
        "regionname": "DivReportingCircle",
        "circlename": "Assam Circle",
        "latitude": "26.1887256",
        "longitude": "91.7456568"
      }
    ]
  },
  "781003": {
    "state": "ASSAM",
    "district": "KAMRUP METRO",
    "offices": [
      {
        "officename": "Assam Tribune S.O",
        "officetype": "PO",
        "delivery": "Non Delivery",
        "divisionname": "Guwahati Division",
        "regionname": "DivReportingCircle",
        "circlename": "Assam Circle",
        "latitude": "26.1844167",
        "longitude": "91.7689167"
      },
      {
        "officename": "Silpukhuri S.O",
        "officetype": "PO",
        "delivery": "Delivery",
        "divisionname": "Guwahati Division",
        "regionname": "DivReportingCircle",
        "circlename": "Assam Circle",
        "latitude": "26.1857500",
        "longitude": "91.7609444"
      }
    ]
  },
  "781004": {
    "state": "ASSAM",
    "district": "KAMRUP METRO",
    "offices": [
      {
        "officename": "Kharguli S.O",
        "officetype": "PO",
        "delivery": "Delivery",
        "divisionname": "Guwahati Division",
        "regionname": "DivReportingCircle",
        "circlename": "Assam Circle",
        "latitude": "26.1952600",
        "longitude": "91.7646700"
      }
    ]
  },
  "781005": {
    "state": "ASSAM",
    "district": "KAMRUP METRO",
    "offices": [
      {
        "officename": "Japorigog B.O",
        "officetype": "BO",
        "delivery": "Delivery",
        "divisionname": "Guwahati Division",
        "regionname": "DivReportingCircle",
        "circlename": "Assam Circle",
        "latitude": "26.1505800",
        "longitude": "91.7848000"
      },
      {
        "officename": "Dispur S.O",
        "officetype": "PO",
        "delivery": "Delivery",
        "divisionname": "Guwahati Division",
        "regionname": "DivReportingCircle",
        "circlename": "Assam Circle",
        "latitude": "26.1505833",
        "longitude": "91.7848056"
      }
    ]
  },
  "781006": {
    "state": "ASSAM",
    "district": "KAMRUP METRO",
    "offices": [
      {
        "officename": "Assam Sachivalaya S.O",
        "officetype": "PO",
        "delivery": "Delivery",
        "divisionname": "Guwahati Division",
        "regionname": "DivReportingCircle",
        "circlename": "Assam Circle",
        "latitude": "26.1887778",
        "longitude": "91.7456389"
      }
    ]
  },
  "781007": {
    "state": "ASSAM",
    "district": "KAMRUP METRO",
    "offices": [
      {
        "officename": "Lachitnagar S.O",
        "officetype": "PO",
        "delivery": "Non Delivery",
        "divisionname": "Guwahati Division",
        "regionname": "DivReportingCircle",
        "circlename": "Assam Circle",
        "latitude": "26.1714167",
        "longitude": "91.7695000"
      },
      {
        "officename": "Ulubari S.O",
        "officetype": "PO",
        "delivery": "Delivery",
        "divisionname": "Guwahati Division",
        "regionname": "DivReportingCircle",
        "circlename": "Assam Circle",
        "latitude": "26.1749167",
        "longitude": "91.7584444"
      }
    ]
  },
  "781008": {
    "state": "ASSAM",
    "district": "KAMRUP METRO",
    "offices": [
      {
        "officename": "Rehabari S.O",
        "officetype": "PO",
        "delivery": "Delivery",
        "divisionname": "Guwahati Division",
        "regionname": "DivReportingCircle",
        "circlename": "Assam Circle",
        "latitude": "26.1723889",
        "longitude": "91.7505556"
      },
      {
        "officename": "Paltanbazar S.O",
        "officetype": "PO",
        "delivery": "Non Delivery",
        "divisionname": "Guwahati Division",
        "regionname": "DivReportingCircle",
        "circlename": "Assam Circle",
        "latitude": "26.1810278",
        "longitude": "91.7500000"
      }
    ]
  },
  "781009": {
    "state": "ASSAM",
    "district": "KAMRUP METRO",
    "offices": [
      {
        "officename": "Bharalumukh S.O",
        "officetype": "PO",
        "delivery": "Delivery",
        "divisionname": "Guwahati Division",
        "regionname": "DivReportingCircle",
        "circlename": "Assam Circle",
        "latitude": "26.1718333",
        "longitude": "91.7326944"
      }
    ]
  },
  "781010": {
    "state": "ASSAM",
    "district": "KAMRUP METRO",
    "offices": [
      {
        "officename": "Kamakhya S.O",
        "officetype": "PO",
        "delivery": "Delivery",
        "divisionname": "Guwahati Division",
        "regionname": "DivReportingCircle",
        "circlename": "Assam Circle",
        "latitude": "26.1606200",
        "longitude": "91.7094800"
      }
    ]
  },
  "781011": {
    "state": "ASSAM",
    "district": "KAMRUP METRO",
    "offices": [
      {
        "officename": "GOTANAGAR B.O",
        "officetype": "BO",
        "delivery": "Delivery",
        "divisionname": "Guwahati Division",
        "regionname": "DivReportingCircle",
        "circlename": "Assam Circle",
        "latitude": "26.157699999999998",
        "longitude": "91.703100000000006"
      },
      {
        "officename": "Mlg Rly Hqs S.O",
        "officetype": "PO",
        "delivery": "Delivery",
        "divisionname": "Guwahati Division",
        "regionname": "DivReportingCircle",
        "circlename": "Assam Circle",
        "latitude": "26.1887778",
        "longitude": "91.7456389"
      },
      {
        "officename": "Debgotanagar B.O",
        "officetype": "BO",
        "delivery": "Delivery",
        "divisionname": "Guwahati Division",
        "regionname": "DivReportingCircle",
        "circlename": "Assam Circle",
        "latitude": "26.1887778",
        "longitude": "91.7456389"
      }
    ]
  },
  "781012": {
    "state": "ASSAM",
    "district": "KAMRUP METRO",
    "offices": [
      {
        "officename": "Pandu Rly Colony S.O",
        "officetype": "PO",
        "delivery": "Non Delivery",
        "divisionname": "Guwahati Division",
        "regionname": "DivReportingCircle",
        "circlename": "Assam Circle",
        "latitude": "26.1683400",
        "longitude": "91.6813300"
      },
      {
        "officename": "Dehangarigaon B.O",
        "officetype": "BO",
        "delivery": "Delivery",
        "divisionname": "Guwahati Division",
        "regionname": "DivReportingCircle",
        "circlename": "Assam Circle",
        "latitude": "26.1637777",
        "longitude": "91.6903611"
      },
      {
        "officename": "Pandu S.O",
        "officetype": "PO",
        "delivery": "Delivery",
        "divisionname": "Guwahati Division",
        "regionname": "DivReportingCircle",
        "circlename": "Assam Circle",
        "latitude": "26.1637778",
        "longitude": "91.6903611"
      },
      {
        "officename": "Sadilapur B.O",
        "officetype": "BO",
        "delivery": "Delivery",
        "divisionname": "Guwahati Division",
        "regionname": "DivReportingCircle",
        "circlename": "Assam Circle",
        "latitude": "26.1637777",
        "longitude": "91.6903611"
      }
    ]
  },
  "781013": {
    "state": "ASSAM",
    "district": "KAMRUP METRO",
    "offices": [
      {
        "officename": "Jalukbari S.O",
        "officetype": "PO",
        "delivery": "Delivery",
        "divisionname": "Guwahati Division",
        "regionname": "DivReportingCircle",
        "circlename": "Assam Circle",
        "latitude": "26.1425278",
        "longitude": "91.6650000"
      }
    ]
  },
  "781014": {
    "state": "ASSAM",
    "district": "KAMRUP METRO",
    "offices": [
      {
        "officename": "Guwahati University H.O",
        "officetype": "HO",
        "delivery": "Delivery",
        "divisionname": "Guwahati Division",
        "regionname": "DivReportingCircle",
        "circlename": "Assam Circle",
        "latitude": "26.1552222",
        "longitude": "91.6647222"
      }
    ]
  },
  "781015": {
    "state": "ASSAM",
    "district": "KAMRUP METRO",
    "offices": [
      {
        "officename": "Guwahati Airport S.O",
        "officetype": "PO",
        "delivery": "Delivery",
        "divisionname": "Guwahati Division",
        "regionname": "DivReportingCircle",
        "circlename": "Assam Circle",
        "latitude": "26.1055556",
        "longitude": "91.5921944"
      },
      {
        "officename": "Bongra B.O",
        "officetype": "BO",
        "delivery": "Delivery",
        "divisionname": "Guwahati Division",
        "regionname": "DivReportingCircle",
        "circlename": "Assam Circle",
        "latitude": "26.1050000",
        "longitude": "91.5921900"
      }
    ]
  },
  "781016": {
    "state": "ASSAM",
    "district": "KAMRUP METRO",
    "offices": [
      {
        "officename": "Gopinathnagar S.O",
        "officetype": "PO",
        "delivery": "Delivery",
        "divisionname": "Guwahati Division",
        "regionname": "DivReportingCircle",
        "circlename": "Assam Circle",
        "latitude": "26.1633000",
        "longitude": "91.7465700"
      }
    ]
  },
  "781017": {
    "state": "ASSAM",
    "district": "KAMRUP METRO",
    "offices": [
      {
        "officename": "Dharapur B.O",
        "officetype": "BO",
        "delivery": "Delivery",
        "divisionname": "Guwahati Division",
        "regionname": "DivReportingCircle",
        "circlename": "Assam Circle",
        "latitude": "26.1370000",
        "longitude": "91.6270000"
      },
      {
        "officename": "Bhattaparagaral B.O",
        "officetype": "BO",
        "delivery": "Delivery",
        "divisionname": "Guwahati Division",
        "regionname": "DivReportingCircle",
        "circlename": "Assam Circle",
        "latitude": "26.1373000",
        "longitude": "91.6278000"
      },
      {
        "officename": "Azara S.O",
        "officetype": "PO",
        "delivery": "Delivery",
        "divisionname": "Guwahati Division",
        "regionname": "DivReportingCircle",
        "circlename": "Assam Circle",
        "latitude": "26.1145300",
        "longitude": "91.6129300"
      }
    ]
  },
  "781018": {
    "state": "ASSAM",
    "district": "KAMRUP METRO",
    "offices": [
      {
        "officename": "Binovanagar S.O",
        "officetype": "PO",
        "delivery": "Delivery",
        "divisionname": "Guwahati Division",
        "regionname": "DivReportingCircle",
        "circlename": "Assam Circle",
        "latitude": "26.1475000",
        "longitude": "91.7430556"
      }
    ]
  },
  "781019": {
    "state": "ASSAM",
    "district": "KAMRUP METRO",
    "offices": [
      {
        "officename": "Kahilipara S.O",
        "officetype": "PO",
        "delivery": "Delivery",
        "divisionname": "Guwahati Division",
        "regionname": "DivReportingCircle",
        "circlename": "Assam Circle",
        "latitude": "26.1409167",
        "longitude": "91.7628056"
      }
    ]
  },
  "781020": {
    "state": "ASSAM",
    "district": "KAMRUP METRO",
    "offices": [
      {
        "officename": "Noonmati S.O",
        "officetype": "PO",
        "delivery": "Delivery",
        "divisionname": "Guwahati Division",
        "regionname": "DivReportingCircle",
        "circlename": "Assam Circle",
        "latitude": "91.4810429",
        "longitude": "26.1058359"
      }
    ]
  },
  "781021": {
    "state": "ASSAM",
    "district": "KAMRUP METRO",
    "offices": [
      {
        "officename": "Bamunimaidan S.O",
        "officetype": "PO",
        "delivery": "Delivery",
        "divisionname": "Guwahati Division",
        "regionname": "DivReportingCircle",
        "circlename": "Assam Circle",
        "latitude": "26.1838611",
        "longitude": "91.7868611"
      }
    ]
  },
  "781022": {
    "state": "ASSAM",
    "district": "KAMRUP METRO",
    "offices": [
      {
        "officename": "Khanapara S.O",
        "officetype": "PO",
        "delivery": "Delivery",
        "divisionname": "Guwahati Division",
        "regionname": "DivReportingCircle",
        "circlename": "Assam Circle",
        "latitude": "26.1212778",
        "longitude": "91.8217778"
      }
    ]
  },
  "781023": {
    "state": "ASSAM",
    "district": "KAMRUP METRO",
    "offices": [
      {
        "officename": "Amerigog S.O",
        "officetype": "PO",
        "delivery": "Delivery",
        "divisionname": "Guwahati Division",
        "regionname": "DivReportingCircle",
        "circlename": "Assam Circle",
        "latitude": "26.0802000",
        "longitude": "91.5596000"
      }
    ]
  },
  "781024": {
    "state": "ASSAM",
    "district": "KAMRUP METRO",
    "offices": [
      {
        "officename": "Zoo Road S.O",
        "officetype": "PO",
        "delivery": "Delivery",
        "divisionname": "Guwahati Division",
        "regionname": "DivReportingCircle",
        "circlename": "Assam Circle",
        "latitude": "26.1709444",
        "longitude": "91.7778056"
      },
      {
        "officename": "Gitanagar B.O",
        "officetype": "BO",
        "delivery": "Non Delivery",
        "divisionname": "Guwahati Division",
        "regionname": "DivReportingCircle",
        "circlename": "Assam Circle",
        "latitude": "26.1647000",
        "longitude": "91.7801000"
      }
    ]
  },
  "781025": {
    "state": "ASSAM",
    "district": "KAMRUP METRO",
    "offices": [
      {
        "officename": "Ambari Fatasil S.O",
        "officetype": "PO",
        "delivery": "Delivery",
        "divisionname": "Guwahati Division",
        "regionname": "DivReportingCircle",
        "circlename": "Assam Circle",
        "latitude": "26.1586900",
        "longitude": "91.7344400"
      },
      {
        "officename": "Dhirenpara B.O",
        "officetype": "BO",
        "delivery": "Delivery",
        "divisionname": "Guwahati Division",
        "regionname": "DivReportingCircle",
        "circlename": "Assam Circle",
        "latitude": "26.1429000",
        "longitude": "91.7310000"
      }
    ]
  },
  "781026": {
    "state": "ASSAM",
    "district": "KAMRUP METRO",
    "offices": [
      {
        "officename": "Panikhaiti B.O",
        "officetype": "BO",
        "delivery": "Delivery",
        "divisionname": "Guwahati Division",
        "regionname": "DivReportingCircle",
        "circlename": "Assam Circle",
        "latitude": "26.1805400",
        "longitude": "91.8250900"
      },
      {
        "officename": "Bonda B.O",
        "officetype": "BO",
        "delivery": "Delivery",
        "divisionname": "Guwahati Division",
        "regionname": "DivReportingCircle",
        "circlename": "Assam Circle",
        "latitude": "26.1805400",
        "longitude": "91.8250900"
      },
      {
        "officename": "Narangi S.O",
        "officetype": "PO",
        "delivery": "Delivery",
        "divisionname": "Guwahati Division",
        "regionname": "DivReportingCircle",
        "circlename": "Assam Circle",
        "latitude": "26.1805400",
        "longitude": "91.8250900"
      }
    ]
  },
  "781027": {
    "state": "ASSAM",
    "district": "KAMRUP METRO",
    "offices": [
      {
        "officename": "Amsinggaon E (S  85) B.O",
        "officetype": "BO",
        "delivery": "Delivery",
        "divisionname": "Guwahati Division",
        "regionname": "DivReportingCircle",
        "circlename": "Assam Circle",
        "latitude": "26.1532000",
        "longitude": "91.8533400"
      },
      {
        "officename": "Satgaon S.O",
        "officetype": "PO",
        "delivery": "Delivery",
        "divisionname": "Guwahati Division",
        "regionname": "DivReportingCircle",
        "circlename": "Assam Circle",
        "latitude": "26.1532000",
        "longitude": "91.8533400"
      }
    ]
  },
  "781028": {
    "state": "ASSAM",
    "district": "KAMRUP METRO",
    "offices": [
      {
        "officename": "Beltola S.O",
        "officetype": "PO",
        "delivery": "Delivery",
        "divisionname": "Guwahati Division",
        "regionname": "DivReportingCircle",
        "circlename": "Assam Circle",
        "latitude": "26.1178333",
        "longitude": "91.7969722"
      }
    ]
  },
  "781030": {
    "state": "ASSAM",
    "district": "KAMRUP",
    "offices": [
      {
        "officename": "Rongmahal B.O",
        "officetype": "BO",
        "delivery": "Delivery",
        "divisionname": "Guwahati Division",
        "regionname": "DivReportingCircle",
        "circlename": "Assam Circle",
        "latitude": "26.2098000",
        "longitude": "91.7419700"
      },
      {
        "officename": "North Guwahati S.O",
        "officetype": "PO",
        "delivery": "Delivery",
        "divisionname": "Guwahati Division",
        "regionname": "DivReportingCircle",
        "circlename": "Assam Circle",
        "latitude": "26.2098000",
        "longitude": "91.7419700"
      },
      {
        "officename": "Barbaka B.O",
        "officetype": "BO",
        "delivery": "Delivery",
        "divisionname": "Guwahati Division",
        "regionname": "DivReportingCircle",
        "circlename": "Assam Circle",
        "latitude": "26.2098000",
        "longitude": "91.7419700"
      },
      {
        "officename": "Dopdar B.O",
        "officetype": "BO",
        "delivery": "Delivery",
        "divisionname": "Guwahati Division",
        "regionname": "DivReportingCircle",
        "circlename": "Assam Circle",
        "latitude": "26.2098000",
        "longitude": "91.7419700"
      },
      {
        "officename": "Madhyamkhanda B.O",
        "officetype": "BO",
        "delivery": "Delivery",
        "divisionname": "Guwahati Division",
        "regionname": "DivReportingCircle",
        "circlename": "Assam Circle",
        "latitude": "26.2098000",
        "longitude": "91.7419700"
      }
    ]
  },
  "781031": {
    "state": "ASSAM",
    "district": "KAMRUP",
    "offices": [
      {
        "officename": "Collegenagar B.O",
        "officetype": "BO",
        "delivery": "Delivery",
        "divisionname": "Guwahati Division",
        "regionname": "DivReportingCircle",
        "circlename": "Assam Circle",
        "latitude": "26.1882000",
        "longitude": "91.6785000"
      },
      {
        "officename": "Amingaon S.O",
        "officetype": "PO",
        "delivery": "Delivery",
        "divisionname": "Guwahati Division",
        "regionname": "DivReportingCircle",
        "circlename": "Assam Circle",
        "latitude": "26.1834722",
        "longitude": "91.6961667"
      }
    ]
  },
  "781032": {
    "state": "ASSAM",
    "district": "KAMRUP METRO",
    "offices": [
      {
        "officename": "Indrapur S.O",
        "officetype": "PO",
        "delivery": "Delivery",
        "divisionname": "Guwahati Division",
        "regionname": "DivReportingCircle",
        "circlename": "Assam Circle",
        "latitude": "26.1596900",
        "longitude": "91.7677700"
      }
    ]
  },
  "781033": {
    "state": "ASSAM",
    "district": "KAMRUP METRO",
    "offices": [
      {
        "officename": "Jorabat SO",
        "officetype": "PO",
        "delivery": "Delivery",
        "divisionname": "Guwahati Division",
        "regionname": "DivReportingCircle",
        "circlename": "Assam Circle",
        "latitude": "26.0997693",
        "longitude": "91.8763721"
      }
    ]
  },
  "781034": {
    "state": "ASSAM",
    "district": "KAMRUP METRO",
    "offices": [
      {
        "officename": "Odalbakra S.O",
        "officetype": "PO",
        "delivery": "Delivery",
        "divisionname": "Guwahati Division",
        "regionname": "DivReportingCircle",
        "circlename": "Assam Circle",
        "latitude": "26.1417900",
        "longitude": "91.7423200"
      }
    ]
  },
  "781035": {
    "state": "ASSAM",
    "district": "KAMRUP METRO",
    "offices": [
      {
        "officename": "Garchuk S.O",
        "officetype": "PO",
        "delivery": "Delivery",
        "divisionname": "Guwahati Division",
        "regionname": "DivReportingCircle",
        "circlename": "Assam Circle",
        "latitude": "26.1160833",
        "longitude": "91.7083333"
      }
    ]
  },
  "781036": {
    "state": "ASSAM",
    "district": "KAMRUP METRO",
    "offices": [
      {
        "officename": "Hengrabari S.O",
        "officetype": "PO",
        "delivery": "Delivery",
        "divisionname": "Guwahati Division",
        "regionname": "DivReportingCircle",
        "circlename": "Assam Circle",
        "latitude": "26.1510100",
        "longitude": "91.7983600"
      }
    ]
  },
  "781037": {
    "state": "ASSAM",
    "district": "KAMRUP METRO",
    "offices": [
      {
        "officename": "Panjabari S.O",
        "officetype": "PO",
        "delivery": "Delivery",
        "divisionname": "Guwahati Division",
        "regionname": "DivReportingCircle",
        "circlename": "Assam Circle",
        "latitude": "26.1338400",
        "longitude": "91.8250200"
      }
    ]
  },
  "781038": {
    "state": "ASSAM",
    "district": "KAMRUP METRO",
    "offices": [
      {
        "officename": "Hatigaon Chariali S.O",
        "officetype": "PO",
        "delivery": "Delivery",
        "divisionname": "Guwahati Division",
        "regionname": "DivReportingCircle",
        "circlename": "Assam Circle",
        "latitude": "26.1291389",
        "longitude": "91.7871389"
      }
    ]
  },
  "781039": {
    "state": "ASSAM",
    "district": "KAMRUP",
    "offices": [
      {
        "officename": "I I T S.O",
        "officetype": "PO",
        "delivery": "Delivery",
        "divisionname": "Guwahati Division",
        "regionname": "DivReportingCircle",
        "circlename": "Assam Circle",
        "latitude": "26.1803056",
        "longitude": "91.6816389"
      }
    ]
  },
  "781040": {
    "state": "ASSAM",
    "district": "KAMRUP METRO",
    "offices": [
      {
        "officename": "Sawkuchi S.O",
        "officetype": "PO",
        "delivery": "Delivery",
        "divisionname": "Guwahati Division",
        "regionname": "DivReportingCircle",
        "circlename": "Assam Circle",
        "latitude": "26.1203667",
        "longitude": "91.7507642"
      }
    ]
  },
  "781101": {
    "state": "ASSAM",
    "district": "KAMRUP",
    "offices": [
      {
        "officename": "Baralabari B.O",
        "officetype": "BO",
        "delivery": "Delivery",
        "divisionname": "Guwahati Division",
        "regionname": "DivReportingCircle",
        "circlename": "Assam Circle",
        "latitude": "26.2628300",
        "longitude": "91.6959400"
      },
      {
        "officename": "Dorakahara B.O",
        "officetype": "BO",
        "delivery": "Delivery",
        "divisionname": "Guwahati Division",
        "regionname": "DivReportingCircle",
        "circlename": "Assam Circle",
        "latitude": "26.2628300",
        "longitude": "91.6959400"
      },
      {
        "officename": "Deoduar B.O",
        "officetype": "BO",
        "delivery": "Delivery",
        "divisionname": "Guwahati Division",
        "regionname": "DivReportingCircle",
        "circlename": "Assam Circle",
        "latitude": "26.2628300",
        "longitude": "91.6959400"
      },
      {
        "officename": "Panitema B.O",
        "officetype": "BO",
        "delivery": "Delivery",
        "divisionname": "Guwahati Division",
        "regionname": "DivReportingCircle",
        "circlename": "Assam Circle",
        "latitude": "26.2628300",
        "longitude": "91.6959400"
      },
      {
        "officename": "Pubborka B.O",
        "officetype": "BO",
        "delivery": "Delivery",
        "divisionname": "Guwahati Division",
        "regionname": "DivReportingCircle",
        "circlename": "Assam Circle",
        "latitude": "26.2628300",
        "longitude": "91.6959400"
      },
      {
        "officename": "Changsari S.O",
        "officetype": "PO",
        "delivery": "Delivery",
        "divisionname": "Guwahati Division",
        "regionname": "DivReportingCircle",
        "circlename": "Assam Circle",
        "latitude": "26.2628333",
        "longitude": "91.6959444"
      }
    ]
  },
  "781102": {
    "state": "ASSAM",
    "district": "KAMRUP",
    "offices": [
      {
        "officename": "Kalitakuchi B.O",
        "officetype": "BO",
        "delivery": "Delivery",
        "divisionname": "Guwahati Division",
        "regionname": "DivReportingCircle",
        "circlename": "Assam Circle",
        "latitude": "26.2488333",
        "longitude": "91.5240555"
      },
      {
        "officename": "Ramdia B.O",
        "officetype": "BO",
        "delivery": "Delivery",
        "divisionname": "Guwahati Division",
        "regionname": "DivReportingCircle",
        "circlename": "Assam Circle",
        "latitude": "26.2488333",
        "longitude": "91.5240555"
      },
      {
        "officename": "Gerua B.O",
        "officetype": "BO",
        "delivery": "Delivery",
        "divisionname": "Guwahati Division",
        "regionname": "DivReportingCircle",
        "circlename": "Assam Circle",
        "latitude": "26.2488300",
        "longitude": "91.5240000"
      },
      {
        "officename": "Hablaka B.O",
        "officetype": "BO",
        "delivery": "Delivery",
        "divisionname": "Guwahati Division",
        "regionname": "DivReportingCircle",
        "circlename": "Assam Circle",
        "latitude": "26.2488333",
        "longitude": "91.5240555"
      },
      {
        "officename": "Khetri Hardia B.O",
        "officetype": "BO",
        "delivery": "Delivery",
        "divisionname": "Guwahati Division",
        "regionname": "DivReportingCircle",
        "circlename": "Assam Circle",
        "latitude": "26.2488333",
        "longitude": "91.5240555"
      },
      {
        "officename": "Uzankuri B.O",
        "officetype": "BO",
        "delivery": "Delivery",
        "divisionname": "Guwahati Division",
        "regionname": "DivReportingCircle",
        "circlename": "Assam Circle",
        "latitude": "26.2488333",
        "longitude": "91.5240555"
      },
      {
        "officename": "Akadi B.O",
        "officetype": "BO",
        "delivery": "Delivery",
        "divisionname": "Guwahati Division",
        "regionname": "DivReportingCircle",
        "circlename": "Assam Circle",
        "latitude": "26.2480000",
        "longitude": "91.5240000"
      },
      {
        "officename": "Borni B.O",
        "officetype": "BO",
        "delivery": "Delivery",
        "divisionname": "Guwahati Division",
        "regionname": "DivReportingCircle",
        "circlename": "Assam Circle",
        "latitude": "26.2488000",
        "longitude": "91.5240500"
      },
      {
        "officename": "Soniadi B.O",
        "officetype": "BO",
        "delivery": "Delivery",
        "divisionname": "Guwahati Division",
        "regionname": "DivReportingCircle",
        "circlename": "Assam Circle",
        "latitude": "26.2488333",
        "longitude": "91.5240555"
      },
      {
        "officename": "Tokradia B.O",
        "officetype": "BO",
        "delivery": "Delivery",
        "divisionname": "Guwahati Division",
        "regionname": "DivReportingCircle",
        "circlename": "Assam Circle",
        "latitude": "26.2488333",
        "longitude": "91.5240555"
      },
      {
        "officename": "Bagta B.O",
        "officetype": "BO",
        "delivery": "Delivery",
        "divisionname": "Guwahati Division",
        "regionname": "DivReportingCircle",
        "circlename": "Assam Circle",
        "latitude": "26.2488000",
        "longitude": "91.5240000"
      },
      {
        "officename": "Bhelkarbazar B.O",
        "officetype": "BO",
        "delivery": "Delivery",
        "divisionname": "Guwahati Division",
        "regionname": "DivReportingCircle",
        "circlename": "Assam Circle",
        "latitude": "26.2488000",
        "longitude": "91.5240000"
      },
      {
        "officename": "Khapenikuchi B.O",
        "officetype": "BO",
        "delivery": "Delivery",
        "divisionname": "Guwahati Division",
        "regionname": "DivReportingCircle",
        "circlename": "Assam Circle",
        "latitude": "26.2488333",
        "longitude": "91.5240555"
      },
      {
        "officename": "Kuwarpur B.O",
        "officetype": "BO",
        "delivery": "Delivery",
        "divisionname": "Guwahati Division",
        "regionname": "DivReportingCircle",
        "circlename": "Assam Circle",
        "latitude": "26.2488333",
        "longitude": "91.5240555"
      },
      {
        "officename": "Nampara Majarkuri B.O",
        "officetype": "BO",
        "delivery": "Delivery",
        "divisionname": "Guwahati Division",
        "regionname": "DivReportingCircle",
        "circlename": "Assam Circle",
        "latitude": "26.2488333",
        "longitude": "91.5240555"
      },
      {
        "officename": "Hajo S.O",
        "officetype": "PO",
        "delivery": "Delivery",
        "divisionname": "Guwahati Division",
        "regionname": "DivReportingCircle",
        "circlename": "Assam Circle",
        "latitude": "26.2488333",
        "longitude": "91.5240556"
      },
      {
        "officename": "Dampur B.O",
        "officetype": "BO",
        "delivery": "Delivery",
        "divisionname": "Guwahati Division",
        "regionname": "DivReportingCircle",
        "circlename": "Assam Circle",
        "latitude": "26.2488333",
        "longitude": "91.5240555"
      },
      {
        "officename": "Topabari B.O",
        "officetype": "BO",
        "delivery": "Delivery",
        "divisionname": "Guwahati Division",
        "regionname": "DivReportingCircle",
        "circlename": "Assam Circle",
        "latitude": "26.2488333",
        "longitude": "91.5240555"
      }
    ]
  },
  "781103": {
    "state": "ASSAM",
    "district": "KAMRUP",
    "offices": [
      {
        "officename": "Bongshor B.O",
        "officetype": "BO",
        "delivery": "Delivery",
        "divisionname": "Guwahati Division",
        "regionname": "DivReportingCircle",
        "circlename": "Assam Circle",
        "latitude": "26.1746000",
        "longitude": "91.3401000"
      },
      {
        "officename": "Bamundi B.O",
        "officetype": "BO",
        "delivery": "Delivery",
        "divisionname": "Guwahati Division",
        "regionname": "DivReportingCircle",
        "circlename": "Assam Circle",
        "latitude": "26.1746000",
        "longitude": "91.3401000"
      },
      {
        "officename": "Gandhmow B.O",
        "officetype": "BO",
        "delivery": "Delivery",
        "divisionname": "Guwahati Division",
        "regionname": "DivReportingCircle",
        "circlename": "Assam Circle",
        "latitude": "26.1746000",
        "longitude": "91.3401000"
      },
      {
        "officename": "Halogaon B.O",
        "officetype": "BO",
        "delivery": "Delivery",
        "divisionname": "Guwahati Division",
        "regionname": "DivReportingCircle",
        "circlename": "Assam Circle",
        "latitude": "26.1746000",
        "longitude": "91.3401000"
      },
      {
        "officename": "Srihati B.O",
        "officetype": "BO",
        "delivery": "Delivery",
        "divisionname": "Guwahati Division",
        "regionname": "DivReportingCircle",
        "circlename": "Assam Circle",
        "latitude": "26.1746000",
        "longitude": "91.3401000"
      },
      {
        "officename": "Soalkuchi S.O",
        "officetype": "PO",
        "delivery": "Delivery",
        "divisionname": "Guwahati Division",
        "regionname": "DivReportingCircle",
        "circlename": "Assam Circle",
        "latitude": "26.1000000",
        "longitude": "91.3401000"
      },
      {
        "officename": "Siliguri B.O",
        "officetype": "BO",
        "delivery": "Delivery",
        "divisionname": "Guwahati Division",
        "regionname": "DivReportingCircle",
        "circlename": "Assam Circle",
        "latitude": "26.1746000",
        "longitude": "91.3401000"
      }
    ]
  },
  "781104": {
    "state": "ASSAM",
    "district": "KAMRUP",
    "offices": [
      {
        "officename": "Bargaon B.O",
        "officetype": "BO",
        "delivery": "Delivery",
        "divisionname": "Guwahati Division",
        "regionname": "DivReportingCircle",
        "circlename": "Assam Circle",
        "latitude": "26.1455000",
        "longitude": "91.3418000"
      },
      {
        "officename": "Pacharia B.O",
        "officetype": "BO",
        "delivery": "Delivery",
        "divisionname": "Guwahati Division",
        "regionname": "DivReportingCircle",
        "circlename": "Assam Circle",
        "latitude": "26.1455000",
        "longitude": "91.3418000"
      },
      {
        "officename": "Rowmari B.O",
        "officetype": "BO",
        "delivery": "Delivery",
        "divisionname": "Guwahati Division",
        "regionname": "DivReportingCircle",
        "circlename": "Assam Circle",
        "latitude": "26.1455000",
        "longitude": "91.3418000"
      },
      {
        "officename": "Kulhati S.O",
        "officetype": "PO",
        "delivery": "Delivery",
        "divisionname": "Guwahati Division",
        "regionname": "DivReportingCircle",
        "circlename": "Assam Circle",
        "latitude": "26.1455000",
        "longitude": "91.3418000"
      },
      {
        "officename": "Nizmanakuchi B.O",
        "officetype": "BO",
        "delivery": "Delivery",
        "divisionname": "Guwahati Division",
        "regionname": "DivReportingCircle",
        "circlename": "Assam Circle",
        "latitude": "26.1455000",
        "longitude": "91.3418000"
      },
      {
        "officename": "Boromboi B.O",
        "officetype": "BO",
        "delivery": "Delivery",
        "divisionname": "Guwahati Division",
        "regionname": "DivReportingCircle",
        "circlename": "Assam Circle",
        "latitude": "26.1455000",
        "longitude": "91.3418000"
      },
      {
        "officename": "Dadara B.O",
        "officetype": "BO",
        "delivery": "Delivery",
        "divisionname": "Guwahati Division",
        "regionname": "DivReportingCircle",
        "circlename": "Assam Circle",
        "latitude": "26.1455000",
        "longitude": "91.3418000"
      },
      {
        "officename": "Tetelia B.O",
        "officetype": "BO",
        "delivery": "Delivery",
        "divisionname": "Guwahati Division",
        "regionname": "DivReportingCircle",
        "circlename": "Assam Circle",
        "latitude": "26.1455000",
        "longitude": "91.3418000"
      }
    ]
  },
  "781120": {
    "state": "ASSAM",
    "district": "KAMRUP",
    "offices": [
      {
        "officename": "Borduar S.O",
        "officetype": "PO",
        "delivery": "Delivery",
        "divisionname": "Guwahati Division",
        "regionname": "DivReportingCircle",
        "circlename": "Assam Circle",
        "latitude": "26.0802000",
        "longitude": "91.5596000"
      },
      {
        "officename": "Rajapara B.O",
        "officetype": "BO",
        "delivery": "Delivery",
        "divisionname": "Guwahati Division",
        "regionname": "DivReportingCircle",
        "circlename": "Assam Circle",
        "latitude": "26.0802000",
        "longitude": "91.5596000"
      },
      {
        "officename": "Loharghat B.O",
        "officetype": "BO",
        "delivery": "Delivery",
        "divisionname": "Guwahati Division",
        "regionname": "DivReportingCircle",
        "circlename": "Assam Circle",
        "latitude": "26.0802000",
        "longitude": "91.5596000"
      },
      {
        "officename": "Mataikhar B.O",
        "officetype": "BO",
        "delivery": "Delivery",
        "divisionname": "Guwahati Division",
        "regionname": "DivReportingCircle",
        "circlename": "Assam Circle",
        "latitude": "26.0802000",
        "longitude": "91.5596000"
      }
    ]
  },
  "781121": {
    "state": "ASSAM",
    "district": "KAMRUP",
    "offices": [
      {
        "officename": "Halda B.O",
        "officetype": "BO",
        "delivery": "Delivery",
        "divisionname": "Guwahati Division",
        "regionname": "DivReportingCircle",
        "circlename": "Assam Circle",
        "latitude": "26.2036000",
        "longitude": "91.4716000"
      },
      {
        "officename": "Mandakata B.O",
        "officetype": "BO",
        "delivery": "Delivery",
        "divisionname": "Guwahati Division",
        "regionname": "DivReportingCircle",
        "circlename": "Assam Circle",
        "latitude": "26.2036000",
        "longitude": "91.4716000"
      },
      {
        "officename": "Barpalaha B.O",
        "officetype": "BO",
        "delivery": "Delivery",
        "divisionname": "Guwahati Division",
        "regionname": "DivReportingCircle",
        "circlename": "Assam Circle",
        "latitude": "26.2036000",
        "longitude": "91.4716000"
      },
      {
        "officename": "Dumunichowki B.O",
        "officetype": "BO",
        "delivery": "Delivery",
        "divisionname": "Guwahati Division",
        "regionname": "DivReportingCircle",
        "circlename": "Assam Circle",
        "latitude": "26.2036000",
        "longitude": "91.4716000"
      },
      {
        "officename": "Kendua B.O",
        "officetype": "BO",
        "delivery": "Delivery",
        "divisionname": "Guwahati Division",
        "regionname": "DivReportingCircle",
        "circlename": "Assam Circle",
        "latitude": "26.2036000",
        "longitude": "91.4716000"
      },
      {
        "officename": "Saledal B.O",
        "officetype": "BO",
        "delivery": "Delivery",
        "divisionname": "Guwahati Division",
        "regionname": "DivReportingCircle",
        "circlename": "Assam Circle",
        "latitude": "26.2036000",
        "longitude": "91.4716000"
      },
      {
        "officename": "Bhomolahati B.O",
        "officetype": "BO",
        "delivery": "Delivery",
        "divisionname": "Guwahati Division",
        "regionname": "DivReportingCircle",
        "circlename": "Assam Circle",
        "latitude": "26.2036000",
        "longitude": "91.4716000"
      },
      {
        "officename": "Bezera S.O",
        "officetype": "PO",
        "delivery": "Delivery",
        "divisionname": "Guwahati Division",
        "regionname": "DivReportingCircle",
        "circlename": "Assam Circle",
        "latitude": "26.2036000",
        "longitude": "91.4716000"
      }
    ]
  },
  "781122": {
    "state": "ASSAM",
    "district": "KAMRUP",
    "offices": [
      {
        "officename": "Simina B.O",
        "officetype": "BO",
        "delivery": "Delivery",
        "divisionname": "Guwahati Division",
        "regionname": "DivReportingCircle",
        "circlename": "Assam Circle",
        "latitude": "26.1006600",
        "longitude": "91.5051900"
      },
      {
        "officename": "Bijoynagar S.O",
        "officetype": "PO",
        "delivery": "Delivery",
        "divisionname": "Guwahati Division",
        "regionname": "DivReportingCircle",
        "circlename": "Assam Circle",
        "latitude": "26.1006667",
        "longitude": "91.5051944"
      },
      {
        "officename": "Rangamati B.O",
        "officetype": "BO",
        "delivery": "Delivery",
        "divisionname": "Guwahati Division",
        "regionname": "DivReportingCircle",
        "circlename": "Assam Circle",
        "latitude": "26.1006600",
        "longitude": "91.5051900"
      },
      {
        "officename": "Batarhat B.O",
        "officetype": "BO",
        "delivery": "Delivery",
        "divisionname": "Guwahati Division",
        "regionname": "DivReportingCircle",
        "circlename": "Assam Circle",
        "latitude": "26.1006600",
        "longitude": "91.5051900"
      },
      {
        "officename": "Dakhala B.O",
        "officetype": "BO",
        "delivery": "Delivery",
        "divisionname": "Guwahati Division",
        "regionname": "DivReportingCircle",
        "circlename": "Assam Circle",
        "latitude": "26.1006600",
        "longitude": "91.5051900"
      },
      {
        "officename": "Futuri B.O",
        "officetype": "BO",
        "delivery": "Delivery",
        "divisionname": "Guwahati Division",
        "regionname": "DivReportingCircle",
        "circlename": "Assam Circle",
        "latitude": "26.1006600",
        "longitude": "91.5051900"
      },
      {
        "officename": "Sarpara B.O",
        "officetype": "BO",
        "delivery": "Delivery",
        "divisionname": "Guwahati Division",
        "regionname": "DivReportingCircle",
        "circlename": "Assam Circle",
        "latitude": "26.1006600",
        "longitude": "91.5051900"
      },
      {
        "officename": "Dehaligaon B.O",
        "officetype": "BO",
        "delivery": "Delivery",
        "divisionname": "Guwahati Division",
        "regionname": "DivReportingCircle",
        "circlename": "Assam Circle",
        "latitude": "26.1006600",
        "longitude": "91.5051900"
      }
    ]
  },
  "781123": {
    "state": "ASSAM",
    "district": "KAMRUP",
    "offices": [
      {
        "officename": "Durapara B.O",
        "officetype": "BO",
        "delivery": "Delivery",
        "divisionname": "Guwahati Division",
        "regionname": "DivReportingCircle",
        "circlename": "Assam Circle",
        "latitude": "25.9734700",
        "longitude": "91.2290200"
      },
      {
        "officename": "Paneri B.O",
        "officetype": "BO",
        "delivery": "Delivery",
        "divisionname": "Guwahati Division",
        "regionname": "DivReportingCircle",
        "circlename": "Assam Circle",
        "latitude": "25.9734700",
        "longitude": "91.2290200"
      },
      {
        "officename": "Kinangaon B.O",
        "officetype": "BO",
        "delivery": "Delivery",
        "divisionname": "Guwahati Division",
        "regionname": "DivReportingCircle",
        "circlename": "Assam Circle",
        "latitude": "25.9734700",
        "longitude": "91.2290200"
      },
      {
        "officename": "Birpara B.O",
        "officetype": "BO",
        "delivery": "Delivery",
        "divisionname": "Guwahati Division",
        "regionname": "DivReportingCircle",
        "circlename": "Assam Circle",
        "latitude": "25.9734700",
        "longitude": "91.2290200"
      },
      {
        "officename": "Boko Agchia B.O",
        "officetype": "BO",
        "delivery": "Delivery",
        "divisionname": "Guwahati Division",
        "regionname": "DivReportingCircle",
        "circlename": "Assam Circle",
        "latitude": "25.9734700",
        "longitude": "91.2290200"
      },
      {
        "officename": "Boko Rajapara B.O",
        "officetype": "BO",
        "delivery": "Delivery",
        "divisionname": "Guwahati Division",
        "regionname": "DivReportingCircle",
        "circlename": "Assam Circle",
        "latitude": "25.9734700",
        "longitude": "91.2290200"
      },
      {
        "officename": "Gohalkona B.O",
        "officetype": "BO",
        "delivery": "Delivery",
        "divisionname": "Guwahati Division",
        "regionname": "DivReportingCircle",
        "circlename": "Assam Circle",
        "latitude": "25.9734700",
        "longitude": "91.2290200"
      },
      {
        "officename": "Mauman Ashram B.O",
        "officetype": "BO",
        "delivery": "Delivery",
        "divisionname": "Guwahati Division",
        "regionname": "DivReportingCircle",
        "circlename": "Assam Circle",
        "latitude": "25.9734700",
        "longitude": "91.2290200"
      },
      {
        "officename": "Boko S.O",
        "officetype": "PO",
        "delivery": "Delivery",
        "divisionname": "Guwahati Division",
        "regionname": "DivReportingCircle",
        "circlename": "Assam Circle",
        "latitude": "25.9734722",
        "longitude": "91.2290278"
      },
      {
        "officename": "Bhalukghata B.O",
        "officetype": "BO",
        "delivery": "Delivery",
        "divisionname": "Guwahati Division",
        "regionname": "DivReportingCircle",
        "circlename": "Assam Circle",
        "latitude": "25.9734700",
        "longitude": "91.2290200"
      }
    ]
  },
  "781124": {
    "state": "ASSAM",
    "district": "KAMRUP",
    "offices": [
      {
        "officename": "Champaknagar B.O",
        "officetype": "BO",
        "delivery": "Delivery",
        "divisionname": "Guwahati Division",
        "regionname": "DivReportingCircle",
        "circlename": "Assam Circle",
        "latitude": "26.0499700",
        "longitude": "91.3929100"
      },
      {
        "officename": "Sidilapara B.O",
        "officetype": "BO",
        "delivery": "Delivery",
        "divisionname": "Guwahati Division",
        "regionname": "DivReportingCircle",
        "circlename": "Assam Circle",
        "latitude": "26.0499700",
        "longitude": "91.3929100"
      },
      {
        "officename": "Chhaygaon S.O",
        "officetype": "PO",
        "delivery": "Delivery",
        "divisionname": "Guwahati Division",
        "regionname": "DivReportingCircle",
        "circlename": "Assam Circle",
        "latitude": "26.0499722",
        "longitude": "91.3929167"
      },
      {
        "officename": "Bakalipara B.O",
        "officetype": "BO",
        "delivery": "Delivery",
        "divisionname": "Guwahati Division",
        "regionname": "DivReportingCircle",
        "circlename": "Assam Circle",
        "latitude": "26.0499700",
        "longitude": "91.3929100"
      },
      {
        "officename": "Kaimari B.O",
        "officetype": "BO",
        "delivery": "Delivery",
        "divisionname": "Guwahati Division",
        "regionname": "DivReportingCircle",
        "circlename": "Assam Circle",
        "latitude": "26.0499700",
        "longitude": "91.3929100"
      },
      {
        "officename": "Natun Jharobari B.O",
        "officetype": "BO",
        "delivery": "Delivery",
        "divisionname": "Guwahati Division",
        "regionname": "DivReportingCircle",
        "circlename": "Assam Circle",
        "latitude": "26.0499700",
        "longitude": "91.3929100"
      },
      {
        "officename": "Ukiam B.O",
        "officetype": "BO",
        "delivery": "Delivery",
        "divisionname": "Guwahati Division",
        "regionname": "DivReportingCircle",
        "circlename": "Assam Circle",
        "latitude": "26.0499700",
        "longitude": "91.3929100"
      },
      {
        "officename": "Ghoramara B.O",
        "officetype": "BO",
        "delivery": "Delivery",
        "divisionname": "Guwahati Division",
        "regionname": "DivReportingCircle",
        "circlename": "Assam Circle",
        "latitude": "26.0499700",
        "longitude": "91.3929100"
      },
      {
        "officename": "Pachim Dhuligaon B.O",
        "officetype": "BO",
        "delivery": "Delivery",
        "divisionname": "Guwahati Division",
        "regionname": "DivReportingCircle",
        "circlename": "Assam Circle",
        "latitude": "26.0499700",
        "longitude": "91.3929100"
      },
      {
        "officename": "Ratanpur B.O",
        "officetype": "BO",
        "delivery": "Delivery",
        "divisionname": "Guwahati Division",
        "regionname": "DivReportingCircle",
        "circlename": "Assam Circle",
        "latitude": "26.0499700",
        "longitude": "91.3929100"
      },
      {
        "officename": "Baniapara B.O",
        "officetype": "BO",
        "delivery": "Delivery",
        "divisionname": "Guwahati Division",
        "regionname": "DivReportingCircle",
        "circlename": "Assam Circle",
        "latitude": "26.0480000",
        "longitude": "91.3860000"
      },
      {
        "officename": "Balapukhuri B.O",
        "officetype": "BO",
        "delivery": "Delivery",
        "divisionname": "Guwahati Division",
        "regionname": "DivReportingCircle",
        "circlename": "Assam Circle",
        "latitude": "26.0499700",
        "longitude": "91.3929100"
      },
      {
        "officename": "Borjhar B.O",
        "officetype": "BO",
        "delivery": "Delivery",
        "divisionname": "Guwahati Division",
        "regionname": "DivReportingCircle",
        "circlename": "Assam Circle",
        "latitude": "26.0499700",
        "longitude": "91.3929100"
      }
    ]
  },
  "781125": {
    "state": "ASSAM",
    "district": "KAMRUP",
    "offices": [
      {
        "officename": "Kulsirange B.O",
        "officetype": "BO",
        "delivery": "Delivery",
        "divisionname": "Guwahati Division",
        "regionname": "DivReportingCircle",
        "circlename": "Assam Circle",
        "latitude": "26.0900000",
        "longitude": "91.5400000"
      },
      {
        "officename": "Sikarhati B.O",
        "officetype": "BO",
        "delivery": "Delivery",
        "divisionname": "Guwahati Division",
        "regionname": "DivReportingCircle",
        "circlename": "Assam Circle",
        "latitude": "26.0900000",
        "longitude": "91.5400000"
      },
      {
        "officename": "Amranga B.O",
        "officetype": "BO",
        "delivery": "Delivery",
        "divisionname": "Guwahati Division",
        "regionname": "DivReportingCircle",
        "circlename": "Assam Circle",
        "latitude": "26.0900000",
        "longitude": "91.5400000"
      },
      {
        "officename": "Maniari Tiniali B.O",
        "officetype": "BO",
        "delivery": "Delivery",
        "divisionname": "Guwahati Division",
        "regionname": "DivReportingCircle",
        "circlename": "Assam Circle",
        "latitude": "26.0900000",
        "longitude": "91.5400000"
      },
      {
        "officename": "Mirza S.O",
        "officetype": "PO",
        "delivery": "Delivery",
        "divisionname": "Guwahati Division",
        "regionname": "DivReportingCircle",
        "circlename": "Assam Circle",
        "latitude": "26.0880278",
        "longitude": "91.5355556"
      },
      {
        "officename": "Dhengargaon B.O",
        "officetype": "BO",
        "delivery": "Delivery",
        "divisionname": "Guwahati Division",
        "regionname": "DivReportingCircle",
        "circlename": "Assam Circle",
        "latitude": "26.0900000",
        "longitude": "91.5400000"
      },
      {
        "officename": "Gosaihat B.O",
        "officetype": "BO",
        "delivery": "Delivery",
        "divisionname": "Guwahati Division",
        "regionname": "DivReportingCircle",
        "circlename": "Assam Circle",
        "latitude": "26.0900000",
        "longitude": "91.5400000"
      }
    ]
  },
  "781126": {
    "state": "ASSAM",
    "district": "NALBARI",
    "offices": [
      {
        "officename": "Bhangnamari B.O",
        "officetype": "BO",
        "delivery": "Delivery",
        "divisionname": "Nalbari Division",
        "regionname": "DivReportingCircle",
        "circlename": "Assam Circle",
        "latitude": "26.1627000",
        "longitude": "91.2114000"
      },
      {
        "officename": "Dagapara B.O",
        "officetype": "BO",
        "delivery": "Delivery",
        "divisionname": "Nalbari Division",
        "regionname": "DivReportingCircle",
        "circlename": "Assam Circle",
        "latitude": "26.1627000",
        "longitude": "91.2114000"
      },
      {
        "officename": "Mukalmua S.O",
        "officetype": "PO",
        "delivery": "Delivery",
        "divisionname": "Nalbari Division",
        "regionname": "DivReportingCircle",
        "circlename": "Assam Circle",
        "latitude": "26.1627000",
        "longitude": "91.2114000"
      },
      {
        "officename": "Balikuchi B.O",
        "officetype": "BO",
        "delivery": "Delivery",
        "divisionname": "Nalbari Division",
        "regionname": "DivReportingCircle",
        "circlename": "Assam Circle",
        "latitude": "26.1627000",
        "longitude": "91.2114000"
      },
      {
        "officename": "Narayanpur B.O",
        "officetype": "BO",
        "delivery": "Delivery",
        "divisionname": "Nalbari Division",
        "regionname": "DivReportingCircle",
        "circlename": "Assam Circle",
        "latitude": "26.1627000",
        "longitude": "91.2114000"
      },
      {
        "officename": "Lowpara B.O",
        "officetype": "BO",
        "delivery": "Delivery",
        "divisionname": "Nalbari Division",
        "regionname": "DivReportingCircle",
        "circlename": "Assam Circle",
        "latitude": "26.1627000",
        "longitude": "91.2114000"
      },
      {
        "officename": "Lowtola B.O",
        "officetype": "BO",
        "delivery": "Delivery",
        "divisionname": "Nalbari Division",
        "regionname": "DivReportingCircle",
        "circlename": "Assam Circle",
        "latitude": "26.1627000",
        "longitude": "91.2114000"
      },
      {
        "officename": "Jaysagar B.O",
        "officetype": "BO",
        "delivery": "Delivery",
        "divisionname": "Nalbari Division",
        "regionname": "DivReportingCircle",
        "circlename": "Assam Circle",
        "latitude": "26.1627000",
        "longitude": "91.2114000"
      },
      {
        "officename": "Kandhbari B.O",
        "officetype": "BO",
        "delivery": "Delivery",
        "divisionname": "Nalbari Division",
        "regionname": "DivReportingCircle",
        "circlename": "Assam Circle",
        "latitude": "26.1627000",
        "longitude": "91.2114000"
      },
      {
        "officename": "Loharkatha B.O",
        "officetype": "BO",
        "delivery": "Delivery",
        "divisionname": "Nalbari Division",
        "regionname": "DivReportingCircle",
        "circlename": "Assam Circle",
        "latitude": "26.1627000",
        "longitude": "91.2114000"
      },
      {
        "officename": "Meruattari B.O",
        "officetype": "BO",
        "delivery": "Delivery",
        "divisionname": "Nalbari Division",
        "regionname": "DivReportingCircle",
        "circlename": "Assam Circle",
        "latitude": "26.1627000",
        "longitude": "91.2114000"
      },
      {
        "officename": "Adabari B.O",
        "officetype": "BO",
        "delivery": "Delivery",
        "divisionname": "Nalbari Division",
        "regionname": "DivReportingCircle",
        "circlename": "Assam Circle",
        "latitude": "26.1627000",
        "longitude": "91.2114000"
      },
      {
        "officename": "Chanda B.O",
        "officetype": "BO",
        "delivery": "Delivery",
        "divisionname": "Nalbari Division",
        "regionname": "DivReportingCircle",
        "circlename": "Assam Circle",
        "latitude": "26.1627000",
        "longitude": "91.2114000"
      }
    ]
  },
  "781127": {
    "state": "ASSAM",
    "district": "KAMRUP",
    "offices": [
      {
        "officename": "Kalubari B.O",
        "officetype": "BO",
        "delivery": "Delivery",
        "divisionname": "Guwahati Division",
        "regionname": "DivReportingCircle",
        "circlename": "Assam Circle",
        "latitude": "25.2627000",
        "longitude": "92.1817000"
      },
      {
        "officename": "Palahartari B.O",
        "officetype": "BO",
        "delivery": "Delivery",
        "divisionname": "Guwahati Division",
        "regionname": "DivReportingCircle",
        "circlename": "Assam Circle",
        "latitude": "25.2627000",
        "longitude": "92.1817000"
      },
      {
        "officename": "Pathimari B.O",
        "officetype": "BO",
        "delivery": "Delivery",
        "divisionname": "Guwahati Division",
        "regionname": "DivReportingCircle",
        "circlename": "Assam Circle",
        "latitude": "25.2627000",
        "longitude": "92.1817000"
      },
      {
        "officename": "Mandira B.O",
        "officetype": "BO",
        "delivery": "Delivery",
        "divisionname": "Guwahati Division",
        "regionname": "DivReportingCircle",
        "circlename": "Assam Circle",
        "latitude": "25.2627000",
        "longitude": "92.1817000"
      },
      {
        "officename": "Alupati B.O",
        "officetype": "BO",
        "delivery": "Delivery",
        "divisionname": "Guwahati Division",
        "regionname": "DivReportingCircle",
        "circlename": "Assam Circle",
        "latitude": "25.2627000",
        "longitude": "92.1817000"
      },
      {
        "officename": "Badlabazar B.O",
        "officetype": "BO",
        "delivery": "Delivery",
        "divisionname": "Guwahati Division",
        "regionname": "DivReportingCircle",
        "circlename": "Assam Circle",
        "latitude": "25.2627000",
        "longitude": "92.1817000"
      },
      {
        "officename": "Hekra B.O",
        "officetype": "BO",
        "delivery": "Delivery",
        "divisionname": "Guwahati Division",
        "regionname": "DivReportingCircle",
        "circlename": "Assam Circle",
        "latitude": "25.2627000",
        "longitude": "92.1817000"
      },
      {
        "officename": "Jamlai B.O",
        "officetype": "BO",
        "delivery": "Delivery",
        "divisionname": "Guwahati Division",
        "regionname": "DivReportingCircle",
        "circlename": "Assam Circle",
        "latitude": "25.2627000",
        "longitude": "92.1817920"
      },
      {
        "officename": "Kholabandha B.O",
        "officetype": "BO",
        "delivery": "Delivery",
        "divisionname": "Guwahati Division",
        "regionname": "DivReportingCircle",
        "circlename": "Assam Circle",
        "latitude": "25.2627000",
        "longitude": "92.1817000"
      },
      {
        "officename": "Kalardia B.O",
        "officetype": "BO",
        "delivery": "Delivery",
        "divisionname": "Guwahati Division",
        "regionname": "DivReportingCircle",
        "circlename": "Assam Circle",
        "latitude": "25.2627000",
        "longitude": "92.1817000"
      },
      {
        "officename": "Naitar B.O",
        "officetype": "BO",
        "delivery": "Delivery",
        "divisionname": "Guwahati Division",
        "regionname": "DivReportingCircle",
        "circlename": "Assam Circle",
        "latitude": "25.2627000",
        "longitude": "92.1817000"
      },
      {
        "officename": "Tupamari B.O",
        "officetype": "BO",
        "delivery": "Delivery",
        "divisionname": "Guwahati Division",
        "regionname": "DivReportingCircle",
        "circlename": "Assam Circle",
        "latitude": "25.2627000",
        "longitude": "92.1817000"
      },
      {
        "officename": "Bagmarachar B.O",
        "officetype": "BO",
        "delivery": "Delivery",
        "divisionname": "Guwahati Division",
        "regionname": "DivReportingCircle",
        "circlename": "Assam Circle",
        "latitude": "25.2627000",
        "longitude": "92.1817000"
      },
      {
        "officename": "Kachumara B.O",
        "officetype": "BO",
        "delivery": "Delivery",
        "divisionname": "Guwahati Division",
        "regionname": "DivReportingCircle",
        "circlename": "Assam Circle",
        "latitude": "25.2627000",
        "longitude": "92.1817000"
      },
      {
        "officename": "Pijupara B.O",
        "officetype": "BO",
        "delivery": "Delivery",
        "divisionname": "Guwahati Division",
        "regionname": "DivReportingCircle",
        "circlename": "Assam Circle",
        "latitude": "25.2627000",
        "longitude": "92.1817000"
      },
      {
        "officename": "Nagarbera S.O",
        "officetype": "PO",
        "delivery": "Delivery",
        "divisionname": "Guwahati Division",
        "regionname": "DivReportingCircle",
        "circlename": "Assam Circle",
        "latitude": "25.2627000",
        "longitude": "92.1817000"
      }
    ]
  },
  "781128": {
    "state": "ASSAM",
    "district": "KAMRUP METRO",
    "offices": [
      {
        "officename": "Agchia B.O",
        "officetype": "BO",
        "delivery": "Delivery",
        "divisionname": "Guwahati Division",
        "regionname": "DivReportingCircle",
        "circlename": "Assam Circle",
        "latitude": "26.0901000",
        "longitude": "91.3101000"
      },
      {
        "officename": "Palashbari S.O",
        "officetype": "PO",
        "delivery": "Delivery",
        "divisionname": "Guwahati Division",
        "regionname": "DivReportingCircle",
        "circlename": "Assam Circle",
        "latitude": "26.0901000",
        "longitude": "91.3101000"
      },
      {
        "officename": "Majirgaon B.O",
        "officetype": "BO",
        "delivery": "Delivery",
        "divisionname": "Guwahati Division",
        "regionname": "DivReportingCircle",
        "circlename": "Assam Circle",
        "latitude": "26.0901000",
        "longitude": "91.3101000"
      }
    ]
  },
  "781129": {
    "state": "ASSAM",
    "district": "KAMRUP",
    "offices": [
      {
        "officename": "Nalapara B.O",
        "officetype": "BO",
        "delivery": "Delivery",
        "divisionname": "Guwahati Division",
        "regionname": "DivReportingCircle",
        "circlename": "Assam Circle",
        "latitude": "26.0678000",
        "longitude": "91.3928000"
      },
      {
        "officename": "Hahimbazar S.O",
        "officetype": "PO",
        "delivery": "Delivery",
        "divisionname": "Guwahati Division",
        "regionname": "DivReportingCircle",
        "circlename": "Assam Circle",
        "latitude": "26.0678000",
        "longitude": "91.3928000"
      },
      {
        "officename": "Lower Lumpi B.O",
        "officetype": "BO",
        "delivery": "Delivery",
        "divisionname": "Guwahati Division",
        "regionname": "DivReportingCircle",
        "circlename": "Assam Circle",
        "latitude": "26.0678000",
        "longitude": "91.3928000"
      },
      {
        "officename": "Samuka B.O",
        "officetype": "BO",
        "delivery": "Delivery",
        "divisionname": "Guwahati Division",
        "regionname": "DivReportingCircle",
        "circlename": "Assam Circle",
        "latitude": "26.0678000",
        "longitude": "91.3928000"
      }
    ]
  },
  "781132": {
    "state": "ASSAM",
    "district": "KAMRUP",
    "offices": [
      {
        "officename": "Nahira B.O",
        "officetype": "BO",
        "delivery": "Delivery",
        "divisionname": "Guwahati Division",
        "regionname": "DivReportingCircle",
        "circlename": "Assam Circle",
        "latitude": "26.1887778",
        "longitude": "91.7456389"
      },
      {
        "officename": "Bhagawatipara B.O",
        "officetype": "BO",
        "delivery": "Delivery",
        "divisionname": "Guwahati Division",
        "regionname": "DivReportingCircle",
        "circlename": "Assam Circle",
        "latitude": "26.1887778",
        "longitude": "91.7456389"
      },
      {
        "officename": "Satpakhali B.O",
        "officetype": "BO",
        "delivery": "Delivery",
        "divisionname": "Guwahati Division",
        "regionname": "DivReportingCircle",
        "circlename": "Assam Circle",
        "latitude": "26.1887778",
        "longitude": "91.7456389"
      },
      {
        "officename": "Rampur S.O (Kamrup)",
        "officetype": "PO",
        "delivery": "Delivery",
        "divisionname": "Guwahati Division",
        "regionname": "DivReportingCircle",
        "circlename": "Assam Circle",
        "latitude": "26.1887778",
        "longitude": "91.7456389"
      }
    ]
  },
  "781133": {
    "state": "ASSAM",
    "district": "KAMRUP",
    "offices": [
      {
        "officename": "Dagaon S.O.",
        "officetype": "PO",
        "delivery": "Delivery",
        "divisionname": "Guwahati Division",
        "regionname": "DivReportingCircle",
        "circlename": "Assam Circle",
        "latitude": "26.1533580",
        "longitude": "91.6452410"
      }
    ]
  },
  "781134": {
    "state": "ASSAM",
    "district": "KAMRUP",
    "offices": [
      {
        "officename": "Kukurmara S.O",
        "officetype": "PO",
        "delivery": "Delivery",
        "divisionname": "Guwahati Division",
        "regionname": "DivReportingCircle",
        "circlename": "Assam Circle",
        "latitude": "26.0736111",
        "longitude": "91.4286111"
      },
      {
        "officename": "Amtala B.O",
        "officetype": "BO",
        "delivery": "Delivery",
        "divisionname": "Guwahati Division",
        "regionname": "DivReportingCircle",
        "circlename": "Assam Circle",
        "latitude": "26.0736110",
        "longitude": "91.4286110"
      },
      {
        "officename": "Jiakur B.O",
        "officetype": "BO",
        "delivery": "Delivery",
        "divisionname": "Guwahati Division",
        "regionname": "DivReportingCircle",
        "circlename": "Assam Circle",
        "latitude": "26.0736110",
        "longitude": "91.4286110"
      }
    ]
  },
  "781135": {
    "state": "ASSAM",
    "district": "KAMRUP",
    "offices": [
      {
        "officename": "Pachia B.O",
        "officetype": "BO",
        "delivery": "Delivery",
        "divisionname": "Guwahati Division",
        "regionname": "DivReportingCircle",
        "circlename": "Assam Circle",
        "latitude": "25.5638000",
        "longitude": "91.0924000"
      },
      {
        "officename": "Singra S.O",
        "officetype": "PO",
        "delivery": "Delivery",
        "divisionname": "Guwahati Division",
        "regionname": "DivReportingCircle",
        "circlename": "Assam Circle",
        "latitude": "25.5638000",
        "longitude": "91.0924000"
      },
      {
        "officename": "Simlatarabari B.O",
        "officetype": "BO",
        "delivery": "Delivery",
        "divisionname": "Guwahati Division",
        "regionname": "DivReportingCircle",
        "circlename": "Assam Circle",
        "latitude": "25.5638000",
        "longitude": "91.0924000"
      },
      {
        "officename": "Bondapara B.O",
        "officetype": "BO",
        "delivery": "Delivery",
        "divisionname": "Guwahati Division",
        "regionname": "DivReportingCircle",
        "circlename": "Assam Circle",
        "latitude": "25.5638000",
        "longitude": "91.0924000"
      },
      {
        "officename": "Singra Rajapara B.O",
        "officetype": "BO",
        "delivery": "Delivery",
        "divisionname": "Guwahati Division",
        "regionname": "DivReportingCircle",
        "circlename": "Assam Circle",
        "latitude": "25.5638000",
        "longitude": "91.0924000"
      },
      {
        "officename": "Bargaon Khaliha B.O",
        "officetype": "BO",
        "delivery": "Delivery",
        "divisionname": "Guwahati Division",
        "regionname": "DivReportingCircle",
        "circlename": "Assam Circle",
        "latitude": "25.5638000",
        "longitude": "91.0924000"
      },
      {
        "officename": "Damalchos B.O",
        "officetype": "BO",
        "delivery": "Delivery",
        "divisionname": "Guwahati Division",
        "regionname": "DivReportingCircle",
        "circlename": "Assam Circle",
        "latitude": "25.5638000",
        "longitude": "91.0924000"
      },
      {
        "officename": "Gamarimura B.O",
        "officetype": "BO",
        "delivery": "Delivery",
        "divisionname": "Guwahati Division",
        "regionname": "DivReportingCircle",
        "circlename": "Assam Circle",
        "latitude": "25.5638000",
        "longitude": "91.0924000"
      },
      {
        "officename": "Saraibaha B.O.",
        "officetype": "BO",
        "delivery": "Delivery",
        "divisionname": "Guwahati Division",
        "regionname": "DivReportingCircle",
        "circlename": "Assam Circle",
        "latitude": "25.9452000",
        "longitude": "91.1569000"
      }
    ]
  },
  "781136": {
    "state": "ASSAM",
    "district": "KAMRUP",
    "offices": [
      {
        "officename": "Mahtoli B.O",
        "officetype": "BO",
        "delivery": "Delivery",
        "divisionname": "Guwahati Division",
        "regionname": "DivReportingCircle",
        "circlename": "Assam Circle",
        "latitude": "26.2302000",
        "longitude": "91.7102000"
      },
      {
        "officename": "Malibaribazar B.O",
        "officetype": "BO",
        "delivery": "Delivery",
        "divisionname": "Guwahati Division",
        "regionname": "DivReportingCircle",
        "circlename": "Assam Circle",
        "latitude": "26.2302000",
        "longitude": "91.7102000"
      },
      {
        "officename": "Bhauriabhita B.O",
        "officetype": "BO",
        "delivery": "Delivery",
        "divisionname": "Guwahati Division",
        "regionname": "DivReportingCircle",
        "circlename": "Assam Circle",
        "latitude": "26.2302000",
        "longitude": "91.7102000"
      },
      {
        "officename": "Kalatoli B.O",
        "officetype": "BO",
        "delivery": "Delivery",
        "divisionname": "Guwahati Division",
        "regionname": "DivReportingCircle",
        "circlename": "Assam Circle",
        "latitude": "26.2302000",
        "longitude": "91.7102000"
      },
      {
        "officename": "Pachim Samaria S.O",
        "officetype": "PO",
        "delivery": "Delivery",
        "divisionname": "Guwahati Division",
        "regionname": "DivReportingCircle",
        "circlename": "Assam Circle",
        "latitude": "26.2302000",
        "longitude": "91.7102000"
      },
      {
        "officename": "Champaparabazar B.O",
        "officetype": "BO",
        "delivery": "Delivery",
        "divisionname": "Guwahati Division",
        "regionname": "DivReportingCircle",
        "circlename": "Assam Circle",
        "latitude": "26.2302000",
        "longitude": "91.7102000"
      },
      {
        "officename": "Jogiparapathar B.O",
        "officetype": "BO",
        "delivery": "Delivery",
        "divisionname": "Guwahati Division",
        "regionname": "DivReportingCircle",
        "circlename": "Assam Circle",
        "latitude": "26.2302000",
        "longitude": "91.7102000"
      },
      {
        "officename": "Malibaripathar B.O",
        "officetype": "BO",
        "delivery": "Delivery",
        "divisionname": "Guwahati Division",
        "regionname": "DivReportingCircle",
        "circlename": "Assam Circle",
        "latitude": "26.2302000",
        "longitude": "91.7102000"
      },
      {
        "officename": "Dekachang B.O",
        "officetype": "BO",
        "delivery": "Delivery",
        "divisionname": "Guwahati Division",
        "regionname": "DivReportingCircle",
        "circlename": "Assam Circle",
        "latitude": "26.2302000",
        "longitude": "91.7102000"
      },
      {
        "officename": "Baruapathar B.O",
        "officetype": "BO",
        "delivery": "Delivery",
        "divisionname": "Guwahati Division",
        "regionname": "DivReportingCircle",
        "circlename": "Assam Circle",
        "latitude": "26.2302000",
        "longitude": "91.7102000"
      }
    ]
  },
  "781137": {
    "state": "ASSAM",
    "district": "KAMRUP",
    "offices": [
      {
        "officename": "Mahimari B.O",
        "officetype": "BO",
        "delivery": "Delivery",
        "divisionname": "Guwahati Division",
        "regionname": "DivReportingCircle",
        "circlename": "Assam Circle",
        "latitude": "26.1135000",
        "longitude": "91.3433000"
      },
      {
        "officename": "Batahidia B.O",
        "officetype": "BO",
        "delivery": "Delivery",
        "divisionname": "Guwahati Division",
        "regionname": "DivReportingCircle",
        "circlename": "Assam Circle",
        "latitude": "26.1135000",
        "longitude": "91.3433000"
      },
      {
        "officename": "Hatipara B.O",
        "officetype": "BO",
        "delivery": "Delivery",
        "divisionname": "Guwahati Division",
        "regionname": "DivReportingCircle",
        "circlename": "Assam Circle",
        "latitude": "26.1135000",
        "longitude": "91.3433000"
      },
      {
        "officename": "Jahirpur B.O",
        "officetype": "BO",
        "delivery": "Delivery",
        "divisionname": "Guwahati Division",
        "regionname": "DivReportingCircle",
        "circlename": "Assam Circle",
        "latitude": "26.1135000",
        "longitude": "91.3433000"
      },
      {
        "officename": "Alikash B.O",
        "officetype": "BO",
        "delivery": "Delivery",
        "divisionname": "Guwahati Division",
        "regionname": "DivReportingCircle",
        "circlename": "Assam Circle",
        "latitude": "26.1135000",
        "longitude": "91.3433000"
      },
      {
        "officename": "Aggumi S.O",
        "officetype": "PO",
        "delivery": "Delivery",
        "divisionname": "Guwahati Division",
        "regionname": "DivReportingCircle",
        "circlename": "Assam Circle",
        "latitude": "26.0850000",
        "longitude": "91.3480556"
      },
      {
        "officename": "Bhitarduar B.O",
        "officetype": "BO",
        "delivery": "Delivery",
        "divisionname": "Guwahati Division",
        "regionname": "DivReportingCircle",
        "circlename": "Assam Circle",
        "latitude": "26.1135000",
        "longitude": "91.3433000"
      },
      {
        "officename": "Panikhaiti B.O",
        "officetype": "BO",
        "delivery": "Delivery",
        "divisionname": "Guwahati Division",
        "regionname": "DivReportingCircle",
        "circlename": "Assam Circle",
        "latitude": "26.1135000",
        "longitude": "91.3433000"
      },
      {
        "officename": "Toparpathar B.O",
        "officetype": "BO",
        "delivery": "Delivery",
        "divisionname": "Guwahati Division",
        "regionname": "DivReportingCircle",
        "circlename": "Assam Circle",
        "latitude": "26.1135000",
        "longitude": "91.3433000"
      },
      {
        "officename": "Tukrapara B.O",
        "officetype": "BO",
        "delivery": "Delivery",
        "divisionname": "Guwahati Division",
        "regionname": "DivReportingCircle",
        "circlename": "Assam Circle",
        "latitude": "26.1135000",
        "longitude": "91.3433000"
      }
    ]
  },
  "781138": {
    "state": "ASSAM",
    "district": "NALBARI",
    "offices": [
      {
        "officename": "Pachim Kajia Gaon B.O",
        "officetype": "BO",
        "delivery": "Delivery",
        "divisionname": "Nalbari Division",
        "regionname": "DivReportingCircle",
        "circlename": "Assam Circle",
        "latitude": "26.1804000",
        "longitude": "91.0839000"
      },
      {
        "officename": "Larkuchi B.O",
        "officetype": "BO",
        "delivery": "Delivery",
        "divisionname": "Nalbari Division",
        "regionname": "DivReportingCircle",
        "circlename": "Assam Circle",
        "latitude": "26.1804000",
        "longitude": "91.0839000"
      },
      {
        "officename": "Bartola S.O",
        "officetype": "PO",
        "delivery": "Delivery",
        "divisionname": "Nalbari Division",
        "regionname": "DivReportingCircle",
        "circlename": "Assam Circle",
        "latitude": "26.1804000",
        "longitude": "91.0839000"
      },
      {
        "officename": "Hidilatari B.O",
        "officetype": "BO",
        "delivery": "Delivery",
        "divisionname": "Nalbari Division",
        "regionname": "DivReportingCircle",
        "circlename": "Assam Circle",
        "latitude": "26.1804000",
        "longitude": "91.0839000"
      },
      {
        "officename": "Kaplabari B.O",
        "officetype": "BO",
        "delivery": "Delivery",
        "divisionname": "Nalbari Division",
        "regionname": "DivReportingCircle",
        "circlename": "Assam Circle",
        "latitude": "26.1804000",
        "longitude": "91.0839000"
      },
      {
        "officename": "Kekankuchi B.O",
        "officetype": "BO",
        "delivery": "Delivery",
        "divisionname": "Nalbari Division",
        "regionname": "DivReportingCircle",
        "circlename": "Assam Circle",
        "latitude": "26.1804000",
        "longitude": "91.0839000"
      },
      {
        "officename": "Kachuapathar B.O",
        "officetype": "BO",
        "delivery": "Delivery",
        "divisionname": "Nalbari Division",
        "regionname": "DivReportingCircle",
        "circlename": "Assam Circle",
        "latitude": "26.1804000",
        "longitude": "91.0839000"
      },
      {
        "officename": "Narua B.O",
        "officetype": "BO",
        "delivery": "Delivery",
        "divisionname": "Nalbari Division",
        "regionname": "DivReportingCircle",
        "circlename": "Assam Circle",
        "latitude": "26.1804000",
        "longitude": "91.0839000"
      }
    ]
  },
  "781141": {
    "state": "ASSAM",
    "district": "KAMRUP",
    "offices": [
      {
        "officename": "Choudhurykhat B.O",
        "officetype": "BO",
        "delivery": "Delivery",
        "divisionname": "Guwahati Division",
        "regionname": "DivReportingCircle",
        "circlename": "Assam Circle",
        "latitude": "26.1887770",
        "longitude": "91.7456380"
      },
      {
        "officename": "Santipur B.O",
        "officetype": "BO",
        "delivery": "Delivery",
        "divisionname": "Guwahati Division",
        "regionname": "DivReportingCircle",
        "circlename": "Assam Circle",
        "latitude": "26.1887770",
        "longitude": "91.7456380"
      },
      {
        "officename": "Bamunigaon S.O (Kamrup)",
        "officetype": "PO",
        "delivery": "Delivery",
        "divisionname": "Guwahati Division",
        "regionname": "DivReportingCircle",
        "circlename": "Assam Circle",
        "latitude": "26.1887778",
        "longitude": "91.7456389"
      },
      {
        "officename": "Jambari B.O",
        "officetype": "BO",
        "delivery": "Delivery",
        "divisionname": "Guwahati Division",
        "regionname": "DivReportingCircle",
        "circlename": "Assam Circle",
        "latitude": "26.1887770",
        "longitude": "91.7456380"
      }
    ]
  },
  "781150": {
    "state": "ASSAM",
    "district": "KAMRUP METRO",
    "offices": [
      {
        "officename": "Chandrapur S.O (Kamrup)",
        "officetype": "PO",
        "delivery": "Delivery",
        "divisionname": "Guwahati Division",
        "regionname": "DivReportingCircle",
        "circlename": "Assam Circle",
        "latitude": "26.1887778",
        "longitude": "91.7456389"
      },
      {
        "officename": "Gobardhan B.O",
        "officetype": "BO",
        "delivery": "Non Delivery",
        "divisionname": "Guwahati Division",
        "regionname": "DivReportingCircle",
        "circlename": "Assam Circle",
        "latitude": "26.2159000",
        "longitude": "91.8901716"
      }
    ]
  },
  "781171": {
    "state": "ASSAM",
    "district": "KAMRUP METRO",
    "offices": [
      {
        "officename": "Patharquerry S.O",
        "officetype": "PO",
        "delivery": "Non Delivery",
        "divisionname": "Guwahati Division",
        "regionname": "DivReportingCircle",
        "circlename": "Assam Circle",
        "latitude": "26.1693500",
        "longitude": "91.8266800"
      },
      {
        "officename": "Udayan Vihar S.O",
        "officetype": "PO",
        "delivery": "Delivery",
        "divisionname": "Guwahati Division",
        "regionname": "DivReportingCircle",
        "circlename": "Assam Circle",
        "latitude": "26.1649600",
        "longitude": "91.8354700"
      }
    ]
  },
  "781301": {
    "state": "ASSAM",
    "district": "BARPETA",
    "offices": [
      {
        "officename": "Barpeta H.O",
        "officetype": "HO",
        "delivery": "Delivery",
        "divisionname": "Nalbari Division",
        "regionname": "DivReportingCircle",
        "circlename": "Assam Circle",
        "latitude": "26.3291389",
        "longitude": "91.0102500"
      },
      {
        "officename": "Thakurbazar S.O",
        "officetype": "PO",
        "delivery": "Non Delivery",
        "divisionname": "Nalbari Division",
        "regionname": "DivReportingCircle",
        "circlename": "Assam Circle",
        "latitude": "26.3178700",
        "longitude": "91.0102900"
      }
    ]
  },
  "781302": {
    "state": "ASSAM",
    "district": "BARPETA",
    "offices": [
      {
        "officename": "Barghol B.O",
        "officetype": "BO",
        "delivery": "Delivery",
        "divisionname": "Nalbari Division",
        "regionname": "DivReportingCircle",
        "circlename": "Assam Circle",
        "latitude": "26.2571500",
        "longitude": "91.1309700"
      },
      {
        "officename": "Baharihat S.O",
        "officetype": "PO",
        "delivery": "Delivery",
        "divisionname": "Nalbari Division",
        "regionname": "DivReportingCircle",
        "circlename": "Assam Circle",
        "latitude": "26.2571500",
        "longitude": "91.1309700"
      },
      {
        "officename": "Gomafulbari B.O",
        "officetype": "BO",
        "delivery": "Delivery",
        "divisionname": "Nalbari Division",
        "regionname": "DivReportingCircle",
        "circlename": "Assam Circle",
        "latitude": "26.2571500",
        "longitude": "91.1309700"
      },
      {
        "officename": "Nizbahari B.O",
        "officetype": "BO",
        "delivery": "Delivery",
        "divisionname": "Nalbari Division",
        "regionname": "DivReportingCircle",
        "circlename": "Assam Circle",
        "latitude": "26.2571500",
        "longitude": "91.1309700"
      }
    ]
  },
  "781303": {
    "state": "ASSAM",
    "district": "NALBARI",
    "offices": [
      {
        "officename": "Batsar B.O",
        "officetype": "BO",
        "delivery": "Delivery",
        "divisionname": "Nalbari Division",
        "regionname": "DivReportingCircle",
        "circlename": "Assam Circle",
        "latitude": "26.2349000",
        "longitude": "91.2118000"
      },
      {
        "officename": "Bihampur B.O",
        "officetype": "BO",
        "delivery": "Delivery",
        "divisionname": "Nalbari Division",
        "regionname": "DivReportingCircle",
        "circlename": "Assam Circle",
        "latitude": "26.2349000",
        "longitude": "91.2118000"
      },
      {
        "officename": "Banagram S.O",
        "officetype": "PO",
        "delivery": "Delivery",
        "divisionname": "Nalbari Division",
        "regionname": "DivReportingCircle",
        "circlename": "Assam Circle",
        "latitude": "26.2349000",
        "longitude": "91.2118000"
      },
      {
        "officename": "Banagram Chowk B.O",
        "officetype": "BO",
        "delivery": "Delivery",
        "divisionname": "Nalbari Division",
        "regionname": "DivReportingCircle",
        "circlename": "Assam Circle",
        "latitude": "26.2349000",
        "longitude": "91.2118000"
      },
      {
        "officename": "Mularkuchi B.O",
        "officetype": "BO",
        "delivery": "Delivery",
        "divisionname": "Nalbari Division",
        "regionname": "DivReportingCircle",
        "circlename": "Assam Circle",
        "latitude": "26.2349000",
        "longitude": "91.2118000"
      },
      {
        "officename": "Barnaddi B.O",
        "officetype": "BO",
        "delivery": "Delivery",
        "divisionname": "Nalbari Division",
        "regionname": "DivReportingCircle",
        "circlename": "Assam Circle",
        "latitude": "26.2349000",
        "longitude": "91.2118000"
      },
      {
        "officename": "Panigaon B.O",
        "officetype": "BO",
        "delivery": "Delivery",
        "divisionname": "Nalbari Division",
        "regionname": "DivReportingCircle",
        "circlename": "Assam Circle",
        "latitude": "26.2349000",
        "longitude": "91.2118000"
      }
    ]
  },
  "781304": {
    "state": "ASSAM",
    "district": "NALBARI",
    "offices": [
      {
        "officename": "Dirua B.O",
        "officetype": "BO",
        "delivery": "Delivery",
        "divisionname": "Nalbari Division",
        "regionname": "DivReportingCircle",
        "circlename": "Assam Circle",
        "latitude": "26.2326000",
        "longitude": "91.2033000"
      },
      {
        "officename": "Gandhia B.O",
        "officetype": "BO",
        "delivery": "Delivery",
        "divisionname": "Nalbari Division",
        "regionname": "DivReportingCircle",
        "circlename": "Assam Circle",
        "latitude": "26.2326000",
        "longitude": "91.2033000"
      },
      {
        "officename": "Belsor S.O",
        "officetype": "PO",
        "delivery": "Delivery",
        "divisionname": "Nalbari Division",
        "regionname": "DivReportingCircle",
        "circlename": "Assam Circle",
        "latitude": "26.2326000",
        "longitude": "91.2033000"
      },
      {
        "officename": "Kakaya B.O",
        "officetype": "BO",
        "delivery": "Delivery",
        "divisionname": "Nalbari Division",
        "regionname": "DivReportingCircle",
        "circlename": "Assam Circle",
        "latitude": "26.2326000",
        "longitude": "91.2033000"
      },
      {
        "officename": "Barnibari B.O",
        "officetype": "BO",
        "delivery": "Delivery",
        "divisionname": "Nalbari Division",
        "regionname": "DivReportingCircle",
        "circlename": "Assam Circle",
        "latitude": "26.2326000",
        "longitude": "91.2033000"
      },
      {
        "officename": "Bonmaza B.O",
        "officetype": "BO",
        "delivery": "Delivery",
        "divisionname": "Nalbari Division",
        "regionname": "DivReportingCircle",
        "circlename": "Assam Circle",
        "latitude": "26.2326000",
        "longitude": "91.2033000"
      }
    ]
  },
  "781305": {
    "state": "ASSAM",
    "district": "BARPETA",
    "offices": [
      {
        "officename": "Makrikuchi B.O",
        "officetype": "BO",
        "delivery": "Delivery",
        "divisionname": "Nalbari Division",
        "regionname": "DivReportingCircle",
        "circlename": "Assam Circle",
        "latitude": "26.2794500",
        "longitude": "91.1562800"
      },
      {
        "officename": "Pachim Mazdia B.O",
        "officetype": "BO",
        "delivery": "Delivery",
        "divisionname": "Nalbari Division",
        "regionname": "DivReportingCircle",
        "circlename": "Assam Circle",
        "latitude": "26.279450000000001",
        "longitude": "91.156279999999995"
      },
      {
        "officename": "Chenga S.O",
        "officetype": "PO",
        "delivery": "Delivery",
        "divisionname": "Nalbari Division",
        "regionname": "DivReportingCircle",
        "circlename": "Assam Circle",
        "latitude": "26.2794500",
        "longitude": "91.1562800"
      },
      {
        "officename": "Bhogdia B.O",
        "officetype": "BO",
        "delivery": "Delivery",
        "divisionname": "Nalbari Division",
        "regionname": "DivReportingCircle",
        "circlename": "Assam Circle",
        "latitude": "26.2794500",
        "longitude": "91.1562800"
      },
      {
        "officename": "Jatradia B.O",
        "officetype": "BO",
        "delivery": "Delivery",
        "divisionname": "Nalbari Division",
        "regionname": "DivReportingCircle",
        "circlename": "Assam Circle",
        "latitude": "26.2794500",
        "longitude": "91.1562800"
      },
      {
        "officename": "Khangra B.O",
        "officetype": "BO",
        "delivery": "Delivery",
        "divisionname": "Nalbari Division",
        "regionname": "DivReportingCircle",
        "circlename": "Assam Circle",
        "latitude": "26.2794500",
        "longitude": "91.1562800"
      },
      {
        "officename": "Chenimari B.O",
        "officetype": "BO",
        "delivery": "Delivery",
        "divisionname": "Nalbari Division",
        "regionname": "DivReportingCircle",
        "circlename": "Assam Circle",
        "latitude": "26.2794500",
        "longitude": "91.1562800"
      }
    ]
  },
  "781306": {
    "state": "ASSAM",
    "district": "NALBARI",
    "offices": [
      {
        "officename": "Gamerimuri B.O",
        "officetype": "BO",
        "delivery": "Delivery",
        "divisionname": "Nalbari Division",
        "regionname": "DivReportingCircle",
        "circlename": "Assam Circle",
        "latitude": "26.2419000",
        "longitude": "91.2001000"
      },
      {
        "officename": "Rupia Bathan B.O",
        "officetype": "BO",
        "delivery": "Delivery",
        "divisionname": "Nalbari Division",
        "regionname": "DivReportingCircle",
        "circlename": "Assam Circle",
        "latitude": "26.2419000",
        "longitude": "91.2001000"
      },
      {
        "officename": "Amani B.O",
        "officetype": "BO",
        "delivery": "Delivery",
        "divisionname": "Nalbari Division",
        "regionname": "DivReportingCircle",
        "circlename": "Assam Circle",
        "latitude": "26.2419000",
        "longitude": "91.2001000"
      },
      {
        "officename": "Chamata S.O",
        "officetype": "PO",
        "delivery": "Delivery",
        "divisionname": "Nalbari Division",
        "regionname": "DivReportingCircle",
        "circlename": "Assam Circle",
        "latitude": "26.2419000",
        "longitude": "91.2001000"
      },
      {
        "officename": "Pachimchamata B.O",
        "officetype": "BO",
        "delivery": "Delivery",
        "divisionname": "Nalbari Division",
        "regionname": "DivReportingCircle",
        "circlename": "Assam Circle",
        "latitude": "26.2419000",
        "longitude": "91.2001000"
      }
    ]
  },
  "781307": {
    "state": "ASSAM",
    "district": "BARPETA",
    "offices": [
      {
        "officename": "Byaskuchi B.O",
        "officetype": "BO",
        "delivery": "Delivery",
        "divisionname": "Nalbari Division",
        "regionname": "DivReportingCircle",
        "circlename": "Assam Circle",
        "latitude": "26.3699500",
        "longitude": "91.2239000"
      },
      {
        "officename": "Kamalabari B.O",
        "officetype": "BO",
        "delivery": "Delivery",
        "divisionname": "Nalbari Division",
        "regionname": "DivReportingCircle",
        "circlename": "Assam Circle",
        "latitude": "26.3699500",
        "longitude": "91.2239000"
      },
      {
        "officename": "Karaguri B.O",
        "officetype": "BO",
        "delivery": "Delivery",
        "divisionname": "Nalbari Division",
        "regionname": "DivReportingCircle",
        "circlename": "Assam Circle",
        "latitude": "26.3699500",
        "longitude": "91.2239000"
      },
      {
        "officename": "Nasatraphulbari B.O",
        "officetype": "BO",
        "delivery": "Delivery",
        "divisionname": "Nalbari Division",
        "regionname": "DivReportingCircle",
        "circlename": "Assam Circle",
        "latitude": "26.3699500",
        "longitude": "91.2239000"
      },
      {
        "officename": "Namsala B.O",
        "officetype": "BO",
        "delivery": "Delivery",
        "divisionname": "Nalbari Division",
        "regionname": "DivReportingCircle",
        "circlename": "Assam Circle",
        "latitude": "26.3699500",
        "longitude": "91.2239000"
      },
      {
        "officename": "Parakuchi B.O",
        "officetype": "BO",
        "delivery": "Delivery",
        "divisionname": "Nalbari Division",
        "regionname": "DivReportingCircle",
        "circlename": "Assam Circle",
        "latitude": "26.3699500",
        "longitude": "91.2239000"
      },
      {
        "officename": "Amrikhowa B.O",
        "officetype": "BO",
        "delivery": "Delivery",
        "divisionname": "Nalbari Division",
        "regionname": "DivReportingCircle",
        "circlename": "Assam Circle",
        "latitude": "26.3699500",
        "longitude": "91.2239000"
      },
      {
        "officename": "Barkapla B.O",
        "officetype": "BO",
        "delivery": "Delivery",
        "divisionname": "Nalbari Division",
        "regionname": "DivReportingCircle",
        "circlename": "Assam Circle",
        "latitude": "26.3699500",
        "longitude": "91.2239000"
      },
      {
        "officename": "Sarthebari S.O",
        "officetype": "PO",
        "delivery": "Delivery",
        "divisionname": "Nalbari Division",
        "regionname": "DivReportingCircle",
        "circlename": "Assam Circle",
        "latitude": "26.3699500",
        "longitude": "91.2239000"
      }
    ]
  },
  "781308": {
    "state": "ASSAM",
    "district": "BARPETA",
    "offices": [
      {
        "officename": "Chakabausi B.O",
        "officetype": "BO",
        "delivery": "Delivery",
        "divisionname": "Nalbari Division",
        "regionname": "DivReportingCircle",
        "circlename": "Assam Circle",
        "latitude": "26.3171000",
        "longitude": "91.0051000"
      },
      {
        "officename": "Nirala B.O",
        "officetype": "BO",
        "delivery": "Delivery",
        "divisionname": "Nalbari Division",
        "regionname": "DivReportingCircle",
        "circlename": "Assam Circle",
        "latitude": "26.3171000",
        "longitude": "91.0051000"
      },
      {
        "officename": "Balajan B.O",
        "officetype": "BO",
        "delivery": "Delivery",
        "divisionname": "Nalbari Division",
        "regionname": "DivReportingCircle",
        "circlename": "Assam Circle",
        "latitude": "26.3171000",
        "longitude": "91.0051000"
      },
      {
        "officename": "Bhoirarpam B.O",
        "officetype": "BO",
        "delivery": "Delivery",
        "divisionname": "Nalbari Division",
        "regionname": "DivReportingCircle",
        "circlename": "Assam Circle",
        "latitude": "26.3171000",
        "longitude": "91.0051000"
      },
      {
        "officename": "Dharampur B.O",
        "officetype": "BO",
        "delivery": "Delivery",
        "divisionname": "Nalbari Division",
        "regionname": "DivReportingCircle",
        "circlename": "Assam Circle",
        "latitude": "26.3171000",
        "longitude": "91.0051000"
      },
      {
        "officename": "Ramaparapam B.O",
        "officetype": "BO",
        "delivery": "Delivery",
        "divisionname": "Nalbari Division",
        "regionname": "DivReportingCircle",
        "circlename": "Assam Circle",
        "latitude": "26.3171000",
        "longitude": "91.0051000"
      },
      {
        "officename": "Satrakanara Bazar B.O",
        "officetype": "BO",
        "delivery": "Delivery",
        "divisionname": "Nalbari Division",
        "regionname": "DivReportingCircle",
        "circlename": "Assam Circle",
        "latitude": "26.3171000",
        "longitude": "91.0051000"
      },
      {
        "officename": "Baghbar B.O",
        "officetype": "BO",
        "delivery": "Delivery",
        "divisionname": "Nalbari Division",
        "regionname": "DivReportingCircle",
        "circlename": "Assam Circle",
        "latitude": "26.3171000",
        "longitude": "91.0051000"
      },
      {
        "officename": "Kadomtola B.O",
        "officetype": "BO",
        "delivery": "Delivery",
        "divisionname": "Nalbari Division",
        "regionname": "DivReportingCircle",
        "circlename": "Assam Circle",
        "latitude": "26.3171000",
        "longitude": "91.0051000"
      },
      {
        "officename": "Deoldi B.O",
        "officetype": "BO",
        "delivery": "Delivery",
        "divisionname": "Nalbari Division",
        "regionname": "DivReportingCircle",
        "circlename": "Assam Circle",
        "latitude": "26.267900000000001",
        "longitude": "90.961200000000005"
      },
      {
        "officename": "Habidongra Bazar B.O",
        "officetype": "BO",
        "delivery": "Delivery",
        "divisionname": "Nalbari Division",
        "regionname": "DivReportingCircle",
        "circlename": "Assam Circle",
        "latitude": "26.3171000",
        "longitude": "91.0051000"
      },
      {
        "officename": "Pahumara B.O",
        "officetype": "BO",
        "delivery": "Delivery",
        "divisionname": "Nalbari Division",
        "regionname": "DivReportingCircle",
        "circlename": "Assam Circle",
        "latitude": "26.3171000",
        "longitude": "91.0051000"
      },
      {
        "officename": "Manikpur B.O",
        "officetype": "BO",
        "delivery": "Delivery",
        "divisionname": "Nalbari Division",
        "regionname": "DivReportingCircle",
        "circlename": "Assam Circle",
        "latitude": "26.3171000",
        "longitude": "91.0051000"
      },
      {
        "officename": "Sitoli B.O",
        "officetype": "BO",
        "delivery": "Delivery",
        "divisionname": "Nalbari Division",
        "regionname": "DivReportingCircle",
        "circlename": "Assam Circle",
        "latitude": "26.3171000",
        "longitude": "91.0051000"
      },
      {
        "officename": "Mandia S.O",
        "officetype": "PO",
        "delivery": "Delivery",
        "divisionname": "Nalbari Division",
        "regionname": "DivReportingCircle",
        "circlename": "Assam Circle",
        "latitude": "26.3171000",
        "longitude": "91.0051000"
      }
    ]
  },
  "781309": {
    "state": "ASSAM",
    "district": "BARPETA",
    "offices": [
      {
        "officename": "Keotkuchi B.O",
        "officetype": "BO",
        "delivery": "Delivery",
        "divisionname": "Nalbari Division",
        "regionname": "DivReportingCircle",
        "circlename": "Assam Circle",
        "latitude": "26.3002400",
        "longitude": "91.0725700"
      },
      {
        "officename": "Radhakuchi B.O",
        "officetype": "BO",
        "delivery": "Delivery",
        "divisionname": "Nalbari Division",
        "regionname": "DivReportingCircle",
        "circlename": "Assam Circle",
        "latitude": "26.3002400",
        "longitude": "91.0725700"
      },
      {
        "officename": "Bhella S.O",
        "officetype": "PO",
        "delivery": "Delivery",
        "divisionname": "Nalbari Division",
        "regionname": "DivReportingCircle",
        "circlename": "Assam Circle",
        "latitude": "26.3002400",
        "longitude": "91.0725700"
      },