{
  "334002": {
    "state": "CHHATTISGARH",
    "district": "RAIPUR",
    "offices": [
      {
        "officename": "NDC BIKANER",
        "officetype": "PO",
        "delivery": "Delivery",
        "divisionname": "Bikaner Division",
        "regionname": "Jodhpur Region",
        "circlename": "Rajasthan Circle",
        "latitude": "28.0208232",
        "longitude": "73.3158222"
      }
    ]
  },
  "490001": {
    "state": "CHHATTISGARH",
    "district": "DURG",
    "offices": [
      {
        "officename": "Bhilai 1 SO",
        "officetype": "PO",
        "delivery": "Delivery",
        "divisionname": "Durg Division",
        "regionname": "DivReportingCircle",
        "circlename": "Chattisgarh Circle",
        "latitude": "21.717302",
        "longitude": "81.534080000000003"
      },
      {
        "officename": "Jawahar Market Bhilai SO",
        "officetype": "PO",
        "delivery": "Non Delivery",
        "divisionname": "Durg Division",
        "regionname": "DivReportingCircle",
        "circlename": "Chattisgarh Circle",
        "latitude": "21.2100940",
        "longitude": "81.3738450"
      },
      {
        "officename": "Sector 2 Bhilai SO",
        "officetype": "PO",
        "delivery": "Non Delivery",
        "divisionname": "Durg Division",
        "regionname": "DivReportingCircle",
        "circlename": "Chattisgarh Circle",
        "latitude": "21.1210200",
        "longitude": "81.2107500"
      },
      {
        "officename": "Sector 3 Bhilai SO",
        "officetype": "PO",
        "delivery": "Non Delivery",
        "divisionname": "Durg Division",
        "regionname": "DivReportingCircle",
        "circlename": "Chattisgarh Circle",
        "latitude": "21.1147600",
        "longitude": "81.2209000"
      },
      {
        "officename": "ISPAT BHAWAN BHILAI SO",
        "officetype": "PO",
        "delivery": "Non Delivery",
        "divisionname": "Durg Division",
        "regionname": "DivReportingCircle",
        "circlename": "Chattisgarh Circle",
        "latitude": "NA",
        "longitude": "NA"
      },
      {
        "officename": "A O Bhilai SO",
        "officetype": "PO",
        "delivery": "Non Delivery",
        "divisionname": "Durg Division",
        "regionname": "DivReportingCircle",
        "circlename": "Chattisgarh Circle",
        "latitude": "21.1152200",
        "longitude": "81.2251000"
      },
      {
        "officename": "Bhilai Boria SO",
        "officetype": "PO",
        "delivery": "Non Delivery",
        "divisionname": "Durg Division",
        "regionname": "DivReportingCircle",
        "circlename": "Chattisgarh Circle",
        "latitude": "21.1888290",
        "longitude": "81.3710900"
      }
    ]
  },
  "490006": {
    "state": "CHHATTISGARH",
    "district": "DURG",
    "offices": [
      {
        "officename": "Maroda Bhilai SO",
        "officetype": "PO",
        "delivery": "Non Delivery",
        "divisionname": "Durg Division",
        "regionname": "DivReportingCircle",
        "circlename": "Chattisgarh Circle",
        "latitude": "21.1010700",
        "longitude": "81.2036000"
      },
      {
        "officename": "Civic Centre Bhilai SO",
        "officetype": "PO",
        "delivery": "Delivery",
        "divisionname": "Durg Division",
        "regionname": "DivReportingCircle",
        "circlename": "Chattisgarh Circle",
        "latitude": "21.224847",
        "longitude": "81.458320000000001"
      },
      {
        "officename": "Sector 5 Bhilai SO",
        "officetype": "PO",
        "delivery": "Non Delivery",
        "divisionname": "Durg Division",
        "regionname": "DivReportingCircle",
        "circlename": "Chattisgarh Circle",
        "latitude": "21.1107800",
        "longitude": "81.2054300"
      },
      {
        "officename": "Sector 7 Bhilai SO",
        "officetype": "PO",
        "delivery": "Non Delivery",
        "divisionname": "Durg Division",
        "regionname": "DivReportingCircle",
        "circlename": "Chattisgarh Circle",
        "latitude": "21.1136600",
        "longitude": "81.1943900"
      },
      {
        "officename": "Sector 6 Bhilai SO",
        "officetype": "PO",
        "delivery": "Non Delivery",
        "divisionname": "Durg Division",
        "regionname": "DivReportingCircle",
        "circlename": "Chattisgarh Circle",
        "latitude": "21.1135200",
        "longitude": "81.2040600"
      },
      {
        "officename": "Nawagaon Bhilai SO",
        "officetype": "PO",
        "delivery": "Non Delivery",
        "divisionname": "Durg Division",
        "regionname": "DivReportingCircle",
        "circlename": "Chattisgarh Circle",
        "latitude": "21.1833000",
        "longitude": "81.3306000"
      }
    ]
  },
  "490009": {
    "state": "CHHATTISGARH",
    "district": "DURG",
    "offices": [
      {
        "officename": "Bhilai West SO",
        "officetype": "PO",
        "delivery": "Delivery",
        "divisionname": "Durg Division",
        "regionname": "DivReportingCircle",
        "circlename": "Chattisgarh Circle",
        "latitude": "21.207661999999999",
        "longitude": "81.425810999999996"
      }
    ]
  },
  "490011": {
    "state": "CHHATTISGARH",
    "district": "DURG",
    "offices": [
      {
        "officename": "New Khursipar Bhilai SO",
        "officetype": "PO",
        "delivery": "Non Delivery",
        "divisionname": "Durg Division",
        "regionname": "DivReportingCircle",
        "circlename": "Chattisgarh Circle",
        "latitude": "21.1234100",
        "longitude": "81.2409200"
      },
      {
        "officename": "Khursipar Bhilai SO",
        "officetype": "PO",
        "delivery": "Delivery",
        "divisionname": "Durg Division",
        "regionname": "DivReportingCircle",
        "circlename": "Chattisgarh Circle",
        "latitude": "21.239602000000001",
        "longitude": "81.390192999999996"
      }
    ]
  },
  "490020": {
    "state": "CHHATTISGARH",
    "district": "DURG",
    "offices": [
      {
        "officename": "Smriti Nagar Bhilai SO",
        "officetype": "PO",
        "delivery": "Non Delivery",
        "divisionname": "Durg Division",
        "regionname": "DivReportingCircle",
        "circlename": "Chattisgarh Circle",
        "latitude": "21.1298900",
        "longitude": "81.1911200"
      },
      {
        "officename": "Motilal Nehru Nagr Bhilai SO",
        "officetype": "PO",
        "delivery": "Delivery",
        "divisionname": "Durg Division",
        "regionname": "DivReportingCircle",
        "circlename": "Chattisgarh Circle",
        "latitude": "21.211805999999999",
        "longitude": "81.385672"
      }
    ]
  },
  "490021": {
    "state": "CHHATTISGARH",
    "district": "DURG",
    "offices": [
      {
        "officename": "Sirsakala BO",
        "officetype": "BO",
        "delivery": "Delivery",
        "divisionname": "Durg Division",
        "regionname": "DivReportingCircle",
        "circlename": "Chattisgarh Circle",
        "latitude": "21.1899980",
        "longitude": "81.4608640"
      },
      {
        "officename": "Bhilai East SO",
        "officetype": "PO",
        "delivery": "Delivery",
        "divisionname": "Durg Division",
        "regionname": "DivReportingCircle",
        "circlename": "Chattisgarh Circle",
        "latitude": "21.521137",
        "longitude": "81.480025999999995"
      },
      {
        "officename": "Auri BO",
        "officetype": "BO",
        "delivery": "Delivery",
        "divisionname": "Durg Division",
        "regionname": "DivReportingCircle",
        "circlename": "Chattisgarh Circle",
        "latitude": "21.1678950",
        "longitude": "81.4800750"
      },
      {
        "officename": "Aundhi BO",
        "officetype": "BO",
        "delivery": "Delivery",
        "divisionname": "Durg Division",
        "regionname": "DivReportingCircle",
        "circlename": "Chattisgarh Circle",
        "latitude": "21.1798720",
        "longitude": "81.4684070"
      }
    ]
  },
  "490022": {
    "state": "CHHATTISGARH",
    "district": "DURG",
    "offices": [
      {
        "officename": "S A F Lines Bhilai SO",
        "officetype": "PO",
        "delivery": "Delivery",
        "divisionname": "Durg Division",
        "regionname": "DivReportingCircle",
        "circlename": "Chattisgarh Circle",
        "latitude": "21.905664999999999",
        "longitude": "81.605818999999997"
      }
    ]
  },
  "490023": {
    "state": "CHHATTISGARH",
    "district": "DURG",
    "offices": [
      {
        "officename": "Supela Bhilai SO",
        "officetype": "PO",
        "delivery": "Delivery",
        "divisionname": "Durg Division",
        "regionname": "DivReportingCircle",
        "circlename": "Chattisgarh Circle",
        "latitude": "21.664636999999999",
        "longitude": "81.313198"
      },
      {
        "officename": "Vaishali Nagar Bhilai SO",
        "officetype": "PO",
        "delivery": "Non Delivery",
        "divisionname": "Durg Division",
        "regionname": "DivReportingCircle",
        "circlename": "Chattisgarh Circle",
        "latitude": "21.1339400",
        "longitude": "81.2127500"
      },
      {
        "officename": "Kohka Bhilai SO",
        "officetype": "PO",
        "delivery": "Non Delivery",
        "divisionname": "Durg Division",
        "regionname": "DivReportingCircle",
        "circlename": "Chattisgarh Circle",
        "latitude": "21.2257000",
        "longitude": "81.3372000"
      }
    ]
  },
  "490024": {
    "state": "CHHATTISGARH",
    "district": "DURG",
    "offices": [
      {
        "officename": "Karanja Bhilai BO",
        "officetype": "BO",
        "delivery": "Delivery",
        "divisionname": "Durg Division",
        "regionname": "DivReportingCircle",
        "circlename": "Chattisgarh Circle",
        "latitude": "21.2929360",
        "longitude": "81.3234380"
      },
      {
        "officename": "Nardha BO",
        "officetype": "BO",
        "delivery": "Delivery",
        "divisionname": "Durg Division",
        "regionname": "DivReportingCircle",
        "circlename": "Chattisgarh Circle",
        "latitude": "21.2929360",
        "longitude": "81.3234380"
      },
      {
        "officename": "Surdung BO",
        "officetype": "BO",
        "delivery": "Delivery",
        "divisionname": "Durg Division",
        "regionname": "DivReportingCircle",
        "circlename": "Chattisgarh Circle",
        "latitude": "21.1176020",
        "longitude": "81.5088930"
      },
      {
        "officename": "Jamul Cement Works SO",
        "officetype": "PO",
        "delivery": "Delivery",
        "divisionname": "Durg Division",
        "regionname": "DivReportingCircle",
        "circlename": "Chattisgarh Circle",
        "latitude": "20.683242",
        "longitude": "81.412959999999998"
      },
      {
        "officename": "Dhaur BO",
        "officetype": "BO",
        "delivery": "Delivery",
        "divisionname": "Durg Division",
        "regionname": "DivReportingCircle",
        "circlename": "Chattisgarh Circle",
        "latitude": "21.1173780",
        "longitude": "81.4457520"
      },
      {
        "officename": "Kurud BO",
        "officetype": "BO",
        "delivery": "Delivery",
        "divisionname": "Durg Division",
        "regionname": "DivReportingCircle",
        "circlename": "Chattisgarh Circle",
        "latitude": "21.2442420",
        "longitude": "81.3536910"
      }
    ]
  },
  "490025": {
    "state": "CHHATTISGARH",
    "district": "DURG",
    "offices": [
      {
        "officename": "Janjgiri BO",
        "officetype": "BO",
        "delivery": "Delivery",
        "divisionname": "Durg Division",
        "regionname": "DivReportingCircle",
        "circlename": "Chattisgarh Circle",
        "latitude": "21.2104570",
        "longitude": "81.3866810"
      },
      {
        "officename": "Urla BO",
        "officetype": "BO",
        "delivery": "Delivery",
        "divisionname": "Durg Division",
        "regionname": "DivReportingCircle",
        "circlename": "Chattisgarh Circle",
        "latitude": "21.3185350",
        "longitude": "81.6086010"
      },
      {
        "officename": "Deobaloda BO",
        "officetype": "BO",
        "delivery": "Delivery",
        "divisionname": "Durg Division",
        "regionname": "DivReportingCircle",
        "circlename": "Chattisgarh Circle",
        "latitude": "21.2134750",
        "longitude": "81.4519810"
      },
      {
        "officename": "Bhilai Marshalling Yard SO",
        "officetype": "PO",
        "delivery": "Delivery",
        "divisionname": "Durg Division",
        "regionname": "DivReportingCircle",
        "circlename": "Chattisgarh Circle",
        "latitude": "21.20147",
        "longitude": "81.370440000000002"
      }
    ]
  },
  "490026": {
    "state": "CHHATTISGARH",
    "district": "DURG",
    "offices": [
      {
        "officename": "I E Bhilai SO",
        "officetype": "PO",
        "delivery": "Delivery",
        "divisionname": "Durg Division",
        "regionname": "DivReportingCircle",
        "circlename": "Chattisgarh Circle",
        "latitude": "20.948093",
        "longitude": "81.294965000000005"
      }
    ]
  },
  "490036": {
    "state": "CHHATTISGARH",
    "district": "BEMETARA",
    "offices": [
      {
        "officename": "Hasda BO",
        "officetype": "BO",
        "delivery": "Delivery",
        "divisionname": "Durg Division",
        "regionname": "DivReportingCircle",
        "circlename": "Chattisgarh Circle",
        "latitude": "21.1899980",
        "longitude": "81.4608640"
      },
      {
        "officename": "Medesara BO",
        "officetype": "BO",
        "delivery": "Delivery",
        "divisionname": "Durg Division",
        "regionname": "DivReportingCircle",
        "circlename": "Chattisgarh Circle",
        "latitude": "21.3761460",
        "longitude": "81.3605650"
      },
      {
        "officename": "Gudheli BO",
        "officetype": "BO",
        "delivery": "Delivery",
        "divisionname": "Durg Division",
        "regionname": "DivReportingCircle",
        "circlename": "Chattisgarh Circle",
        "latitude": "21.3565960",
        "longitude": "81.5425020"
      },
      {
        "officename": "Nandini SO",
        "officetype": "PO",
        "delivery": "Delivery",
        "divisionname": "Durg Division",
        "regionname": "DivReportingCircle",
        "circlename": "Chattisgarh Circle",
        "latitude": "21.2035163",
        "longitude": "81.320217700000001"
      },
      {
        "officename": "Bhimbhori BO",
        "officetype": "BO",
        "delivery": "Delivery",
        "divisionname": "Durg Division",
        "regionname": "DivReportingCircle",
        "circlename": "Chattisgarh Circle",
        "latitude": "21.2929360",
        "longitude": "81.3234380"
      },
      {
        "officename": "Murmunda BO",
        "officetype": "BO",
        "delivery": "Delivery",
        "divisionname": "Durg Division",
        "regionname": "DivReportingCircle",
        "circlename": "Chattisgarh Circle",
        "latitude": "21.3068030",
        "longitude": "81.4642880"
      },
      {
        "officename": "Ahiwara BO",
        "officetype": "BO",
        "delivery": "Delivery",
        "divisionname": "Durg Division",
        "regionname": "DivReportingCircle",
        "circlename": "Chattisgarh Circle",
        "latitude": "21.3565860",
        "longitude": "81.4114140"
      },
      {
        "officename": "Girhola BO",
        "officetype": "BO",
        "delivery": "Delivery",
        "divisionname": "Durg Division",
        "regionname": "DivReportingCircle",
        "circlename": "Chattisgarh Circle",
        "latitude": "21.3819260",
        "longitude": "81.4443790"
      },
      {
        "officename": "Gondgiri BO",
        "officetype": "BO",
        "delivery": "Delivery",
        "divisionname": "Durg Division",
        "regionname": "DivReportingCircle",
        "circlename": "Chattisgarh Circle",
        "latitude": "21.4202060",
        "longitude": "81.4992880"
      },
      {
        "officename": "Godhi BO",
        "officetype": "BO",
        "delivery": "Delivery",
        "divisionname": "Durg Division",
        "regionname": "DivReportingCircle",
        "circlename": "Chattisgarh Circle",
        "latitude": "21.3250240",
        "longitude": "81.4883100"
      },
      {
        "officename": "Nandini Khundini BO",
        "officetype": "BO",
        "delivery": "Delivery",
        "divisionname": "Durg Division",
        "regionname": "DivReportingCircle",
        "circlename": "Chattisgarh Circle",
        "latitude": "21.1419450",
        "longitude": "81.5226130"
      },
      {
        "officename": "Kodia BO",
        "officetype": "BO",
        "delivery": "Delivery",
        "divisionname": "Durg Division",
        "regionname": "DivReportingCircle",
        "circlename": "Chattisgarh Circle",
        "latitude": "21.1181840",
        "longitude": "81.3021160"
      }
    ]
  },
  "490042": {
    "state": "CHHATTISGARH",
    "district": "DURG",
    "offices": [
      {
        "officename": "Oteband BO",
        "officetype": "BO",
        "delivery": "Delivery",
        "divisionname": "Durg Division",
        "regionname": "DivReportingCircle",
        "circlename": "Chattisgarh Circle",
        "latitude": "21.0429560",
        "longitude": "81.2904210"
      },
      {
        "officename": "Kumhari SO",
        "officetype": "PO",
        "delivery": "Delivery",
        "divisionname": "Durg Division",
        "regionname": "DivReportingCircle",
        "circlename": "Chattisgarh Circle",
        "latitude": "21.800371999999999",
        "longitude": "81.335644000000002"
      },
      {
        "officename": "Kapasda BO",
        "officetype": "BO",
        "delivery": "Delivery",
        "divisionname": "Durg Division",
        "regionname": "DivReportingCircle",
        "circlename": "Chattisgarh Circle",
        "latitude": "21.1430710",
        "longitude": "81.5257390"
      },
      {
        "officename": "Limtara BO",
        "officetype": "BO",
        "delivery": "Delivery",
        "divisionname": "Durg Division",
        "regionname": "DivReportingCircle",
        "circlename": "Chattisgarh Circle",
        "latitude": "21.2856100",
        "longitude": "81.4690930"
      },
      {
        "officename": "Pahanda BO",
        "officetype": "BO",
        "delivery": "Delivery",
        "divisionname": "Durg Division",
        "regionname": "DivReportingCircle",
        "circlename": "Chattisgarh Circle",
        "latitude": "21.2095090",
        "longitude": "81.5431870"
      },
      {
        "officename": "Amleshwar BO",
        "officetype": "BO",
        "delivery": "Delivery",
        "divisionname": "Durg Division",
        "regionname": "DivReportingCircle",
        "circlename": "Chattisgarh Circle",
        "latitude": "21.2069260",
        "longitude": "81.5802070"
      }
    ]
  },
  "491001": {
    "state": "CHHATTISGARH",
    "district": "DURG",
    "offices": [
      {
        "officename": "Borai BO",
        "officetype": "BO",
        "delivery": "Delivery",
        "divisionname": "Durg Division",
        "regionname": "DivReportingCircle",
        "circlename": "Chattisgarh Circle",
        "latitude": "21.2505990",
        "longitude": "81.1912850"
      },
      {
        "officename": "Borsi SO",
        "officetype": "PO",
        "delivery": "Non Delivery",
        "divisionname": "Durg Division",
        "regionname": "DivReportingCircle",
        "circlename": "Chattisgarh Circle",
        "latitude": "21.0993900",
        "longitude": "81.1826900"
      },
      {
        "officename": "Hirri BO",
        "officetype": "BO",
        "delivery": "Delivery",
        "divisionname": "Durg Division",
        "regionname": "DivReportingCircle",
        "circlename": "Chattisgarh Circle",
        "latitude": "21.3094850",
        "longitude": "81.2436230"
      },
      {
        "officename": "Bhendsar BO",
        "officetype": "BO",
        "delivery": "Delivery",
        "divisionname": "Durg Division",
        "regionname": "DivReportingCircle",
        "circlename": "Chattisgarh Circle",
        "latitude": "21.2633420",
        "longitude": "81.2656490"
      },
      {
        "officename": "Durg Kutchery SO",
        "officetype": "PO",
        "delivery": "Non Delivery",
        "divisionname": "Durg Division",
        "regionname": "DivReportingCircle",
        "circlename": "Chattisgarh Circle",
        "latitude": "21.1845278",
        "longitude": "81.2809722"
      },
      {
        "officename": "Anjora BO",
        "officetype": "BO",
        "delivery": "Delivery",
        "divisionname": "Durg Division",
        "regionname": "DivReportingCircle",
        "circlename": "Chattisgarh Circle",
        "latitude": "21.7140250",
        "longitude": "81.5356150"
      },
      {
        "officename": "Chicha BO",
        "officetype": "BO",
        "delivery": "Delivery",
        "divisionname": "Durg Division",
        "regionname": "DivReportingCircle",
        "circlename": "Chattisgarh Circle",
        "latitude": "21.3955510",
        "longitude": "81.1940400"
      },
      {
        "officename": "Nagpura BO",
        "officetype": "BO",
        "delivery": "Delivery",
        "divisionname": "Durg Division",
        "regionname": "DivReportingCircle",
        "circlename": "Chattisgarh Circle",
        "latitude": "21.2523260",
        "longitude": "81.2243440"
      },
      {
        "officename": "Pisegaon BO",
        "officetype": "BO",
        "delivery": "Delivery",
        "divisionname": "Durg Division",
        "regionname": "DivReportingCircle",
        "circlename": "Chattisgarh Circle",
        "latitude": "21.1341150",
        "longitude": "81.2592210"
      },
      {
        "officename": "Purda BO",
        "officetype": "BO",
        "delivery": "Delivery",
        "divisionname": "Durg Division",
        "regionname": "DivReportingCircle",
        "circlename": "Chattisgarh Circle",
        "latitude": "21.3354600",
        "longitude": "81.2365410"
      },
      {
        "officename": "Tumakala BO",
        "officetype": "BO",
        "delivery": "Delivery",
        "divisionname": "Durg Division",
        "regionname": "DivReportingCircle",
        "circlename": "Chattisgarh Circle",
        "latitude": "21.1860110",
        "longitude": "81.2767890"
      },
      {
        "officename": "Durg R S SO",
        "officetype": "PO",
        "delivery": "Non Delivery",
        "divisionname": "Durg Division",
        "regionname": "DivReportingCircle",
        "circlename": "Chattisgarh Circle",
        "latitude": "21.1870030",
        "longitude": "81.2825070"
      },
      {
        "officename": "Malvia Nagar Durg SO",
        "officetype": "PO",
        "delivery": "Non Delivery",
        "divisionname": "Durg Division",
        "regionname": "DivReportingCircle",
        "circlename": "Chattisgarh Circle",
        "latitude": "21.1182100",
        "longitude": "81.1758400"
      },
      {
        "officename": "Padmanabhpur Durg SO",
        "officetype": "PO",
        "delivery": "Non Delivery",
        "divisionname": "Durg Division",
        "regionname": "DivReportingCircle",
        "circlename": "Chattisgarh Circle",
        "latitude": "21.1088900",
        "longitude": "81.1762600"
      },
      {
        "officename": "Pulgaon Durg SO",
        "officetype": "PO",
        "delivery": "Non Delivery",
        "divisionname": "Durg Division",
        "regionname": "DivReportingCircle",
        "circlename": "Chattisgarh Circle",
        "latitude": "21.1908580",
        "longitude": "81.2847070"
      },
      {
        "officename": "Hanoda BO",
        "officetype": "BO",
        "delivery": "Delivery",
        "divisionname": "Durg Division",
        "regionname": "DivReportingCircle",
        "circlename": "Chattisgarh Circle",
        "latitude": "21.1330330",
        "longitude": "81.3034920"
      },
      {
        "officename": "Jeora Sirsa BO",
        "officetype": "BO",
        "delivery": "Delivery",
        "divisionname": "Durg Division",
        "regionname": "DivReportingCircle",
        "circlename": "Chattisgarh Circle",
        "latitude": "21.2580200",
        "longitude": "81.3055560"
      },
      {
        "officename": "Litia Semaria BO",
        "officetype": "BO",
        "delivery": "Delivery",
        "divisionname": "Durg Division",
        "regionname": "DivReportingCircle",
        "circlename": "Chattisgarh Circle",
        "latitude": "21.3429340",
        "longitude": "81.2050610"
      },
      {
        "officename": "Nandkatti BO",
        "officetype": "BO",
        "delivery": "Delivery",
        "divisionname": "Durg Division",
        "regionname": "DivReportingCircle",
        "circlename": "Chattisgarh Circle",
        "latitude": "21.3364380",
        "longitude": "81.3358160"
      },
      {
        "officename": "Durg HO",
        "officetype": "HO",
        "delivery": "Delivery",
        "divisionname": "Durg Division",
        "regionname": "DivReportingCircle",
        "circlename": "Chattisgarh Circle",
        "latitude": "21.186133000000002",
        "longitude": "81.276797000000002"
      },
      {
        "officename": "Nawagaon Purda BO",
        "officetype": "BO",
        "delivery": "Delivery",
        "divisionname": "Durg Division",
        "regionname": "DivReportingCircle",
        "circlename": "Chattisgarh Circle",
        "latitude": "21.0756645",
        "longitude": "81.5020330"
      },
      {
        "officename": "Rasmara BO",
        "officetype": "BO",
        "delivery": "Delivery",
        "divisionname": "Durg Division",
        "regionname": "DivReportingCircle",
        "circlename": "Chattisgarh Circle",
        "latitude": "21.2002490",
        "longitude": "81.2174580"
      },
      {
        "officename": "Temri BO",
        "officetype": "BO",
        "delivery": "Delivery",
        "divisionname": "Durg Division",
        "regionname": "DivReportingCircle",
        "circlename": "Chattisgarh Circle",
        "latitude": "20.9243620",
        "longitude": "81.5481100"
      },
      {
        "officename": "Bori BO",
        "officetype": "BO",
        "delivery": "Delivery",
        "divisionname": "Durg Division",
        "regionname": "DivReportingCircle",
        "circlename": "Chattisgarh Circle",
        "latitude": "20.8512930",
        "longitude": "81.1826480"
      },
      {
        "officename": "Durg Sadar Bazar SO",
        "officetype": "PO",
        "delivery": "Non Delivery",
        "divisionname": "Durg Division",
        "regionname": "DivReportingCircle",
        "circlename": "Chattisgarh Circle",
        "latitude": "21.1146500",
        "longitude": "81.1643600"
      },
      {
        "officename": "Kasaridih Durg SO",
        "officetype": "PO",
        "delivery": "Non Delivery",
        "divisionname": "Durg Division",
        "regionname": "DivReportingCircle",
        "circlename": "Chattisgarh Circle",
        "latitude": "21.1074500",
        "longitude": "81.1041300"
      },
      {
        "officename": "Mohan Nagar Durg SO",
        "officetype": "PO",
        "delivery": "Non Delivery",
        "divisionname": "Durg Division",
        "regionname": "DivReportingCircle",
        "circlename": "Chattisgarh Circle",
        "latitude": "21.1211300",
        "longitude": "81.1716700"
      }
    ]
  },
  "491002": {
    "state": "CHHATTISGARH",
    "district": "DURG",
    "offices": [
      {
        "officename": "IIT Bhilai S.O",
        "officetype": "PO",
        "delivery": "Delivery",
        "divisionname": "Durg Division",
        "regionname": "DivReportingCircle",
        "circlename": "Chattisgarh Circle",
        "latitude": "21.241883",
        "longitude": "81.313556"
      }
    ]
  },
  "491107": {
    "state": "CHHATTISGARH",
    "district": "DURG",
    "offices": [
      {
        "officename": "Khopli BO",
        "officetype": "BO",
        "delivery": "Delivery",
        "divisionname": "Durg Division",
        "regionname": "DivReportingCircle",
        "circlename": "Chattisgarh Circle",
        "latitude": "21.4202060",
        "longitude": "81.4992880"
      },
      {
        "officename": "Pahandor BO",
        "officetype": "BO",
        "delivery": "Delivery",
        "divisionname": "Durg Division",
        "regionname": "DivReportingCircle",
        "circlename": "Chattisgarh Circle",
        "latitude": "21.3099810",
        "longitude": "81.4667340"
      },
      {
        "officename": "Newai BO",
        "officetype": "BO",
        "delivery": "Delivery",
        "divisionname": "Durg Division",
        "regionname": "DivReportingCircle",
        "circlename": "Chattisgarh Circle",
        "latitude": "21.1458470",
        "longitude": "81.3660640"
      },
      {
        "officename": "Patora BO",
        "officetype": "BO",
        "delivery": "Delivery",
        "divisionname": "Durg Division",
        "regionname": "DivReportingCircle",
        "circlename": "Chattisgarh Circle",
        "latitude": "21.1169780",
        "longitude": "81.4086660"
      },
      {
        "officename": "Purai BO",
        "officetype": "BO",
        "delivery": "Delivery",
        "divisionname": "Durg Division",
        "regionname": "DivReportingCircle",
        "circlename": "Chattisgarh Circle",
        "latitude": "21.1123480",
        "longitude": "81.3468170"
      },
      {
        "officename": "Selud BO",
        "officetype": "BO",
        "delivery": "Delivery",
        "divisionname": "Durg Division",
        "regionname": "DivReportingCircle",
        "circlename": "Chattisgarh Circle",
        "latitude": "21.0828840",
        "longitude": "81.4212150"
      },
      {
        "officename": "Dundera BO",
        "officetype": "BO",
        "delivery": "Delivery",
        "divisionname": "Durg Division",
        "regionname": "DivReportingCircle",
        "circlename": "Chattisgarh Circle",
        "latitude": "21.2538660",
        "longitude": "81.3928650"
      },
      {
        "officename": "Fekari BO",
        "officetype": "BO",
        "delivery": "Delivery",
        "divisionname": "Durg Division",
        "regionname": "DivReportingCircle",
        "circlename": "Chattisgarh Circle",
        "latitude": "21.0514300",
        "longitude": "81.4123440"
      },
      {
        "officename": "Pauwara BO",
        "officetype": "BO",
        "delivery": "Delivery",
        "divisionname": "Durg Division",
        "regionname": "DivReportingCircle",
        "circlename": "Chattisgarh Circle",
        "latitude": "21.0990280",
        "longitude": "81.3328950"
      },
      {
        "officename": "Utai SO",
        "officetype": "PO",
        "delivery": "Delivery",
        "divisionname": "Durg Division",
        "regionname": "DivReportingCircle",
        "circlename": "Chattisgarh Circle",
        "latitude": "20.870930000000001",
        "longitude": "81.281865999999994"
      }
    ]
  },
  "491111": {
    "state": "CHHATTISGARH",
    "district": "DURG",
    "offices": [
      {
        "officename": "Bhansuli BO",
        "officetype": "BO",
        "delivery": "Delivery",
        "divisionname": "Durg Division",
        "regionname": "DivReportingCircle",
        "circlename": "Chattisgarh Circle",
        "latitude": "21.2442420",
        "longitude": "81.3536910"
      },
      {
        "officename": "Borid BO",
        "officetype": "BO",
        "delivery": "Delivery",
        "divisionname": "Durg Division",
        "regionname": "DivReportingCircle",
        "circlename": "Chattisgarh Circle",
        "latitude": "21.1887700",
        "longitude": "81.4663090"
      },
      {
        "officename": "Tarra BO",
        "officetype": "BO",
        "delivery": "Delivery",
        "divisionname": "Durg Division",
        "regionname": "DivReportingCircle",
        "circlename": "Chattisgarh Circle",
        "latitude": "21.1176020",
        "longitude": "81.5088930"
      },
      {
        "officename": "Batang BO",
        "officetype": "BO",
        "delivery": "Delivery",
        "divisionname": "Durg Division",
        "regionname": "DivReportingCircle",
        "circlename": "Chattisgarh Circle",
        "latitude": "21.1538660",
        "longitude": "81.3928650"
      },
      {
        "officename": "Bathena BO",
        "officetype": "BO",
        "delivery": "Delivery",
        "divisionname": "Durg Division",
        "regionname": "DivReportingCircle",
        "circlename": "Chattisgarh Circle",
        "latitude": "21.0765800",
        "longitude": "81.5459300"
      },
      {
        "officename": "Devada BO",
        "officetype": "BO",
        "delivery": "Delivery",
        "divisionname": "Durg Division",
        "regionname": "DivReportingCircle",
        "circlename": "Chattisgarh Circle",
        "latitude": "21.0697430",
        "longitude": "81.4979160"
      },
      {
        "officename": "Jamgaon BO",
        "officetype": "BO",
        "delivery": "Delivery",
        "divisionname": "Durg Division",
        "regionname": "DivReportingCircle",
        "circlename": "Chattisgarh Circle",
        "latitude": "21.1419450",
        "longitude": "81.5226130"
      },
      {
        "officename": "Khamaria BO",
        "officetype": "BO",
        "delivery": "Delivery",
        "divisionname": "Durg Division",
        "regionname": "DivReportingCircle",
        "circlename": "Chattisgarh Circle",
        "latitude": "21.2290290",
        "longitude": "81.3165610"
      },
      {
        "officename": "Teligundra BO",
        "officetype": "BO",
        "delivery": "Delivery",
        "divisionname": "Durg Division",
        "regionname": "DivReportingCircle",
        "circlename": "Chattisgarh Circle",
        "latitude": "21.3565960",
        "longitude": "81.5425020"
      },
      {
        "officename": "Patan SO Durg",
        "officetype": "PO",
        "delivery": "Delivery",
        "divisionname": "Durg Division",
        "regionname": "DivReportingCircle",
        "circlename": "Chattisgarh Circle",
        "latitude": "21.363804999999999",
        "longitude": "81.400773999999998"
      },
      {
        "officename": "Kesra BO",
        "officetype": "BO",
        "delivery": "Delivery",
        "divisionname": "Durg Division",
        "regionname": "DivReportingCircle",
        "circlename": "Chattisgarh Circle",
        "latitude": "21.4202060",
        "longitude": "81.4992880"
      },
      {
        "officename": "Mahudajhit BO",
        "officetype": "BO",
        "delivery": "Delivery",
        "divisionname": "Durg Division",
        "regionname": "DivReportingCircle",
        "circlename": "Chattisgarh Circle",
        "latitude": "21.1495060",
        "longitude": "81.5555290"
      },
      {
        "officename": "Darbarmokhli BO",
        "officetype": "BO",
        "delivery": "Delivery",
        "divisionname": "Durg Division",
        "regionname": "DivReportingCircle",
        "circlename": "Chattisgarh Circle",
        "latitude": "21.2290290",
        "longitude": "81.3165610"
      },
      {
        "officename": "Gujra BO",
        "officetype": "BO",
        "delivery": "Delivery",
        "divisionname": "Durg Division",
        "regionname": "DivReportingCircle",
        "circlename": "Chattisgarh Circle",
        "latitude": "21.0990280",
        "longitude": "81.3328950"
      },
      {
        "officename": "Sankra BO",
        "officetype": "BO",
        "delivery": "Delivery",
        "divisionname": "Durg Division",
        "regionname": "DivReportingCircle",
        "circlename": "Chattisgarh Circle",
        "latitude": "21.2394880",
        "longitude": "81.3033920"
      },
      {
        "officename": "Santra BO",
        "officetype": "BO",
        "delivery": "Delivery",
        "divisionname": "Durg Division",
        "regionname": "DivReportingCircle",
        "circlename": "Chattisgarh Circle",
        "latitude": "21.0552670",
        "longitude": "81.4745840"
      }
    ]
  },
  "491221": {
    "state": "CHHATTISGARH",
    "district": "DURG",
    "offices": [
      {
        "officename": "Marra BO",
        "officetype": "BO",
        "delivery": "Delivery",
        "divisionname": "Durg Division",
        "regionname": "DivReportingCircle",
        "circlename": "Chattisgarh Circle",
        "latitude": "21.0367000",
        "longitude": "81.4581100"
      },
      {
        "officename": "Pauha BO",
        "officetype": "BO",
        "delivery": "Delivery",
        "divisionname": "Durg Division",
        "regionname": "DivReportingCircle",
        "circlename": "Chattisgarh Circle",
        "latitude": "21.0057540",
        "longitude": "81.4306450"
      },
      {
        "officename": "Tamora BO",
        "officetype": "BO",
        "delivery": "Delivery",
        "divisionname": "Durg Division",
        "regionname": "DivReportingCircle",
        "circlename": "Chattisgarh Circle",
        "latitude": "21.0266210",
        "longitude": "81.3756860"
      },
      {
        "officename": "Anda SO",
        "officetype": "PO",
        "delivery": "Delivery",
        "divisionname": "Durg Division",
        "regionname": "DivReportingCircle",
        "circlename": "Chattisgarh Circle",
        "latitude": "21.186112999999999",
        "longitude": "81.276771999999994"
      },
      {
        "officename": "Dagania BO",
        "officetype": "BO",
        "delivery": "Delivery",
        "divisionname": "Durg Division",
        "regionname": "DivReportingCircle",
        "circlename": "Chattisgarh Circle",
        "latitude": "21.5559310",
        "longitude": "81.3784350"
      },
      {
        "officename": "Machandur BO",
        "officetype": "BO",
        "delivery": "Delivery",
        "divisionname": "Durg Division",
        "regionname": "DivReportingCircle",
        "circlename": "Chattisgarh Circle",
        "latitude": "21.0725420",
        "longitude": "81.3352100"
      },
      {
        "officename": "Matwari BO",
        "officetype": "BO",
        "delivery": "Delivery",
        "divisionname": "Durg Division",
        "regionname": "DivReportingCircle",
        "circlename": "Chattisgarh Circle",
        "latitude": "21.0528100",
        "longitude": "81.3096830"
      },
      {
        "officename": "Nikum BO",
        "officetype": "BO",
        "delivery": "Delivery",
        "divisionname": "Durg Division",
        "regionname": "DivReportingCircle",
        "circlename": "Chattisgarh Circle",
        "latitude": "21.0575450",
        "longitude": "81.2009290"
      },
      {
        "officename": "Risama BO",
        "officetype": "BO",
        "delivery": "Delivery",
        "divisionname": "Durg Division",
        "regionname": "DivReportingCircle",
        "circlename": "Chattisgarh Circle",
        "latitude": "21.0628740",
        "longitude": "81.3186240"
      },
      {
        "officename": "Gadadih BO",
        "officetype": "BO",
        "delivery": "Delivery",
        "divisionname": "Durg Division",
        "regionname": "DivReportingCircle",
        "circlename": "Chattisgarh Circle",
        "latitude": "21.3561980",
        "longitude": "81.2326070"
      },
      {
        "officename": "Chandkhuri BO",
        "officetype": "BO",
        "delivery": "Delivery",
        "divisionname": "Durg Division",
        "regionname": "DivReportingCircle",
        "circlename": "Chattisgarh Circle",
        "latitude": "21.1369530",
        "longitude": "81.2644440"
      },
      {
        "officename": "Kanakote BO",
        "officetype": "BO",
        "delivery": "Delivery",
        "divisionname": "Durg Division",
        "regionname": "DivReportingCircle",
        "circlename": "Chattisgarh Circle",
        "latitude": "21.0367440",
        "longitude": "81.4004230"
      },
      {
        "officename": "Kuthrel BO",
        "officetype": "BO",
        "delivery": "Delivery",
        "divisionname": "Durg Division",
        "regionname": "DivReportingCircle",
        "circlename": "Chattisgarh Circle",
        "latitude": "21.0937560",
        "longitude": "81.2725310"
      },
      {
        "officename": "Sirri BO",
        "officetype": "BO",
        "delivery": "Delivery",
        "divisionname": "Durg Division",
        "regionname": "DivReportingCircle",
        "circlename": "Chattisgarh Circle",
        "latitude": "21.0474520",
        "longitude": "81.3784350"
      },
      {
        "officename": "Vinayakpur BO",
        "officetype": "BO",
        "delivery": "Delivery",
        "divisionname": "Durg Division",
        "regionname": "DivReportingCircle",
        "circlename": "Chattisgarh Circle",
        "latitude": "21.0487160",
        "longitude": "81.2587660"
      },
      {
        "officename": "Albaras BO",
        "officetype": "BO",
        "delivery": "Delivery",
        "divisionname": "Durg Division",
        "regionname": "DivReportingCircle",
        "circlename": "Chattisgarh Circle",
        "latitude": "21.0716390",
        "longitude": "81.2305420"
      }
    ]
  },
  "491222": {
    "state": "CHHATTISGARH",
    "district": "BALOD",
    "offices": [
      {
        "officename": "Barbaspur BO",
        "officetype": "BO",
        "delivery": "Delivery",
        "divisionname": "Durg Division",
        "regionname": "DivReportingCircle",
        "circlename": "Chattisgarh Circle",
        "latitude": "20.992695000000001",
        "longitude": "81.523984999999996"
      },
      {
        "officename": "Belaudi BO",
        "officetype": "BO",
        "delivery": "Delivery",
        "divisionname": "Durg Division",
        "regionname": "DivReportingCircle",
        "circlename": "Chattisgarh Circle",
        "latitude": "21.00686",
        "longitude": "81.452618000000001"
      },
      {
        "officename": "Chandnbirhi BO",
        "officetype": "BO",
        "delivery": "Delivery",
        "divisionname": "Durg Division",
        "regionname": "DivReportingCircle",
        "circlename": "Chattisgarh Circle",
        "latitude": "20.91939",
        "longitude": "81.243622999999999"
      },
      {
        "officename": "Rajauli BO",
        "officetype": "BO",
        "delivery": "Delivery",
        "divisionname": "Durg Division",
        "regionname": "DivReportingCircle",
        "circlename": "Chattisgarh Circle",
        "latitude": "20.879467999999999",
        "longitude": "81.373624000000007"
      },
      {
        "officename": "Sanoud BO",
        "officetype": "BO",
        "delivery": "Delivery",
        "divisionname": "Durg Division",
        "regionname": "DivReportingCircle",
        "circlename": "Chattisgarh Circle",
        "latitude": "20.892095999999999",
        "longitude": "81.287668999999994"
      },
      {
        "officename": "Sikosa SO",
        "officetype": "PO",
        "delivery": "Delivery",
        "divisionname": "Durg Division",
        "regionname": "DivReportingCircle",
        "circlename": "Chattisgarh Circle",
        "latitude": "21.202559000000001",
        "longitude": "81.310766000000001"
      },
      {
        "officename": "Armarikala BO",
        "officetype": "BO",
        "delivery": "Delivery",
        "divisionname": "Durg Division",
        "regionname": "DivReportingCircle",
        "circlename": "Chattisgarh Circle",
        "latitude": "20.839115",
        "longitude": "81.408665999999997"
      },
      {
        "officename": "Bhatagaon BO",
        "officetype": "BO",
        "delivery": "Delivery",
        "divisionname": "Durg Division",
        "regionname": "DivReportingCircle",
        "circlename": "Chattisgarh Circle",
        "latitude": "20.961248999999999",
        "longitude": "81.386680999999996"
      },
      {
        "officename": "Mahud BO",
        "officetype": "BO",
        "delivery": "Delivery",
        "divisionname": "Durg Division",
        "regionname": "DivReportingCircle",
        "circlename": "Chattisgarh Circle",
        "latitude": "21.211099999999998",
        "longitude": "81.222200000000001"
      },
      {
        "officename": "Pairi BO",
        "officetype": "BO",
        "delivery": "Delivery",
        "divisionname": "Durg Division",
        "regionname": "DivReportingCircle",
        "circlename": "Chattisgarh Circle",
        "latitude": "20.866766999999999",
        "longitude": "81.254637000000002"
      },
      {
        "officename": "Palari BO",
        "officetype": "BO",
        "delivery": "Delivery",
        "divisionname": "Durg Division",
        "regionname": "DivReportingCircle",
        "circlename": "Chattisgarh Circle",
        "latitude": "20.817038",
        "longitude": "81.499288000000007"
      },
      {
        "officename": "Arkar BO",
        "officetype": "BO",
        "delivery": "Delivery",
        "divisionname": "Durg Division",
        "regionname": "DivReportingCircle",
        "circlename": "Chattisgarh Circle",
        "latitude": "20.851845000000001",
        "longitude": "81.467823999999993"
      },
      {
        "officename": "Batrel BO",
        "officetype": "BO",
        "delivery": "Delivery",
        "divisionname": "Durg Division",
        "regionname": "DivReportingCircle",
        "circlename": "Chattisgarh Circle",
        "latitude": "20.898506999999999",
        "longitude": "81.414162000000005"
      },
      {
        "officename": "Hardi BO",
        "officetype": "BO",
        "delivery": "Delivery",
        "divisionname": "Durg Division",
        "regionname": "DivReportingCircle",
        "circlename": "Chattisgarh Circle",
        "latitude": "20.820595000000001",
        "longitude": "81.334440999999998"
      },
      {
        "officename": "Mohara BO",
        "officetype": "BO",
        "delivery": "Delivery",
        "divisionname": "Durg Division",
        "regionname": "DivReportingCircle",
        "circlename": "Chattisgarh Circle",
        "latitude": "21.0001",
        "longitude": "81.000100000000003"
      },
      {
        "officename": "Charbhatha",
        "officetype": "BO",
        "delivery": "Delivery",
        "divisionname": "Durg Division",
        "regionname": "DivReportingCircle",
        "circlename": "Chattisgarh Circle",
        "latitude": "21.307963999999998",
        "longitude": "81.158210999999994"
      },
      {
        "officename": "Parsada BO",
        "officetype": "BO",
        "delivery": "Delivery",
        "divisionname": "Durg Division",
        "regionname": "DivReportingCircle",
        "circlename": "Chattisgarh Circle",
        "latitude": "21.379373000000001",
        "longitude": "81.337191000000004"
      }
    ]
  },
  "491223": {
    "state": "CHHATTISGARH",
    "district": "BALOD",
    "offices": [
      {
        "officename": "Achaud BO",
        "officetype": "BO",
        "delivery": "Delivery",
        "divisionname": "Durg Division",
        "regionname": "DivReportingCircle",
        "circlename": "Chattisgarh Circle",
        "latitude": "20.988111",
        "longitude": "81.370187999999999"
      },
      {
        "officename": "Belhari BO",
        "officetype": "BO",
        "delivery": "Delivery",
        "divisionname": "Durg Division",
        "regionname": "DivReportingCircle",
        "circlename": "Chattisgarh Circle",
        "latitude": "20.900713",
        "longitude": "81.458110000000005"
      },
      {
        "officename": "Dhamna BO",
        "officetype": "BO",
        "delivery": "Delivery",
        "divisionname": "Durg Division",
        "regionname": "DivReportingCircle",
        "circlename": "Chattisgarh Circle",
        "latitude": "20.917348",
        "longitude": "81.436138999999997"
      },
      {
        "officename": "Kalangpur BO",
        "officetype": "BO",
        "delivery": "Delivery",
        "divisionname": "Durg Division",
        "regionname": "DivReportingCircle",
        "circlename": "Chattisgarh Circle",
        "latitude": "20.905595000000002",
        "longitude": "81.335127999999997"
      },
      {
        "officename": "Bhatagaon BO",
        "officetype": "BO",
        "delivery": "Delivery",
        "divisionname": "Durg Division",
        "regionname": "DivReportingCircle",
        "circlename": "Chattisgarh Circle",
        "latitude": "20.92473",
        "longitude": "81.348191999999997"
      },
      {
        "officename": "Ranchirai BO",
        "officetype": "BO",
        "delivery": "Delivery",
        "divisionname": "Durg Division",
        "regionname": "DivReportingCircle",
        "circlename": "Chattisgarh Circle",
        "latitude": "20.985896",
        "longitude": "81.410039999999995"
      },
      {
        "officename": "Ranitarai BO",
        "officetype": "BO",
        "delivery": "Delivery",
        "divisionname": "Durg Division",
        "regionname": "DivReportingCircle",
        "circlename": "Chattisgarh Circle",
        "latitude": "20.995949",
        "longitude": "81.054074999999997"
      },
      {
        "officename": "Gunderdehi SO",
        "officetype": "PO",
        "delivery": "Delivery",
        "divisionname": "Durg Division",
        "regionname": "DivReportingCircle",
        "circlename": "Chattisgarh Circle",
        "latitude": "21.453066",
        "longitude": "81.336675"
      },
      {
        "officename": "Gorkapar BO",
        "officetype": "BO",
        "delivery": "Delivery",
        "divisionname": "Durg Division",
        "regionname": "DivReportingCircle",
        "circlename": "Chattisgarh Circle",
        "latitude": "21.030284999999999",
        "longitude": "81.216081000000003"
      },
      {
        "officename": "Jamgaon R BO",
        "officetype": "BO",
        "delivery": "Delivery",
        "divisionname": "Durg Division",
        "regionname": "DivReportingCircle",
        "circlename": "Chattisgarh Circle",
        "latitude": "20.953133999999999",
        "longitude": "81.435261999999994"
      },
      {
        "officename": "Karela BO",
        "officetype": "BO",
        "delivery": "Delivery",
        "divisionname": "Durg Division",
        "regionname": "DivReportingCircle",
        "circlename": "Chattisgarh Circle",
        "latitude": "20.949660000000002",
        "longitude": "81.491055000000003"
      },
      {
        "officename": "Kasaunda BO",
        "officetype": "BO",
        "delivery": "Delivery",
        "divisionname": "Durg Division",
        "regionname": "DivReportingCircle",
        "circlename": "Chattisgarh Circle",
        "latitude": "20.394589499999999",
        "longitude": "81.289861000000002"
      },
      {
        "officename": "Nipani Tipani BO",
        "officetype": "BO",
        "delivery": "Delivery",
        "divisionname": "Durg Division",
        "regionname": "DivReportingCircle",
        "circlename": "Chattisgarh Circle",
        "latitude": "20.759796000000001",
        "longitude": "81.344753999999995"
      },
      {
        "officename": "Surpa BO",
        "officetype": "BO",
        "delivery": "Delivery",
        "divisionname": "Durg Division",
        "regionname": "DivReportingCircle",
        "circlename": "Chattisgarh Circle",
        "latitude": "20.934193",
        "longitude": "81.477328999999997"
      },
      {
        "officename": "Kachandur BO",
        "officetype": "BO",
        "delivery": "Delivery",
        "divisionname": "Durg Division",
        "regionname": "DivReportingCircle",
        "circlename": "Chattisgarh Circle",
        "latitude": "20.979486000000001",
        "longitude": "81.291797000000003"
      },
      {
        "officename": "Rahud BO",
        "officetype": "BO",
        "delivery": "Delivery",
        "divisionname": "Durg Division",
        "regionname": "DivReportingCircle",
        "circlename": "Chattisgarh Circle",
        "latitude": "20.999599",
        "longitude": "81.367439000000005"
      },
      {
        "officename": "Tavera BO",
        "officetype": "BO",
        "delivery": "Delivery",
        "divisionname": "Durg Division",
        "regionname": "DivReportingCircle",
        "circlename": "Chattisgarh Circle",
        "latitude": "20.959637000000001",
        "longitude": "81.337191000000004"
      }
    ]
  },
  "491225": {
    "state": "CHHATTISGARH",
    "district": "BALOD",
    "offices": [
      {
        "officename": "Chaurel BO",
        "officetype": "BO",
        "delivery": "Delivery",
        "divisionname": "Durg Division",
        "regionname": "DivReportingCircle",
        "circlename": "Chattisgarh Circle",
        "latitude": "20.871547",
        "longitude": "81.232607000000002"
      },
      {
        "officename": "Bhardakala BO",
        "officetype": "BO",
        "delivery": "Delivery",
        "divisionname": "Durg Division",
        "regionname": "DivReportingCircle",
        "circlename": "Chattisgarh Circle",
        "latitude": "20.993683999999998",
        "longitude": "81.147239999999996"
      },
      {
        "officename": "Dundera BO",
        "officetype": "BO",
        "delivery": "Delivery",
        "divisionname": "Durg Division",
        "regionname": "DivReportingCircle",
        "circlename": "Chattisgarh Circle",
        "latitude": "21.153866000000001",
        "longitude": "81.392865"
      },
      {
        "officename": "Kandul BO",
        "officetype": "BO",
        "delivery": "Delivery",
        "divisionname": "Durg Division",
        "regionname": "DivReportingCircle",
        "circlename": "Chattisgarh Circle",
        "latitude": "20.960760000000001",
        "longitude": "81.243622999999999"
      },
      {
        "officename": "Tirga BO",
        "officetype": "BO",
        "delivery": "Delivery",
        "divisionname": "Durg Division",
        "regionname": "DivReportingCircle",
        "circlename": "Chattisgarh Circle",
        "latitude": "21.085086",
        "longitude": "81.162345999999999"
      },
      {
        "officename": "Khursuni BO",
        "officetype": "BO",
        "delivery": "Delivery",
        "divisionname": "Durg Division",
        "regionname": "DivReportingCircle",
        "circlename": "Chattisgarh Circle",
        "latitude": "21.018492999999999",
        "longitude": "81.560029999999998"
      },
      {
        "officename": "Suregaon BO",
        "officetype": "BO",
        "delivery": "Delivery",
        "divisionname": "Durg Division",
        "regionname": "DivReportingCircle",
        "circlename": "Chattisgarh Circle",
        "latitude": "21.062874000000001",
        "longitude": "81.318624"
      },
      {
        "officename": "Arjunda SO",
        "officetype": "PO",
        "delivery": "Delivery",
        "divisionname": "Durg Division",
        "regionname": "DivReportingCircle",
        "circlename": "Chattisgarh Circle",
        "latitude": "21.097923999999999",
        "longitude": "81.036901999999998"
      },
      {
        "officename": "Gabdi BO",
        "officetype": "BO",
        "delivery": "Delivery",
        "divisionname": "Durg Division",
        "regionname": "DivReportingCircle",
        "circlename": "Chattisgarh Circle",
        "latitude": "21.014769999999999",
        "longitude": "81.202305999999993"
      },
      {
        "officename": "Hadgahan BO",
        "officetype": "BO",
        "delivery": "Delivery",
        "divisionname": "Durg Division",
        "regionname": "DivReportingCircle",
        "circlename": "Chattisgarh Circle",
        "latitude": "20.960760000000001",
        "longitude": "81.243622999999999"
      },
      {
        "officename": "Kasahi BO",
        "officetype": "BO",
        "delivery": "Delivery",
        "divisionname": "Durg Division",
        "regionname": "DivReportingCircle",
        "circlename": "Chattisgarh Circle",
        "latitude": "21.038630000000001",
        "longitude": "81.496544"
      }
    ]
  },
  "491226": {
    "state": "CHHATTISGARH",
    "district": "BALOD",
    "offices": [
      {
        "officename": "Admabad BO",
        "officetype": "BO",
        "delivery": "Delivery",
        "divisionname": "Durg Division",
        "regionname": "DivReportingCircle",
        "circlename": "Chattisgarh Circle",
        "latitude": "20.7060280",
        "longitude": "81.2358760"
      },
      {
        "officename": "Badbhum BO",
        "officetype": "BO",
        "delivery": "Delivery",
        "divisionname": "Durg Division",
        "regionname": "DivReportingCircle",
        "circlename": "Chattisgarh Circle",
        "latitude": "20.5805560",
        "longitude": "81.3206870"
      },
      {
        "officename": "Beloda BO",
        "officetype": "BO",
        "delivery": "Delivery",
        "divisionname": "Durg Division",
        "regionname": "DivReportingCircle",
        "circlename": "Chattisgarh Circle",
        "latitude": "20.5841850",
        "longitude": "81.2608310"
      },
      {
        "officename": "KOBA",
        "officetype": "BO",
        "delivery": "Delivery",
        "divisionname": "Durg Division",
        "regionname": "DivReportingCircle",
        "circlename": "Chattisgarh Circle",
        "latitude": "20.8352140",
        "longitude": "81.1582110"
      },
      {
        "officename": "Sankra J BO",
        "officetype": "BO",
        "delivery": "Delivery",
        "divisionname": "Durg Division",
        "regionname": "DivReportingCircle",
        "circlename": "Chattisgarh Circle",
        "latitude": "20.6854010",
        "longitude": "81.2759720"
      },
      {
        "officename": "CHICHBOD B.O.",
        "officetype": "BO",
        "delivery": "Delivery",
        "divisionname": "Durg Division",
        "regionname": "DivReportingCircle",
        "circlename": "Chattisgarh Circle",
        "latitude": "20.719696299999999",
        "longitude": "81.271326599999995"
      },
      {
        "officename": "Bhaisbod BO",
        "officetype": "BO",
        "delivery": "Delivery",
        "divisionname": "Durg Division",
        "regionname": "DivReportingCircle",
        "circlename": "Chattisgarh Circle",
        "latitude": "20.6978260",
        "longitude": "81.1147810"
      },
      {
        "officename": "Gujra BO",
        "officetype": "BO",
        "delivery": "Delivery",
        "divisionname": "Durg Division",
        "regionname": "DivReportingCircle",
        "circlename": "Chattisgarh Circle",
        "latitude": "20.6691440",
        "longitude": "81.1313280"
      },
      {
        "officename": "Jamrua BO",
        "officetype": "BO",
        "delivery": "Delivery",
        "divisionname": "Durg Division",
        "regionname": "DivReportingCircle",
        "circlename": "Chattisgarh Circle",
        "latitude": "20.6983470",
        "longitude": "81.2690900"
      },
      {
        "officename": "Latabod BO",
        "officetype": "BO",
        "delivery": "Delivery",
        "divisionname": "Durg Division",
        "regionname": "DivReportingCircle",
        "circlename": "Chattisgarh Circle",
        "latitude": "20.7868910",
        "longitude": "81.2531510"
      },
      {
        "officename": "Singhola BO",
        "officetype": "BO",
        "delivery": "Delivery",
        "divisionname": "Durg Division",
        "regionname": "DivReportingCircle",
        "circlename": "Chattisgarh Circle",
        "latitude": "20.5642930",
        "longitude": "81.2326070"
      },
      {
        "officename": "Taraud BO",
        "officetype": "BO",
        "delivery": "Delivery",
        "divisionname": "Durg Division",
        "regionname": "DivReportingCircle",
        "circlename": "Chattisgarh Circle",
        "latitude": "20.7617870",
        "longitude": "81.1664810"
      },
      {
        "officename": "Belmond BO",
        "officetype": "BO",
        "delivery": "Delivery",
        "divisionname": "Durg Division",
        "regionname": "DivReportingCircle",
        "circlename": "Chattisgarh Circle",
        "latitude": "20.7550480",
        "longitude": "81.2656490"
      },
      {
        "officename": "KORGUDA B.O.",
        "officetype": "BO",
        "delivery": "Delivery",
        "divisionname": "Durg Division",
        "regionname": "DivReportingCircle",
        "circlename": "Chattisgarh Circle",
        "latitude": "20.770832800000001",
        "longitude": "81.123572100000004"
      },
      {
        "officename": "Balod Town SO",
        "officetype": "PO",
        "delivery": "Non Delivery",
        "divisionname": "Durg Division",
        "regionname": "DivReportingCircle",
        "circlename": "Chattisgarh Circle",
        "latitude": "20.7200000",
        "longitude": "81.2000000"
      },
      {
        "officename": "Pond BO",
        "officetype": "BO",
        "delivery": "Delivery",
        "divisionname": "Durg Division",
        "regionname": "DivReportingCircle",
        "circlename": "Chattisgarh Circle",
        "latitude": "20.5484000",
        "longitude": "81.3866810"
      },
      {
        "officename": "BHEDIA NAVAGAON B.O.",
        "officetype": "BO",
        "delivery": "Delivery",
        "divisionname": "Durg Division",
        "regionname": "DivReportingCircle",
        "circlename": "Chattisgarh Circle",
        "latitude": "20.763617199999999",
        "longitude": "81.307103400000003"
      },
      {
        "officename": "BHOINAPAR B.O.",
        "officetype": "BO",
        "delivery": "Delivery",
        "divisionname": "Durg Division",
        "regionname": "DivReportingCircle",
        "circlename": "Chattisgarh Circle",
        "latitude": "20.803481999999999",
        "longitude": "81.278952000000004"
      },
      {
        "officename": "Balod SO",
        "officetype": "PO",
        "delivery": "Delivery",
        "divisionname": "Durg Division",
        "regionname": "DivReportingCircle",
        "circlename": "Chattisgarh Circle",
        "latitude": "21.0694701",
        "longitude": "81.275553599999995"
      },
      {
        "officename": "Baghmara BO",
        "officetype": "BO",
        "delivery": "Delivery",
        "divisionname": "Durg Division",
        "regionname": "DivReportingCircle",
        "circlename": "Chattisgarh Circle",
        "latitude": "20.7471720",
        "longitude": "81.2270990"
      },
      {
        "officename": "Dudhli BO",
        "officetype": "BO",
        "delivery": "Delivery",
        "divisionname": "Durg Division",
        "regionname": "DivReportingCircle",
        "circlename": "Chattisgarh Circle",
        "latitude": "20.7682480",
        "longitude": "81.1485620"
      },
      {
        "officename": "Khapri BO",
        "officetype": "BO",
        "delivery": "Delivery",
        "divisionname": "Durg Division",
        "regionname": "DivReportingCircle",
        "circlename": "Chattisgarh Circle",
        "latitude": "20.7773320",
        "longitude": "81.1671700"
      },
      {
        "officename": "Newarikala BO",
        "officetype": "BO",
        "delivery": "Delivery",
        "divisionname": "Durg Division",
        "regionname": "DivReportingCircle",
        "circlename": "Chattisgarh Circle",
        "latitude": "20.7750090",
        "longitude": "81.2518830"
      },
      {
        "officename": "Tekapar BO",
        "officetype": "BO",
        "delivery": "Delivery",
        "divisionname": "Durg Division",
        "regionname": "DivReportingCircle",
        "circlename": "Chattisgarh Circle",
        "latitude": "20.7781240",
        "longitude": "81.2546370"
      },
      {
        "officename": "KOHANGATOLA B.O.",
        "officetype": "BO",
        "delivery": "Delivery",
        "divisionname": "Durg Division",
        "regionname": "DivReportingCircle",
        "circlename": "Chattisgarh Circle",
        "latitude": "20.45393876",
        "longitude": "81.110866759999993"
      }
    ]
  },
  "491227": {
    "state": "CHHATTISGARH",
    "district": "BALOD",
    "offices": [
      {
        "officename": "Chitod BO",
        "officetype": "BO",
        "delivery": "Delivery",
        "divisionname": "Durg Division",
        "regionname": "DivReportingCircle",
        "circlename": "Chattisgarh Circle",
        "latitude": "20.6851540",
        "longitude": "81.4031710"
      },
      {
        "officename": "Darra BO",
        "officetype": "BO",
        "delivery": "Delivery",
        "divisionname": "Durg Division",
        "regionname": "DivReportingCircle",
        "circlename": "Chattisgarh Circle",
        "latitude": "20.7233580",
        "longitude": "81.4581100"
      },
      {
        "officename": "Fagundah BO",
        "officetype": "BO",
        "delivery": "Delivery",
        "divisionname": "Durg Division",
        "regionname": "DivReportingCircle",
        "circlename": "Chattisgarh Circle",
        "latitude": "20.6851540",
        "longitude": "81.4031710"
      },
      {
        "officename": "Limora BO",
        "officetype": "BO",
        "delivery": "Delivery",
        "divisionname": "Durg Division",
        "regionname": "DivReportingCircle",
        "circlename": "Chattisgarh Circle",
        "latitude": "20.6851540",
        "longitude": "81.4031710"
      },
      {
        "officename": "BAGTARAI B.O.",
        "officetype": "BO",
        "delivery": "Delivery",
        "divisionname": "Durg Division",
        "regionname": "DivReportingCircle",
        "circlename": "Chattisgarh Circle",
        "latitude": "20.705350899999999",
        "longitude": "81.507298000000006"
      },
      {
        "officename": "DARGAHAN B.O.",
        "officetype": "BO",
        "delivery": "Delivery",
        "divisionname": "Durg Division",
        "regionname": "DivReportingCircle",
        "circlename": "Chattisgarh Circle",
        "latitude": "20.664572499999998",
        "longitude": "81.419591400000002"
      },
      {
        "officename": "TENGNA (BARPARA) B.O.",
        "officetype": "BO",
        "delivery": "Delivery",
        "divisionname": "Durg Division",
        "regionname": "DivReportingCircle",
        "circlename": "Chattisgarh Circle",
        "latitude": "20.6722",
        "longitude": "81.366799999999998"
      },
      {
        "officename": "Basin BO",
        "officetype": "BO",
        "delivery": "Delivery",
        "divisionname": "Durg Division",
        "regionname": "DivReportingCircle",
        "circlename": "Chattisgarh Circle",
        "latitude": "20.7923760",
        "longitude": "81.4196570"
      },
      {
        "officename": "Jamgaon B BO",
        "officetype": "BO",
        "delivery": "Delivery",
        "divisionname": "Durg Division",
        "regionname": "DivReportingCircle",
        "circlename": "Chattisgarh Circle",
        "latitude": "19.8955610",
        "longitude": "82.6348390"
      },
      {
        "officename": "Mokha BO",
        "officetype": "BO",
        "delivery": "Delivery",
        "divisionname": "Durg Division",
        "regionname": "DivReportingCircle",
        "circlename": "Chattisgarh Circle",
        "latitude": "20.6851540",
        "longitude": "81.4031710"
      },
      {
        "officename": "Nipani BO",
        "officetype": "BO",
        "delivery": "Delivery",
        "divisionname": "Durg Division",
        "regionname": "DivReportingCircle",
        "circlename": "Chattisgarh Circle",
        "latitude": "20.7590000",
        "longitude": "81.3447540"
      },
      {
        "officename": "Sonai Dongri BO",
        "officetype": "BO",
        "delivery": "Delivery",
        "divisionname": "Durg Division",
        "regionname": "DivReportingCircle",
        "circlename": "Chattisgarh Circle",
        "latitude": "20.6851540",
        "longitude": "81.4031710"
      },
      {
        "officename": "Tarri BO",
        "officetype": "BO",
        "delivery": "Delivery",
        "divisionname": "Durg Division",
        "regionname": "DivReportingCircle",
        "circlename": "Chattisgarh Circle",
        "latitude": "20.7024210",
        "longitude": "81.3791220"
      },
      {
        "officename": "Gurur SO",
        "officetype": "PO",
        "delivery": "Delivery",
        "divisionname": "Durg Division",
        "regionname": "DivReportingCircle",
        "circlename": "Chattisgarh Circle",
        "latitude": "20.791111000000001",
        "longitude": "81.054626999999996"
      },
      {
        "officename": "Balod Gahan BO",
        "officetype": "BO",
        "delivery": "Delivery",
        "divisionname": "Durg Division",
        "regionname": "DivReportingCircle",
        "circlename": "Chattisgarh Circle",
        "latitude": "20.6616990",
        "longitude": "81.4663470"
      },
      {
        "officename": "Karhi Bhadar BO",
        "officetype": "BO",
        "delivery": "Delivery",
        "divisionname": "Durg Division",
        "regionname": "DivReportingCircle",
        "circlename": "Chattisgarh Circle",
        "latitude": "20.6936850",
        "longitude": "81.3083070"
      },
      {
        "officename": "Naragaon BO",
        "officetype": "BO",
        "delivery": "Delivery",
        "divisionname": "Durg Division",
        "regionname": "DivReportingCircle",
        "circlename": "Chattisgarh Circle",
        "latitude": "20.6850380",
        "longitude": "81.4008320"
      },
      {
        "officename": "Shantipur BO",
        "officetype": "BO",
        "delivery": "Delivery",
        "divisionname": "Durg Division",
        "regionname": "DivReportingCircle",
        "circlename": "Chattisgarh Circle",
        "latitude": "23.2645400",
        "longitude": "88.4380970"
      },
      {
        "officename": "BHANPURI B.O.",
        "officetype": "BO",
        "delivery": "Delivery",
        "divisionname": "Durg Division",
        "regionname": "DivReportingCircle",
        "circlename": "Chattisgarh Circle",
        "latitude": "21.163",
        "longitude": "80.879999999999995"
      },
      {
        "officename": "Barhi BO",
        "officetype": "BO",
        "delivery": "Delivery",
        "divisionname": "Durg Division",
        "regionname": "DivReportingCircle",
        "circlename": "Chattisgarh Circle",
        "latitude": "20.6652680",
        "longitude": "81.3014280"
      },
      {
        "officename": "Kaneri BO",
        "officetype": "BO",
        "delivery": "Delivery",
        "divisionname": "Durg Division",
        "regionname": "DivReportingCircle",
        "circlename": "Chattisgarh Circle",
        "latitude": "20.6938020",
        "longitude": "81.4581100"
      },
      {
        "officename": "Sorar BO",
        "officetype": "BO",
        "delivery": "Delivery",
        "divisionname": "Durg Division",
        "regionname": "DivReportingCircle",
        "circlename": "Chattisgarh Circle",
        "latitude": "29.7395110",
        "longitude": "95.4718420"
      },
      {
        "officename": "PERPAR B.O.",
        "officetype": "BO",
        "delivery": "Delivery",
        "divisionname": "Durg Division",
        "regionname": "DivReportingCircle",
        "circlename": "Chattisgarh Circle",
        "latitude": "20.741873999999999",
        "longitude": "81.481408000000002"
      },
      {
        "officename": "Charwahi BO",
        "officetype": "BO",
        "delivery": "Delivery",
        "divisionname": "Durg Division",
        "regionname": "DivReportingCircle",
        "circlename": "Chattisgarh Circle",
        "latitude": "20.7812030",
        "longitude": "81.3151850"
      },
      {
        "officename": "Dhaneli BO",
        "officetype": "BO",
        "delivery": "Delivery",
        "divisionname": "Durg Division",
        "regionname": "DivReportingCircle",
        "circlename": "Chattisgarh Circle",
        "latitude": "20.7504480",
        "longitude": "81.4086660"
      },
      {
        "officename": "Kanwar BO",
        "officetype": "BO",
        "delivery": "Delivery",
        "divisionname": "Durg Division",
        "regionname": "DivReportingCircle",
        "circlename": "Chattisgarh Circle",
        "latitude": "20.6851540",
        "longitude": "81.4031710"
      },
      {
        "officename": "Khundini BO",
        "officetype": "BO",
        "delivery": "Delivery",
        "divisionname": "Durg Division",
        "regionname": "DivReportingCircle",
        "circlename": "Chattisgarh Circle",
        "latitude": "20.6851540",
        "longitude": "81.4031710"
      }
    ]
  },
  "491228": {
    "state": "CHHATTISGARH",
    "district": "BALOD",
    "offices": [
      {
        "officename": "Ghotia BO",
        "officetype": "BO",
        "delivery": "Delivery",
        "divisionname": "Durg Division",
        "regionname": "DivReportingCircle",
        "circlename": "Chattisgarh Circle",
        "latitude": "20.5902520",
        "longitude": "81.1768170"
      },
      {
        "officename": "Kusumkasa BO",
        "officetype": "BO",
        "delivery": "Delivery",
        "divisionname": "Durg Division",
        "regionname": "DivReportingCircle",
        "circlename": "Chattisgarh Circle",
        "latitude": "20.6407720",
        "longitude": "81.0823650"
      },
      {
        "officename": "GIDHALI B.O.",
        "officetype": "BO",
        "delivery": "Delivery",
        "divisionname": "Durg Division",
        "regionname": "DivReportingCircle",
        "circlename": "Chattisgarh Circle",
        "latitude": "20.673528000000001",
        "longitude": "81.086367999999993"
      },
      {
        "officename": "Bazar Dallirajhara SO",
        "officetype": "PO",
        "delivery": "Non Delivery",
        "divisionname": "Durg Division",
        "regionname": "DivReportingCircle",
        "circlename": "Chattisgarh Circle",
        "latitude": "20.5800000",
        "longitude": "81.0700000"
      },
      {
        "officename": "Bital BO",
        "officetype": "BO",
        "delivery": "Delivery",
        "divisionname": "Durg Division",
        "regionname": "DivReportingCircle",
        "circlename": "Chattisgarh Circle",
        "latitude": "20.6106270",
        "longitude": "81.0278470"
      },
      {
        "officename": "Khalari BO",
        "officetype": "BO",
        "delivery": "Delivery",
        "divisionname": "Durg Division",
        "regionname": "DivReportingCircle",
        "circlename": "Chattisgarh Circle",
        "latitude": "20.9156180",
        "longitude": "81.3230060"
      },
      {
        "officename": "RAJHI B.O.",
        "officetype": "BO",
        "delivery": "Delivery",
        "divisionname": "Durg Division",
        "regionname": "DivReportingCircle",
        "circlename": "Chattisgarh Circle",
        "latitude": "20.5793073",
        "longitude": "81.068048700000006"
      },
      {
        "officename": "Chipra BO",
        "officetype": "BO",
        "delivery": "Delivery",
        "divisionname": "Durg Division",
        "regionname": "DivReportingCircle",
        "circlename": "Chattisgarh Circle",
        "latitude": "20.6685290",
        "longitude": "81.0623560"
      },
      {
        "officename": "Narratola BO",
        "officetype": "BO",
        "delivery": "Delivery",
        "divisionname": "Durg Division",
        "regionname": "DivReportingCircle",
        "circlename": "Chattisgarh Circle",
        "latitude": "20.5343250",
        "longitude": "81.0940910"
      },
      {
        "officename": "Salhe BO",
        "officetype": "BO",
        "delivery": "Delivery",
        "divisionname": "Durg Division",
        "regionname": "DivReportingCircle",
        "circlename": "Chattisgarh Circle",
        "latitude": "20.9031110",
        "longitude": "81.9739830"
      },
      {
        "officename": "PATELI B.O.",
        "officetype": "BO",
        "delivery": "Delivery",
        "divisionname": "Durg Division",
        "regionname": "DivReportingCircle",
        "circlename": "Chattisgarh Circle",
        "latitude": "20.553252000000001",
        "longitude": "81.152777999999998"
      },
      {
        "officename": "Kondekasa BO",
        "officetype": "BO",
        "delivery": "Delivery",
        "divisionname": "Durg Division",
        "regionname": "DivReportingCircle",
        "circlename": "Chattisgarh Circle",
        "latitude": "20.5891260",
        "longitude": "81.0402720"
      },
      {
        "officename": "SINGANWAHI B.O.",
        "officetype": "BO",
        "delivery": "Delivery",
        "divisionname": "Durg Division",
        "regionname": "DivReportingCircle",
        "circlename": "Chattisgarh Circle",
        "latitude": "20.589880999999998",
        "longitude": "81.146670999999998"
      },
      {
        "officename": "Chikhlakasa BO",
        "officetype": "BO",
        "delivery": "Delivery",
        "divisionname": "Durg Division",
        "regionname": "DivReportingCircle",
        "circlename": "Chattisgarh Circle",
        "latitude": "20.5999160",
        "longitude": "81.0775350"
      },
      {
        "officename": "Dallirajhara SO",
        "officetype": "PO",
        "delivery": "Delivery",
        "divisionname": "Durg Division",
        "regionname": "DivReportingCircle",
        "circlename": "Chattisgarh Circle",
        "latitude": "21.187591000000001",
        "longitude": "81.314341999999996"
      }
    ]
  },
  "491229": {
    "state": "CHHATTISGARH",
    "district": "RAJNANDGAON",
    "offices": [
      {
        "officename": "Bharritola BO",
        "officetype": "BO",
        "delivery": "Delivery",
        "divisionname": "Rajnandgaon Division",
        "regionname": "DivReportingCircle",
        "circlename": "Chattisgarh Circle",
        "latitude": "20.4097063",
        "longitude": "80.8030217"
      },
      {
        "officename": "Ghotia BO",
        "officetype": "BO",
        "delivery": "Delivery",
        "divisionname": "Rajnandgaon Division",
        "regionname": "DivReportingCircle",
        "circlename": "Chattisgarh Circle",
        "latitude": "20.3402318",
        "longitude": "80.7269794"
      },
      {
        "officename": "Khadgaon BO",
        "officetype": "BO",
        "delivery": "Delivery",
        "divisionname": "Rajnandgaon Division",
        "regionname": "DivReportingCircle",
        "circlename": "Chattisgarh Circle",
        "latitude": "20.4945546",
        "longitude": "80.9186231"
      },
      {
        "officename": "Kumhari BO",
        "officetype": "BO",
        "delivery": "Delivery",
        "divisionname": "Rajnandgaon Division",
        "regionname": "DivReportingCircle",
        "circlename": "Chattisgarh Circle",
        "latitude": "20.3729660",
        "longitude": "80.7265590"
      },
      {
        "officename": "Sarkheda BO",
        "officetype": "BO",
        "delivery": "Delivery",
        "divisionname": "Rajnandgaon Division",
        "regionname": "DivReportingCircle",
        "circlename": "Chattisgarh Circle",
        "latitude": "20.3729670",
        "longitude": "80.7262255"
      },
      {
        "officename": "Seoni BO",
        "officetype": "BO",
        "delivery": "Delivery",
        "divisionname": "Rajnandgaon Division",
        "regionname": "DivReportingCircle",
        "circlename": "Chattisgarh Circle",
        "latitude": "21.8372500",
        "longitude": "81.5879500"
      },
      {
        "officename": "Tohe BO",
        "officetype": "BO",
        "delivery": "Delivery",
        "divisionname": "Rajnandgaon Division",
        "regionname": "DivReportingCircle",
        "circlename": "Chattisgarh Circle",
        "latitude": "20.3729630",
        "longitude": "80.7265620"
      },
      {
        "officename": "Koraldand BO",
        "officetype": "BO",
        "delivery": "Delivery",
        "divisionname": "Rajnandgaon Division",
        "regionname": "DivReportingCircle",
        "circlename": "Chattisgarh Circle",
        "latitude": "20.49408",
        "longitude": "80.81011"
      },
      {
        "officename": "Kadekasa BO",
        "officetype": "BO",
        "delivery": "Delivery",
        "divisionname": "Rajnandgaon Division",
        "regionname": "DivReportingCircle",
        "circlename": "Chattisgarh Circle",
        "latitude": "21.69623",
        "longitude": "80.95509"
      },
      {
        "officename": "Medha",
        "officetype": "BO",
        "delivery": "Delivery",
        "divisionname": "Rajnandgaon Division",
        "regionname": "NA",
        "circlename": "Chattisgarh Circle",
        "latitude": "20.383947",
        "longitude": "80.624193"
      },
      {
        "officename": "Aundhi BO",
        "officetype": "BO",
        "delivery": "Delivery",
        "divisionname": "Rajnandgaon Division",
        "regionname": "DivReportingCircle",
        "circlename": "Chattisgarh Circle",
        "latitude": "20.3729650",
        "longitude": "80.7265600"
      },
      {
        "officename": "Bhawsha BO",
        "officetype": "BO",
        "delivery": "Delivery",
        "divisionname": "Rajnandgaon Division",
        "regionname": "DivReportingCircle",
        "circlename": "Chattisgarh Circle",
        "latitude": "20.3729660",
        "longitude": "80.7265590"
      },
      {
        "officename": "Dokala BO",
        "officetype": "BO",
        "delivery": "Delivery",
        "divisionname": "Rajnandgaon Division",
        "regionname": "DivReportingCircle",
        "circlename": "Chattisgarh Circle",
        "latitude": "21.8372500",
        "longitude": "81.5879500"
      },
      {
        "officename": "Dighwadi BO",
        "officetype": "BO",
        "delivery": "Delivery",
        "divisionname": "Rajnandgaon Division",
        "regionname": "DivReportingCircle",
        "circlename": "Chattisgarh Circle",
        "latitude": "21.8372500",
        "longitude": "81.5879500"
      },
      {
        "officename": "Kandadi BO",
        "officetype": "BO",
        "delivery": "Delivery",
        "divisionname": "Rajnandgaon Division",
        "regionname": "DivReportingCircle",
        "circlename": "Chattisgarh Circle",
        "latitude": "21.8372500",
        "longitude": "81.5879500"
      },
      {
        "officename": "Kahgaon  BO",
        "officetype": "BO",
        "delivery": "Delivery",
        "divisionname": "Rajnandgaon Division",
        "regionname": "DivReportingCircle",
        "circlename": "Chattisgarh Circle",
        "latitude": "20.400547",
        "longitude": "80.8073259"
      },
      {
        "officename": "Salhe BO",
        "officetype": "BO",
        "delivery": "Delivery",
        "divisionname": "Rajnandgaon Division",
        "regionname": "DivReportingCircle",
        "circlename": "Chattisgarh Circle",
        "latitude": "20.9897101",
        "longitude": "80.8413935"
      },
      {
        "officename": "Markeli  BO",
        "officetype": "BO",
        "delivery": "Delivery",
        "divisionname": "Rajnandgaon Division",
        "regionname": "DivReportingCircle",
        "circlename": "Chattisgarh Circle",
        "latitude": "21.1006352",
        "longitude": "81.0350276"
      },
      {
        "officename": "Tumdikasa BO",
        "officetype": "BO",
        "delivery": "Delivery",
        "divisionname": "Rajnandgaon Division",
        "regionname": "DivReportingCircle",
        "circlename": "Chattisgarh Circle",
        "latitude": "21.69623",
        "longitude": "80.95509"
      },
      {
        "officename": "Bagdongri  BO",
        "officetype": "BO",
        "delivery": "Delivery",
        "divisionname": "Rajnandgaon Division",
        "regionname": "DivReportingCircle",
        "circlename": "Chattisgarh Circle",
        "latitude": "21.100635199999999",
        "longitude": "81.035027600000006"
      },
      {
        "officename": "Sambalpur",
        "officetype": "BO",
        "delivery": "Delivery",
        "divisionname": "Rajnandgaon Division",
        "regionname": "NA",
        "circlename": "Chattisgarh Circle",
        "latitude": "20.510262",
        "longitude": "80.884487"
      },
      {
        "officename": "Nedgaon BO",
        "officetype": "BO",
        "delivery": "Delivery",
        "divisionname": "Rajnandgaon Division",
        "regionname": "DivReportingCircle",
        "circlename": "Chattisgarh Circle",
        "latitude": "20.3919536",
        "longitude": "80.7803053"
      },
      {
        "officename": "Kaneli BO",
        "officetype": "BO",
        "delivery": "Delivery",
        "divisionname": "Rajnandgaon Division",
        "regionname": "DivReportingCircle",
        "circlename": "Chattisgarh Circle",
        "latitude": "21.1006352",
        "longitude": "81.0350276"
      },
      {
        "officename": "Navagaon  BO",
        "officetype": "BO",
        "delivery": "Delivery",
        "divisionname": "Rajnandgaon Division",
        "regionname": "DivReportingCircle",
        "circlename": "Chattisgarh Circle",
        "latitude": "21.69623",
        "longitude": "80.955089999999998"
      },
      {
        "officename": "Sharda",
        "officetype": "BO",
        "delivery": "Delivery",
        "divisionname": "Rajnandgaon Division",
        "regionname": "NA",
        "circlename": "Chattisgarh Circle",
        "latitude": "20.186902",
        "longitude": "80.501308"
      },
      {
        "officename": "Ghodagaon",
        "officetype": "BO",
        "delivery": "Delivery",
        "divisionname": "Rajnandgaon Division",
        "regionname": "NA",
        "circlename": "Chattisgarh Circle",
        "latitude": "20.417102",
        "longitude": "80.874048"
      },
      {
        "officename": "Baseli",
        "officetype": "BO",
        "delivery": "Delivery",
        "divisionname": "Rajnandgaon Division",
        "regionname": "NA",
        "circlename": "Chattisgarh Circle",
        "latitude": "20.303354",
        "longitude": "80.709702"
      },
      {
        "officename": "Teregaon BO",
        "officetype": "BO",
        "delivery": "Delivery",
        "divisionname": "Rajnandgaon Division",
        "regionname": "DivReportingCircle",
        "circlename": "Chattisgarh Circle",
        "latitude": "21.8372500",
        "longitude": "81.5879500"
      },
      {
        "officename": "Dorde B.O",
        "officetype": "BO",
        "delivery": "Delivery",
        "divisionname": "Rajnandgaon Division",
        "regionname": "DivReportingCircle",
        "circlename": "Chattisgarh Circle",
        "latitude": "20.231695999999999",
        "longitude": "80.706202000000005"
      },
      {
        "officename": "Morchul  BO",
        "officetype": "BO",
        "delivery": "Delivery",
        "divisionname": "Rajnandgaon Division",
        "regionname": "DivReportingCircle",
        "circlename": "Chattisgarh Circle",
        "latitude": "21.1006352",
        "longitude": "81.0350276"
      },
      {
        "officename": "Mokasa BO",
        "officetype": "BO",
        "delivery": "Delivery",
        "divisionname": "Rajnandgaon Division",
        "regionname": "DivReportingCircle",
        "circlename": "Chattisgarh Circle",
        "latitude": "21.1006352",
        "longitude": "81.0350276"
      },
      {
        "officename": "Muchar",
        "officetype": "BO",
        "delivery": "Delivery",
        "divisionname": "Rajnandgaon Division",
        "regionname": "NA",
        "circlename": "Chattisgarh Circle",
        "latitude": "20.253738",
        "longitude": "80.651851"
      },
      {
        "officename": "Hathra",
        "officetype": "BO",
        "delivery": "Delivery",
        "divisionname": "Rajnandgaon Division",
        "regionname": "NA",
        "circlename": "Chattisgarh Circle",
        "latitude": "20.494944",
        "longitude": "80.867679"
      },
      {
        "officename": "Sudiyal",
        "officetype": "BO",
        "delivery": "Delivery",
        "divisionname": "Rajnandgaon Division",
        "regionname": "NA",
        "circlename": "Chattisgarh Circle",
        "latitude": "20.409455",
        "longitude": "80.695696"
      },
      {
        "officename": "Nawagaon BO",
        "officetype": "BO",
        "delivery": "Delivery",
        "divisionname": "Rajnandgaon Division",
        "regionname": "DivReportingCircle",
        "circlename": "Chattisgarh Circle",
        "latitude": "20.3729670",
        "longitude": "80.7265580"
      },
      {
        "officename": "Sitagaon BO",
        "officetype": "BO",
        "delivery": "Delivery",
        "divisionname": "Rajnandgaon Division",
        "regionname": "DivReportingCircle",
        "circlename": "Chattisgarh Circle",
        "latitude": "20.3729670",
        "longitude": "80.7265580"
      },
      {
        "officename": "Fulkodo BO",
        "officetype": "BO",
        "delivery": "Delivery",
        "divisionname": "Rajnandgaon Division",
        "regionname": "DivReportingCircle",
        "circlename": "Chattisgarh Circle",
        "latitude": "20.4387625",
        "longitude": "80.8045568"
      },
      {
        "officename": "Chichwahi",
        "officetype": "BO",
        "delivery": "Delivery",
        "divisionname": "Rajnandgaon Division",
        "regionname": "NA",
        "circlename": "Chattisgarh Circle",
        "latitude": "20.222354",
        "longitude": "80.486275"
      },
      {
        "officename": "Madanwada",
        "officetype": "BO",
        "delivery": "Delivery",
        "divisionname": "Rajnandgaon Division",
        "regionname": "NA",
        "circlename": "Chattisgarh Circle",
        "latitude": "20.601047",
        "longitude": "80.635987"
      },
      {
        "officename": "Kosmi BO",
        "officetype": "BO",
        "delivery": "Delivery",
        "divisionname": "Rajnandgaon Division",
        "regionname": "DivReportingCircle",
        "circlename": "Chattisgarh Circle",
        "latitude": "20.5258833",
        "longitude": "80.9456553"
      },
      {
        "officename": "Saroli BO",
        "officetype": "BO",
        "delivery": "Delivery",
        "divisionname": "Rajnandgaon Division",
        "regionname": "DivReportingCircle",
        "circlename": "Chattisgarh Circle",
        "latitude": "20.5516231",
        "longitude": "80.8737539"
      },
      {
        "officename": "Manpur SO",
        "officetype": "PO",
        "delivery": "Delivery",
        "divisionname": "Rajnandgaon Division",
        "regionname": "DivReportingCircle",
        "circlename": "Chattisgarh Circle",
        "latitude": "22.006309999999999",
        "longitude": "81.219003999999998"
      }
    ]
  },
  "491230": {
    "state": "CHHATTISGARH",
    "district": "BALOD",
    "offices": [
      {
        "officename": "CHIHARO B.O.",
        "officetype": "BO",
        "delivery": "Delivery",
        "divisionname": "Durg Division",
        "regionname": "DivReportingCircle",
        "circlename": "Chattisgarh Circle",
        "latitude": "20.271000000000001",
        "longitude": "81.131900000000002"
      },
      {
        "officename": "Mahamaya Mines",
        "officetype": "BO",
        "delivery": "Delivery",
        "divisionname": "Durg Division",
        "regionname": "DivReportingCircle",
        "circlename": "Chattisgarh Circle",
        "latitude": "20.4853110",
        "longitude": "81.9884890"
      },
      {
        "officename": "Dondi SO",
        "officetype": "PO",
        "delivery": "Delivery",
        "divisionname": "Durg Division",
        "regionname": "DivReportingCircle",
        "circlename": "Chattisgarh Circle",
        "latitude": "21.215330000000002",
        "longitude": "81.352537999999996"
      },
      {
        "officename": "Amadula BO",
        "officetype": "BO",
        "delivery": "Delivery",
        "divisionname": "Durg Division",
        "regionname": "DivReportingCircle",
        "circlename": "Chattisgarh Circle",
        "latitude": "20.4644200",
        "longitude": "81.2436230"
      },
      {
        "officename": "Bharritola Bo",
        "officetype": "BO",
        "delivery": "Delivery",
        "divisionname": "Durg Division",
        "regionname": "DivReportingCircle",
        "circlename": "Chattisgarh Circle",
        "latitude": "20.7621810",
        "longitude": "81.8640700"
      },
      {
        "officename": "Gudum Bo",
        "officetype": "BO",
        "delivery": "Delivery",
        "divisionname": "Durg Division",
        "regionname": "DivReportingCircle",
        "circlename": "Chattisgarh Circle",
        "latitude": "20.4454550",
        "longitude": "81.0885730"
      },
      {
        "officename": "MATHENA B.O.",
        "officetype": "BO",
        "delivery": "Delivery",
        "divisionname": "Durg Division",
        "regionname": "DivReportingCircle",
        "circlename": "Chattisgarh Circle",
        "latitude": "20.295999999999999",
        "longitude": "81.132900000000006"
      },
      {
        "officename": "Surdongar",
        "officetype": "BO",
        "delivery": "Delivery",
        "divisionname": "Durg Division",
        "regionname": "DivReportingCircle",
        "circlename": "Chattisgarh Circle",
        "latitude": "20.4807620",
        "longitude": "81.1582110"
      },
      {
        "officename": "Themabujurg BO",
        "officetype": "BO",
        "delivery": "Delivery",
        "divisionname": "Durg Division",
        "regionname": "DivReportingCircle",
        "circlename": "Chattisgarh Circle",
        "latitude": "20.5831180",
        "longitude": "81.0809850"
      },
      {
        "officename": "Kotagaon BO",
        "officetype": "BO",
        "delivery": "Delivery",
        "divisionname": "Durg Division",
        "regionname": "DivReportingCircle",
        "circlename": "Chattisgarh Circle",
        "latitude": "20.5831180",
        "longitude": "81.0809850"
      }
    ]
  },
  "491331": {
    "state": "CHHATTISGARH",
    "district": "DURG",
    "offices": [
      {
        "officename": "Barhapur BO",
        "officetype": "BO",
        "delivery": "Delivery",
        "divisionname": "Durg Division",
        "regionname": "DivReportingCircle",
        "circlename": "Chattisgarh Circle",
        "latitude": "21.4601290",
        "longitude": "81.2842290"
      },
      {
        "officename": "Gadadih BO",
        "officetype": "BO",
        "delivery": "Delivery",
        "divisionname": "Durg Division",
        "regionname": "DivReportingCircle",
        "circlename": "Chattisgarh Circle",
        "latitude": "21.5463350",
        "longitude": "81.2330930"
      },
      {
        "officename": "Ghotwani BO",
        "officetype": "BO",
        "delivery": "Delivery",
        "divisionname": "Durg Division",
        "regionname": "DivReportingCircle",
        "circlename": "Chattisgarh Circle",
        "latitude": "21.6699450",
        "longitude": "81.3536910"
      },
      {
        "officename": "Kareli BO",
        "officetype": "BO",
        "delivery": "Delivery",
        "divisionname": "Durg Division",
        "regionname": "DivReportingCircle",
        "circlename": "Chattisgarh Circle",
        "latitude": "21.4540120",
        "longitude": "81.4663470"
      },
      {
        "officename": "Raunda BO",
        "officetype": "BO",
        "delivery": "Delivery",
        "divisionname": "Durg Division",
        "regionname": "DivReportingCircle",
        "circlename": "Chattisgarh Circle",
        "latitude": "21.4187930",
        "longitude": "81.3592050"
      },
      {
        "officename": "Dhamdha SO",
        "officetype": "PO",
        "delivery": "Delivery",
        "divisionname": "Durg Division",
        "regionname": "DivReportingCircle",
        "circlename": "Chattisgarh Circle",
        "latitude": "21.184317",
        "longitude": "81.341379000000003"
      },
      {
        "officename": "Bhatagaon BO",
        "officetype": "BO",
        "delivery": "Delivery",
        "divisionname": "Durg Division",
        "regionname": "DivReportingCircle",
        "circlename": "Chattisgarh Circle",
        "latitude": "21.5736760",
        "longitude": "81.5514150"
      },
      {
        "officename": "Deori BO",
        "officetype": "BO",
        "delivery": "Delivery",
        "divisionname": "Durg Division",
        "regionname": "DivReportingCircle",
        "circlename": "Chattisgarh Circle",
        "latitude": "21.5629580",
        "longitude": "81.5733530"
      },
      {
        "officename": "Deokar BO",
        "officetype": "BO",
        "delivery": "Delivery",
        "divisionname": "Durg Division",
        "regionname": "DivReportingCircle",
        "circlename": "Chattisgarh Circle",
        "latitude": "21.5667910",
        "longitude": "81.3172490"
      },
      {
        "officename": "Ghota BO",
        "officetype": "BO",
        "delivery": "Delivery",
        "divisionname": "Durg Division",
        "regionname": "DivReportingCircle",
        "circlename": "Chattisgarh Circle",
        "latitude": "21.8684190",
        "longitude": "81.7650300"
      },
      {
        "officename": "Pendrawan BO",
        "officetype": "BO",
        "delivery": "Delivery",
        "divisionname": "Durg Division",
        "regionname": "DivReportingCircle",
        "circlename": "Chattisgarh Circle",
        "latitude": "21.4709620",
        "longitude": "81.2355490"
      },
      {
        "officename": "Rajpur BO",
        "officetype": "BO",
        "delivery": "Delivery",
        "divisionname": "Durg Division",
        "regionname": "DivReportingCircle",
        "circlename": "Chattisgarh Circle",
        "latitude": "21.7140250",
        "longitude": "81.5356150"
      },
      {
        "officename": "Sahaspur BO",
        "officetype": "BO",
        "delivery": "Delivery",
        "divisionname": "Durg Division",
        "regionname": "DivReportingCircle",
        "circlename": "Chattisgarh Circle",
        "latitude": "21.5372710",
        "longitude": "81.2897330"
      },
      {
        "officename": "Parpodi BO",
        "officetype": "BO",
        "delivery": "Delivery",
        "divisionname": "Durg Division",
        "regionname": "DivReportingCircle",
        "circlename": "Chattisgarh Circle",
        "latitude": "21.5983500",
        "longitude": "81.2298580"
      }
    ]
  },
  "491332": {
    "state": "CHHATTISGARH",
    "district": "DURG",
    "offices": [
      {
        "officename": "Biroda BO",
        "officetype": "BO",
        "delivery": "Delivery",
        "divisionname": "Durg Division",
        "regionname": "DivReportingCircle",
        "circlename": "Chattisgarh Circle",
        "latitude": "21.7173440",
        "longitude": "81.5361410"
      },
      {
        "officename": "Dargaon BO",
        "officetype": "BO",
        "delivery": "Delivery",
        "divisionname": "Durg Division",
        "regionname": "DivReportingCircle",
        "circlename": "Chattisgarh Circle",
        "latitude": "21.4855430",
        "longitude": "81.3894300"
      },
      {
        "officename": "Kusmi BO",
        "officetype": "BO",
        "delivery": "Delivery",
        "divisionname": "Durg Division",
        "regionname": "DivReportingCircle",
        "circlename": "Chattisgarh Circle",
        "latitude": "21.5046800",
        "longitude": "81.5322150"
      },
      {
        "officename": "Lawatara BO",
        "officetype": "BO",
        "delivery": "Delivery",
        "divisionname": "Durg Division",
        "regionname": "DivReportingCircle",
        "circlename": "Chattisgarh Circle",
        "latitude": "21.5858060",
        "longitude": "81.4992880"
      },