{
  "360001": {
    "state": "GUJARAT",
    "district": "RAJKOT",
    "offices": [
      {
        "officename": "Rajkot Mochi Bazar SO",
        "officetype": "PO",
        "delivery": "Non Delivery",
        "divisionname": "Rajkot Division",
        "regionname": "Rajkot Region",
        "circlename": "Gujarat Circle",
        "latitude": "22.3026111",
        "longitude": "70.8034722"
      },
      {
        "officename": "Rajkot Jn Plot SO",
        "officetype": "PO",
        "delivery": "Non Delivery",
        "divisionname": "Rajkot Division",
        "regionname": "Rajkot Region",
        "circlename": "Gujarat Circle",
        "latitude": "22.3092500",
        "longitude": "70.7993333"
      },
      {
        "officename": "Rajkot Seva Sadan SO",
        "officetype": "PO",
        "delivery": "Non Delivery",
        "divisionname": "Rajkot Division",
        "regionname": "Rajkot Region",
        "circlename": "Gujarat Circle",
        "latitude": "22.3032222",
        "longitude": "70.7927778"
      },
      {
        "officename": "Rajkot Popatpara SO",
        "officetype": "PO",
        "delivery": "Non Delivery",
        "divisionname": "Rajkot Division",
        "regionname": "Rajkot Region",
        "circlename": "Gujarat Circle",
        "latitude": "22.327295",
        "longitude": "70.787529"
      },
      {
        "officename": "Rajkot City SO",
        "officetype": "PO",
        "delivery": "Non Delivery",
        "divisionname": "Rajkot Division",
        "regionname": "Rajkot Region",
        "circlename": "Gujarat Circle",
        "latitude": "22.2953889",
        "longitude": "70.8065000"
      },
      {
        "officename": "Rajkot D H College SO",
        "officetype": "PO",
        "delivery": "Non Delivery",
        "divisionname": "Rajkot Division",
        "regionname": "Rajkot Region",
        "circlename": "Gujarat Circle",
        "latitude": "22.2909444",
        "longitude": "70.7930000"
      },
      {
        "officename": "Rajkot HO",
        "officetype": "HO",
        "delivery": "Delivery",
        "divisionname": "Rajkot Division",
        "regionname": "Rajkot Region",
        "circlename": "Gujarat Circle",
        "latitude": "22.2986997",
        "longitude": "70.7996256"
      }
    ]
  },
  "360002": {
    "state": "GUJARAT",
    "district": "RAJKOT",
    "offices": [
      {
        "officename": "Rajkot Bhaktinagar SO",
        "officetype": "PO",
        "delivery": "Delivery",
        "divisionname": "Rajkot Division",
        "regionname": "Rajkot Region",
        "circlename": "Gujarat Circle",
        "latitude": "22.2810278",
        "longitude": "70.8031944"
      },
      {
        "officename": "Rajkot Udyognagar SO",
        "officetype": "PO",
        "delivery": "Non Delivery",
        "divisionname": "Rajkot Division",
        "regionname": "Rajkot Region",
        "circlename": "Gujarat Circle",
        "latitude": "22.2834167",
        "longitude": "70.7965556"
      },
      {
        "officename": "Kherdi BO",
        "officetype": "BO",
        "delivery": "Delivery",
        "divisionname": "Rajkot Division",
        "regionname": "Rajkot Region",
        "circlename": "Gujarat Circle",
        "latitude": "22.2842058",
        "longitude": "70.7908475"
      },
      {
        "officename": "Mahika BO",
        "officetype": "BO",
        "delivery": "Delivery",
        "divisionname": "Rajkot Division",
        "regionname": "Rajkot Region",
        "circlename": "Gujarat Circle",
        "latitude": "22.5200519",
        "longitude": "71.0108243"
      },
      {
        "officename": "Rajkot Sorathiawadi SO",
        "officetype": "PO",
        "delivery": "Non Delivery",
        "divisionname": "Rajkot Division",
        "regionname": "Rajkot Region",
        "circlename": "Gujarat Circle",
        "latitude": "22.2841389",
        "longitude": "70.8105556"
      },
      {
        "officename": "Rajkot Vivekanandnagar SO",
        "officetype": "PO",
        "delivery": "Non Delivery",
        "divisionname": "Rajkot Division",
        "regionname": "Rajkot Region",
        "circlename": "Gujarat Circle",
        "latitude": "22.2726944",
        "longitude": "70.8132778"
      }
    ]
  },
  "360003": {
    "state": "GUJARAT",
    "district": "RAJKOT",
    "offices": [
      {
        "officename": "Kagadadi BO",
        "officetype": "BO",
        "delivery": "Delivery",
        "divisionname": "Rajkot Division",
        "regionname": "Rajkot Region",
        "circlename": "Gujarat Circle",
        "latitude": "22.4596728",
        "longitude": "70.7826688"
      },
      {
        "officename": "Kotda Nayani BO",
        "officetype": "BO",
        "delivery": "Delivery",
        "divisionname": "Rajkot Division",
        "regionname": "Rajkot Region",
        "circlename": "Gujarat Circle",
        "latitude": "22.5033859",
        "longitude": "70.8033493"
      },
      {
        "officename": "PipaliyaA BO",
        "officetype": "BO",
        "delivery": "Delivery",
        "divisionname": "Rajkot Division",
        "regionname": "Rajkot Region",
        "circlename": "Gujarat Circle",
        "latitude": "22.4835865",
        "longitude": "70.8401953"
      },
      {
        "officename": "JaliyaDhrol BO",
        "officetype": "BO",
        "delivery": "Delivery",
        "divisionname": "Rajkot Division",
        "regionname": "Rajkot Region",
        "circlename": "Gujarat Circle",
        "latitude": "22.4596728",
        "longitude": "70.7826688"
      },
      {
        "officename": "Anandpar Navagam BO",
        "officetype": "BO",
        "delivery": "Delivery",
        "divisionname": "Rajkot Division",
        "regionname": "Rajkot Region",
        "circlename": "Gujarat Circle",
        "latitude": "22.3113023",
        "longitude": "70.8168562"
      },
      {
        "officename": "Khorana BO",
        "officetype": "BO",
        "delivery": "Delivery",
        "divisionname": "Rajkot Division",
        "regionname": "Rajkot Region",
        "circlename": "Gujarat Circle",
        "latitude": "22.4596728",
        "longitude": "70.7826688"
      },
      {
        "officename": "Maliyasan BO",
        "officetype": "BO",
        "delivery": "Delivery",
        "divisionname": "Rajkot Division",
        "regionname": "Rajkot Region",
        "circlename": "Gujarat Circle",
        "latitude": "22.3316911",
        "longitude": "70.8759526"
      },
      {
        "officename": "Rajkot Bedipara SO",
        "officetype": "PO",
        "delivery": "Delivery",
        "divisionname": "Rajkot Division",
        "regionname": "Rajkot Region",
        "circlename": "Gujarat Circle",
        "latitude": "22.3067222",
        "longitude": "70.8114444"
      },
      {
        "officename": "Gauridad BO",
        "officetype": "BO",
        "delivery": "Delivery",
        "divisionname": "Rajkot Division",
        "regionname": "Rajkot Region",
        "circlename": "Gujarat Circle",
        "latitude": "22.3475886",
        "longitude": "70.7465519"
      },
      {
        "officename": "Rajkot Marketing Yard SO",
        "officetype": "PO",
        "delivery": "Non Delivery",
        "divisionname": "Rajkot Division",
        "regionname": "Rajkot Region",
        "circlename": "Gujarat Circle",
        "latitude": "22.3009722",
        "longitude": "70.9521944"
      },
      {
        "officename": "AnandparMorbi BO",
        "officetype": "BO",
        "delivery": "Delivery",
        "divisionname": "Rajkot Division",
        "regionname": "Rajkot Region",
        "circlename": "Gujarat Circle",
        "latitude": "22.2747070",
        "longitude": "70.4168942"
      },
      {
        "officename": "Sanosara BO",
        "officetype": "BO",
        "delivery": "Delivery",
        "divisionname": "Rajkot Division",
        "regionname": "Rajkot Region",
        "circlename": "Gujarat Circle",
        "latitude": "22.3000627",
        "longitude": "71.0897928"
      }
    ]
  },
  "360004": {
    "state": "GUJARAT",
    "district": "RAJKOT",
    "offices": [
      {
        "officename": "Pal BO",
        "officetype": "BO",
        "delivery": "Delivery",
        "divisionname": "Rajkot Division",
        "regionname": "Rajkot Region",
        "circlename": "Gujarat Circle",
        "latitude": "22.2162950",
        "longitude": "70.7408699"
      },
      {
        "officename": "Vavdi BO",
        "officetype": "BO",
        "delivery": "Delivery",
        "divisionname": "Rajkot Division",
        "regionname": "Rajkot Region",
        "circlename": "Gujarat Circle",
        "latitude": "22.2381230",
        "longitude": "70.7890326"
      },
      {
        "officename": "Rajkot Postal Colony SO",
        "officetype": "PO",
        "delivery": "Delivery",
        "divisionname": "Rajkot Division",
        "regionname": "Rajkot Region",
        "circlename": "Gujarat Circle",
        "latitude": "22.2977778",
        "longitude": "70.7889722"
      },
      {
        "officename": "Rajkot Malviyanagar SO",
        "officetype": "PO",
        "delivery": "Non Delivery",
        "divisionname": "Rajkot Division",
        "regionname": "Rajkot Region",
        "circlename": "Gujarat Circle",
        "latitude": "22.265634",
        "longitude": "70.7335156"
      },
      {
        "officename": "Ravki BO",
        "officetype": "BO",
        "delivery": "Delivery",
        "divisionname": "Rajkot Division",
        "regionname": "Rajkot Region",
        "circlename": "Gujarat Circle",
        "latitude": "22.1918340",
        "longitude": "70.7231543"
      },
      {
        "officename": "Mavdi NDTSO",
        "officetype": "PO",
        "delivery": "Non Delivery",
        "divisionname": "Rajkot Division",
        "regionname": "Rajkot Region",
        "circlename": "Gujarat Circle",
        "latitude": "22.2585881",
        "longitude": "70.7811013"
      }
    ]
  },
  "360005": {
    "state": "GUJARAT",
    "district": "RAJKOT",
    "offices": [
      {
        "officename": "Kankot BO",
        "officetype": "BO",
        "delivery": "Delivery",
        "divisionname": "Rajkot Division",
        "regionname": "Rajkot Region",
        "circlename": "Gujarat Circle",
        "latitude": "22.2415520",
        "longitude": "70.7334603"
      },
      {
        "officename": "Rajkot Sau Uni Area SO",
        "officetype": "PO",
        "delivery": "Delivery",
        "divisionname": "Rajkot Division",
        "regionname": "Rajkot Region",
        "circlename": "Gujarat Circle",
        "latitude": "22.2757222",
        "longitude": "70.7548889"
      },
      {
        "officename": "Mota Mava SO",
        "officetype": "PO",
        "delivery": "Non Delivery",
        "divisionname": "Rajkot Division",
        "regionname": "Rajkot Region",
        "circlename": "Gujarat Circle",
        "latitude": "22.2665113",
        "longitude": "70.7421153"
      },
      {
        "officename": "Raiya NDT SO",
        "officetype": "PO",
        "delivery": "Non Delivery",
        "divisionname": "Rajkot Division",
        "regionname": "Rajkot Region",
        "circlename": "Gujarat Circle",
        "latitude": "22.299775",
        "longitude": "70.748198"
      }
    ]
  },
  "360006": {
    "state": "GUJARAT",
    "district": "RAJKOT",
    "offices": [
      {
        "officename": "Rajkot Bhomeswar NDT SO",
        "officetype": "PO",
        "delivery": "Non Delivery",
        "divisionname": "Rajkot Division",
        "regionname": "Rajkot Region",
        "circlename": "Gujarat Circle",
        "latitude": "22.3135000",
        "longitude": "70.7881666"
      },
      {
        "officename": "SRPF GrXIII  Ghanteshwar BO",
        "officetype": "BO",
        "delivery": "Delivery",
        "divisionname": "Rajkot Division",
        "regionname": "Rajkot Region",
        "circlename": "Gujarat Circle",
        "latitude": "22.3419421",
        "longitude": "70.7243734"
      },
      {
        "officename": "Rajkot Madhapar DSO",
        "officetype": "PO",
        "delivery": "Delivery",
        "divisionname": "Rajkot Division",
        "regionname": "Rajkot Region",
        "circlename": "Gujarat Circle",
        "latitude": "22.3135000",
        "longitude": "70.7881667"
      },
      {
        "officename": "Para  Pipaliya BO",
        "officetype": "BO",
        "delivery": "Delivery",
        "divisionname": "Rajkot Division",
        "regionname": "Rajkot Region",
        "circlename": "Gujarat Circle",
        "latitude": "22.3569496",
        "longitude": "70.7377804"
      }
    ]
  },
  "360007": {
    "state": "GUJARAT",
    "district": "RAJKOT",
    "offices": [
      {
        "officename": "Rajkot Raiya Road SO",
        "officetype": "PO",
        "delivery": "Delivery",
        "divisionname": "Rajkot Division",
        "regionname": "Rajkot Region",
        "circlename": "Gujarat Circle",
        "latitude": "22.2995278",
        "longitude": "70.7753889"
      }
    ]
  },
  "360020": {
    "state": "GUJARAT",
    "district": "RAJKOT",
    "offices": [
      {
        "officename": "Padasan BO",
        "officetype": "BO",
        "delivery": "Delivery",
        "divisionname": "Rajkot Division",
        "regionname": "Rajkot Region",
        "circlename": "Gujarat Circle",
        "latitude": "22.1822257",
        "longitude": "70.9208993"
      },
      {
        "officename": "Samadhiyala BO",
        "officetype": "BO",
        "delivery": "Delivery",
        "divisionname": "Rajkot Division",
        "regionname": "Rajkot Region",
        "circlename": "Gujarat Circle",
        "latitude": "22.1870410",
        "longitude": "70.9478893"
      },
      {
        "officename": "Kasturbadham SO",
        "officetype": "PO",
        "delivery": "Delivery",
        "divisionname": "Rajkot Division",
        "regionname": "Rajkot Region",
        "circlename": "Gujarat Circle",
        "latitude": "22.2269444",
        "longitude": "70.9098056"
      },
      {
        "officename": "Gadhaka BO",
        "officetype": "BO",
        "delivery": "Delivery",
        "divisionname": "Rajkot Division",
        "regionname": "Rajkot Region",
        "circlename": "Gujarat Circle",
        "latitude": "22.2563550",
        "longitude": "70.9541373"
      },
      {
        "officename": "Vadali BO",
        "officetype": "BO",
        "delivery": "Delivery",
        "divisionname": "Rajkot Division",
        "regionname": "Rajkot Region",
        "circlename": "Gujarat Circle",
        "latitude": "22.2097214",
        "longitude": "70.8945714"
      }
    ]
  },
  "360021": {
    "state": "GUJARAT",
    "district": "RAJKOT",
    "offices": [
      {
        "officename": "Devgam BO",
        "officetype": "BO",
        "delivery": "Delivery",
        "divisionname": "Rajkot Division",
        "regionname": "Rajkot Region",
        "circlename": "Gujarat Circle",
        "latitude": "22.2339605",
        "longitude": "70.6591631"
      },
      {
        "officename": "Mota Vada BO",
        "officetype": "BO",
        "delivery": "Delivery",
        "divisionname": "Rajkot Division",
        "regionname": "Rajkot Region",
        "circlename": "Gujarat Circle",
        "latitude": "22.2745534",
        "longitude": "70.5616011"
      },
      {
        "officename": "Rajkot Metoda Gidc SO",
        "officetype": "PO",
        "delivery": "Delivery",
        "divisionname": "Rajkot Division",
        "regionname": "Rajkot Region",
        "circlename": "Gujarat Circle",
        "latitude": "22.2959444",
        "longitude": "70.6731944"
      },
      {
        "officename": "Khirsara BO",
        "officetype": "BO",
        "delivery": "Delivery",
        "divisionname": "Rajkot Division",
        "regionname": "Rajkot Region",
        "circlename": "Gujarat Circle",
        "latitude": "22.2825437",
        "longitude": "70.4896226"
      },
      {
        "officename": "Nagar Pipaliya BO",
        "officetype": "BO",
        "delivery": "Delivery",
        "divisionname": "Rajkot Division",
        "regionname": "Rajkot Region",
        "circlename": "Gujarat Circle",
        "latitude": "22.2744297",
        "longitude": "70.5482293"
      },
      {
        "officename": "Dhulia Domda BO",
        "officetype": "BO",
        "delivery": "Delivery",
        "divisionname": "Rajkot Division",
        "regionname": "Rajkot Region",
        "circlename": "Gujarat Circle",
        "latitude": "22.2823949",
        "longitude": "70.5574753"
      }
    ]
  },
  "360022": {
    "state": "GUJARAT",
    "district": "RAJKOT",
    "offices": [
      {
        "officename": "Dholara BO",
        "officetype": "BO",
        "delivery": "Delivery",
        "divisionname": "Rajkot Division",
        "regionname": "Rajkot Region",
        "circlename": "Gujarat Circle",
        "latitude": "22.1927360",
        "longitude": "70.7729653"
      },
      {
        "officename": "KothariaTB Hosp BO",
        "officetype": "BO",
        "delivery": "Delivery",
        "divisionname": "Rajkot Division",
        "regionname": "Rajkot Region",
        "circlename": "Gujarat Circle",
        "latitude": "22.1929837",
        "longitude": "70.8013870"
      },
      {
        "officename": "KOTHARIA SO Rajkot",
        "officetype": "PO",
        "delivery": "Delivery",
        "divisionname": "Rajkot Division",
        "regionname": "Rajkot Region",
        "circlename": "Gujarat Circle",
        "latitude": "22.2986944",
        "longitude": "70.7997778"
      },
      {
        "officename": "Khokhaddad BO",
        "officetype": "BO",
        "delivery": "Delivery",
        "divisionname": "Rajkot Division",
        "regionname": "Rajkot Region",
        "circlename": "Gujarat Circle",
        "latitude": "22.1929837",
        "longitude": "70.8013874"
      }
    ]
  },
  "360023": {
    "state": "GUJARAT",
    "district": "RAJKOT",
    "offices": [
      {
        "officename": "Kuchiyadad BO",
        "officetype": "BO",
        "delivery": "Delivery",
        "divisionname": "Rajkot Division",
        "regionname": "Rajkot Region",
        "circlename": "Gujarat Circle",
        "latitude": "22.1935240",
        "longitude": "70.5912252"
      },
      {
        "officename": "Mesavada BO",
        "officetype": "BO",
        "delivery": "Delivery",
        "divisionname": "Rajkot Division",
        "regionname": "Rajkot Region",
        "circlename": "Gujarat Circle",
        "latitude": "22.1935240",
        "longitude": "70.5912252"
      },
      {
        "officename": "Magharvada BO",
        "officetype": "BO",
        "delivery": "Delivery",
        "divisionname": "Rajkot Division",
        "regionname": "Rajkot Region",
        "circlename": "Gujarat Circle",
        "latitude": "22.1935240",
        "longitude": "70.5912252"
      },
      {
        "officename": "Ziyana BO",
        "officetype": "BO",
        "delivery": "Delivery",
        "divisionname": "Rajkot Division",
        "regionname": "Rajkot Region",
        "circlename": "Gujarat Circle",
        "latitude": "22.4024989",
        "longitude": "70.9288953"
      },
      {
        "officename": "Rafala BO",
        "officetype": "BO",
        "delivery": "Delivery",
        "divisionname": "Rajkot Division",
        "regionname": "Rajkot Region",
        "circlename": "Gujarat Circle",
        "latitude": "22.1935240",
        "longitude": "70.5912252"
      },
      {
        "officename": "Targhadia BO",
        "officetype": "BO",
        "delivery": "Delivery",
        "divisionname": "Rajkot Division",
        "regionname": "Rajkot Region",
        "circlename": "Gujarat Circle",
        "latitude": "22.1935240",
        "longitude": "70.5912252"
      },
      {
        "officename": "KUVADAVA SO",
        "officetype": "PO",
        "delivery": "Delivery",
        "divisionname": "Rajkot Division",
        "regionname": "Rajkot Region",
        "circlename": "Gujarat Circle",
        "latitude": "22.3609167",
        "longitude": "70.9460000"
      }
    ]
  },
  "360024": {
    "state": "GUJARAT",
    "district": "RAJKOT",
    "offices": [
      {
        "officename": "Pardi BO",
        "officetype": "BO",
        "delivery": "Delivery",
        "divisionname": "Rajkot Division",
        "regionname": "Rajkot Region",
        "circlename": "Gujarat Circle",
        "latitude": "22.1852138",
        "longitude": "70.7973364"
      },
      {
        "officename": "Veraval Shapar SO",
        "officetype": "PO",
        "delivery": "Delivery",
        "divisionname": "Rajkot Division",
        "regionname": "Rajkot Region",
        "circlename": "Gujarat Circle",
        "latitude": "22.1647778",
        "longitude": "70.7954167"
      }
    ]
  },
  "360025": {
    "state": "GUJARAT",
    "district": "RAJKOT",
    "offices": [
      {
        "officename": "Dahisara BO",
        "officetype": "BO",
        "delivery": "Delivery",
        "divisionname": "Rajkot Division",
        "regionname": "Rajkot Region",
        "circlename": "Gujarat Circle",
        "latitude": "22.2385763",
        "longitude": "70.8225212"
      },
      {
        "officename": "Umrali BO",
        "officetype": "BO",
        "delivery": "Delivery",
        "divisionname": "Rajkot Division",
        "regionname": "Rajkot Region",
        "circlename": "Gujarat Circle",
        "latitude": "22.1468581",
        "longitude": "70.9971596"
      },
      {
        "officename": "Bogharavadar BO",
        "officetype": "BO",
        "delivery": "Delivery",
        "divisionname": "Rajkot Division",
        "regionname": "Rajkot Region",
        "circlename": "Gujarat Circle",
        "latitude": "22.2300000",
        "longitude": "71.0500000"
      },
      {
        "officename": "Gadhdiya BO",
        "officetype": "BO",
        "delivery": "Delivery",
        "divisionname": "Rajkot Division",
        "regionname": "Rajkot Region",
        "circlename": "Gujarat Circle",
        "latitude": "22.0951640",
        "longitude": "71.0648858"
      },
      {
        "officename": "Hadmatia BO",
        "officetype": "BO",
        "delivery": "Delivery",
        "divisionname": "Rajkot Division",
        "regionname": "Rajkot Region",
        "circlename": "Gujarat Circle",
        "latitude": "22.2186660",
        "longitude": "70.9337462"
      },
      {
        "officename": "Juna Rajpipala BO",
        "officetype": "BO",
        "delivery": "Delivery",
        "divisionname": "Rajkot Division",
        "regionname": "Rajkot Region",
        "circlename": "Gujarat Circle",
        "latitude": "22.0579900",
        "longitude": "70.9725143"
      },
      {
        "officename": "Kamalapur BO",
        "officetype": "BO",
        "delivery": "Delivery",
        "divisionname": "Rajkot Division",
        "regionname": "Rajkot Region",
        "circlename": "Gujarat Circle",
        "latitude": "22.0579900",
        "longitude": "71.1980000"
      },
      {
        "officename": "Sardhar SO",
        "officetype": "PO",
        "delivery": "Delivery",
        "divisionname": "Rajkot Division",
        "regionname": "Rajkot Region",
        "circlename": "Gujarat Circle",
        "latitude": "22.1408889",
        "longitude": "70.9838056"
      },
      {
        "officename": "Bedla BO",
        "officetype": "BO",
        "delivery": "Delivery",
        "divisionname": "Rajkot Division",
        "regionname": "Rajkot Region",
        "circlename": "Gujarat Circle",
        "latitude": "22.2638903",
        "longitude": "71.0497536"
      },
      {
        "officename": "Bhandaria BO",
        "officetype": "BO",
        "delivery": "Delivery",
        "divisionname": "Rajkot Division",
        "regionname": "Rajkot Region",
        "circlename": "Gujarat Circle",
        "latitude": "22.1874230",
        "longitude": "71.0464513"
      },
      {
        "officename": "Halenda BO",
        "officetype": "BO",
        "delivery": "Delivery",
        "divisionname": "Rajkot Division",
        "regionname": "Rajkot Region",
        "circlename": "Gujarat Circle",
        "latitude": "22.0864648",
        "longitude": "71.0507509"
      },
      {
        "officename": "Bhupgadh BO",
        "officetype": "BO",
        "delivery": "Delivery",
        "divisionname": "Rajkot Division",
        "regionname": "Rajkot Region",
        "circlename": "Gujarat Circle",
        "latitude": "22.1850758",
        "longitude": "71.0143017"
      },
      {
        "officename": "Haripar BO",
        "officetype": "BO",
        "delivery": "Delivery",
        "divisionname": "Rajkot Division",
        "regionname": "Rajkot Region",
        "circlename": "Gujarat Circle",
        "latitude": "22.1006930",
        "longitude": "70.9757393"
      },
      {
        "officename": "Kharechiya BO",
        "officetype": "BO",
        "delivery": "Delivery",
        "divisionname": "Rajkot Division",
        "regionname": "Rajkot Region",
        "circlename": "Gujarat Circle",
        "latitude": "22.0579900",
        "longitude": "70.9725143"
      }
    ]
  },
  "360026": {
    "state": "GUJARAT",
    "district": "RAJKOT",
    "offices": [
      {
        "officename": "Sapar Veraval SO",
        "officetype": "PO",
        "delivery": "Delivery",
        "divisionname": "Rajkot Division",
        "regionname": "Rajkot Region",
        "circlename": "Gujarat Circle",
        "latitude": "22.1557200",
        "longitude": "70.7706884"
      }
    ]
  },
  "360028": {
    "state": "GUJARAT",
    "district": "RAJKOT",
    "offices": [
      {
        "officename": "Rajkot Bedi DSO",
        "officetype": "PO",
        "delivery": "Delivery",
        "divisionname": "Rajkot Division",
        "regionname": "Rajkot Region",
        "circlename": "Gujarat Circle",
        "latitude": "22.351554",
        "longitude": "70.802923"
      }
    ]
  },
  "360030": {
    "state": "GUJARAT",
    "district": "RAJKOT",
    "offices": [
      {
        "officename": "Kotda Sangani SO",
        "officetype": "PO",
        "delivery": "Delivery",
        "divisionname": "Gondal Division",
        "regionname": "Rajkot Region",
        "circlename": "Gujarat Circle",
        "latitude": "22.0455833",
        "longitude": "70.8656944"
      },
      {
        "officename": "Khareda BO",
        "officetype": "BO",
        "delivery": "Delivery",
        "divisionname": "Gondal Division",
        "regionname": "Rajkot Region",
        "circlename": "Gujarat Circle",
        "latitude": "22.0228590",
        "longitude": "70.8439550"
      },
      {
        "officename": "Manekwada BO",
        "officetype": "BO",
        "delivery": "Delivery",
        "divisionname": "Gondal Division",
        "regionname": "Rajkot Region",
        "circlename": "Gujarat Circle",
        "latitude": "21.4717510",
        "longitude": "70.8461840"
      },
      {
        "officename": "Ardoi BO",
        "officetype": "BO",
        "delivery": "Delivery",
        "divisionname": "Gondal Division",
        "regionname": "Rajkot Region",
        "circlename": "Gujarat Circle",
        "latitude": "22.1897273",
        "longitude": "71.3753812"
      },
      {
        "officename": "Bhadva BO",
        "officetype": "BO",
        "delivery": "Delivery",
        "divisionname": "Gondal Division",
        "regionname": "Rajkot Region",
        "circlename": "Gujarat Circle",
        "latitude": "22.0894910",
        "longitude": "70.9041510"
      },
      {
        "officename": "Rajapara BO",
        "officetype": "BO",
        "delivery": "Delivery",
        "divisionname": "Gondal Division",
        "regionname": "Rajkot Region",
        "circlename": "Gujarat Circle",
        "latitude": "21.7586660",
        "longitude": "72.1223600"
      }
    ]
  },
  "360035": {
    "state": "GUJARAT",
    "district": "RAJKOT",
    "offices": [
      {
        "officename": "Chandli BO",
        "officetype": "BO",
        "delivery": "Delivery",
        "divisionname": "Gondal Division",
        "regionname": "Rajkot Region",
        "circlename": "Gujarat Circle",
        "latitude": "22.1448300",
        "longitude": "70.5897050"
      },
      {
        "officename": "Sanganva BO",
        "officetype": "BO",
        "delivery": "Delivery",
        "divisionname": "Gondal Division",
        "regionname": "Rajkot Region",
        "circlename": "Gujarat Circle",
        "latitude": "22.1217380",
        "longitude": "70.6752130"
      },
      {
        "officename": "Lodhika SO",
        "officetype": "PO",
        "delivery": "Delivery",
        "divisionname": "Gondal Division",
        "regionname": "Rajkot Region",
        "circlename": "Gujarat Circle",
        "latitude": "22.1352500",
        "longitude": "70.6349444"
      },
      {
        "officename": "Chibhda BO",
        "officetype": "BO",
        "delivery": "Delivery",
        "divisionname": "Gondal Division",
        "regionname": "Rajkot Region",
        "circlename": "Gujarat Circle",
        "latitude": "22.1808280",
        "longitude": "70.6540030"
      },
      {
        "officename": "Kotha Pipalia BO",
        "officetype": "BO",
        "delivery": "Delivery",
        "divisionname": "Gondal Division",
        "regionname": "Rajkot Region",
        "circlename": "Gujarat Circle",
        "latitude": "22.1112270",
        "longitude": "70.6127560"
      }
    ]
  },
  "360040": {
    "state": "GUJARAT",
    "district": "RAJKOT",
    "offices": [
      {
        "officename": "Panchavda BO",
        "officetype": "BO",
        "delivery": "Delivery",
        "divisionname": "Gondal Division",
        "regionname": "Rajkot Region",
        "circlename": "Gujarat Circle",
        "latitude": "22.3535480",
        "longitude": "71.1953510"
      },
      {
        "officename": "Jangvad BO",
        "officetype": "BO",
        "delivery": "Delivery",
        "divisionname": "Gondal Division",
        "regionname": "Rajkot Region",
        "circlename": "Gujarat Circle",
        "latitude": "21.9847240",
        "longitude": "71.1775280"
      },
      {
        "officename": "Jivapar BO",
        "officetype": "BO",
        "delivery": "Delivery",
        "divisionname": "Gondal Division",
        "regionname": "Rajkot Region",
        "circlename": "Gujarat Circle",
        "latitude": "22.3999430",
        "longitude": "69.9580110"
      },
      {
        "officename": "Kanpar BO",
        "officetype": "BO",
        "delivery": "Delivery",
        "divisionname": "Gondal Division",
        "regionname": "Rajkot Region",
        "circlename": "Gujarat Circle",
        "latitude": "21.9596150",
        "longitude": "71.0564620"
      },
      {
        "officename": "Jasapar BO",
        "officetype": "BO",
        "delivery": "Delivery",
        "divisionname": "Gondal Division",
        "regionname": "Rajkot Region",
        "circlename": "Gujarat Circle",
        "latitude": "21.9680150",
        "longitude": "71.0908090"
      },
      {
        "officename": "Atkot SO",
        "officetype": "PO",
        "delivery": "Delivery",
        "divisionname": "Gondal Division",
        "regionname": "Rajkot Region",
        "circlename": "Gujarat Circle",
        "latitude": "22.0095278",
        "longitude": "70.1465833"
      },
      {
        "officename": "Ishavariya BO",
        "officetype": "BO",
        "delivery": "Delivery",
        "divisionname": "Gondal Division",
        "regionname": "Rajkot Region",
        "circlename": "Gujarat Circle",
        "latitude": "22.0332375",
        "longitude": "71.2027253"
      }
    ]
  },
  "360045": {
    "state": "GUJARAT",
    "district": "RAJKOT",
    "offices": [
      {
        "officename": "Bildi B.O",
        "officetype": "BO",
        "delivery": "Delivery",
        "divisionname": "Gondal Division",
        "regionname": "Rajkot Region",
        "circlename": "Gujarat Circle",
        "latitude": "21.6591",
        "longitude": "70.0950"
      },
      {
        "officename": "Sanathali B.O",
        "officetype": "BO",
        "delivery": "Delivery",
        "divisionname": "Gondal Division",
        "regionname": "Rajkot Region",
        "circlename": "Gujarat Circle",
        "latitude": "21.899325",
        "longitude": "71.027824"
      },
      {
        "officename": "Zundala B.O",
        "officetype": "BO",
        "delivery": "Delivery",
        "divisionname": "Gondal Division",
        "regionname": "Rajkot Region",
        "circlename": "Gujarat Circle",
        "latitude": "21.836897",
        "longitude": "71.078004"
      },
      {
        "officename": "Vasavad S.O",
        "officetype": "PO",
        "delivery": "Delivery",
        "divisionname": "Gondal Division",
        "regionname": "Rajkot Region",
        "circlename": "Gujarat Circle",
        "latitude": "21.82125",
        "longitude": "71.026348"
      },
      {
        "officename": "Dodiyala B.O",
        "officetype": "BO",
        "delivery": "Delivery",
        "divisionname": "Gondal Division",
        "regionname": "Rajkot Region",
        "circlename": "Gujarat Circle",
        "latitude": "21.878930",
        "longitude": "70.979151"
      },
      {
        "officename": "Juna Pipaliya B.O",
        "officetype": "BO",
        "delivery": "Delivery",
        "divisionname": "Gondal Division",
        "regionname": "Rajkot Region",
        "circlename": "Gujarat Circle",
        "latitude": "21.924962",
        "longitude": "71.072062"
      },
      {
        "officename": "Ravna B.O",
        "officetype": "BO",
        "delivery": "Delivery",
        "divisionname": "Gondal Division",
        "regionname": "Rajkot Region",
        "circlename": "Gujarat Circle",
        "latitude": "21.82125",
        "longitude": "71.02635"
      },
      {
        "officename": "Meghpar B.O",
        "officetype": "BO",
        "delivery": "Delivery",
        "divisionname": "Gondal Division",
        "regionname": "Rajkot Region",
        "circlename": "Gujarat Circle",
        "latitude": "21.82125",
        "longitude": "71.02635"
      }
    ]
  },
  "360050": {
    "state": "GUJARAT",
    "district": "RAJKOT",
    "offices": [
      {
        "officename": "Gadhadia BO",
        "officetype": "BO",
        "delivery": "Delivery",
        "divisionname": "Gondal Division",
        "regionname": "Rajkot Region",
        "circlename": "Gujarat Circle",
        "latitude": "22.1534200",
        "longitude": "71.3592500"
      },
      {
        "officename": "Gokhlana BO",
        "officetype": "BO",
        "delivery": "Delivery",
        "divisionname": "Gondal Division",
        "regionname": "Rajkot Region",
        "circlename": "Gujarat Circle",
        "latitude": "22.1534200",
        "longitude": "71.3592500"
      },
      {
        "officename": "Kalasar BO",
        "officetype": "BO",
        "delivery": "Delivery",
        "divisionname": "Gondal Division",
        "regionname": "Rajkot Region",
        "circlename": "Gujarat Circle",
        "latitude": "22.0398390",
        "longitude": "71.2088620"
      },
      {
        "officename": "Bhadli BO",
        "officetype": "BO",
        "delivery": "Delivery",
        "divisionname": "Gondal Division",
        "regionname": "Rajkot Region",
        "circlename": "Gujarat Circle",
        "latitude": "22.0072000",
        "longitude": "71.5673500"
      },
      {
        "officename": "Jasdan SO",
        "officetype": "PO",
        "delivery": "Delivery",
        "divisionname": "Gondal Division",
        "regionname": "Rajkot Region",
        "circlename": "Gujarat Circle",
        "latitude": "22.0418333",
        "longitude": "71.2104167"
      },
      {
        "officename": "Bakhalvad BO",
        "officetype": "BO",
        "delivery": "Delivery",
        "divisionname": "Gondal Division",
        "regionname": "Rajkot Region",
        "circlename": "Gujarat Circle",
        "latitude": "22.0749700",
        "longitude": "71.2198560"
      },
      {
        "officename": "Bhadala BO",
        "officetype": "BO",
        "delivery": "Delivery",
        "divisionname": "Gondal Division",
        "regionname": "Rajkot Region",
        "circlename": "Gujarat Circle",
        "latitude": "22.1784962",
        "longitude": "71.1002821"
      },
      {
        "officename": "Kaduka BO",
        "officetype": "BO",
        "delivery": "Delivery",
        "divisionname": "Gondal Division",
        "regionname": "Rajkot Region",
        "circlename": "Gujarat Circle",
        "latitude": "22.1474860",
        "longitude": "71.2696030"
      },
      {
        "officename": "Lilapur BO",
        "officetype": "BO",
        "delivery": "Delivery",
        "divisionname": "Gondal Division",
        "regionname": "Rajkot Region",
        "circlename": "Gujarat Circle",
        "latitude": "22.9296770",
        "longitude": "71.8319320"
      },
      {
        "officename": "Ghela Somnath BO",
        "officetype": "BO",
        "delivery": "Delivery",
        "divisionname": "Gondal Division",
        "regionname": "Rajkot Region",
        "circlename": "Gujarat Circle",
        "latitude": "22.0655620",
        "longitude": "71.3679640"
      },
      {
        "officename": "Ambardi BO",
        "officetype": "BO",
        "delivery": "Delivery",
        "divisionname": "Gondal Division",
        "regionname": "Rajkot Region",
        "circlename": "Gujarat Circle",
        "latitude": "22.0072000",
        "longitude": "71.5673500"
      },
      {
        "officename": "Shivrajpur BO",
        "officetype": "BO",
        "delivery": "Delivery",
        "divisionname": "Gondal Division",
        "regionname": "Rajkot Region",
        "circlename": "Gujarat Circle",
        "latitude": "22.4191520",
        "longitude": "73.6124100"
      },
      {
        "officename": "Vadod BO",
        "officetype": "BO",
        "delivery": "Delivery",
        "divisionname": "Gondal Division",
        "regionname": "Rajkot Region",
        "circlename": "Gujarat Circle",
        "latitude": "22.5092560",
        "longitude": "73.0036290"
      }
    ]
  },
  "360055": {
    "state": "GUJARAT",
    "district": "RAJKOT",
    "offices": [
      {
        "officename": "Khandhevadia BO",
        "officetype": "BO",
        "delivery": "Delivery",
        "divisionname": "Gondal Division",
        "regionname": "Rajkot Region",
        "circlename": "Gujarat Circle",
        "latitude": "22.0393910",
        "longitude": "71.2088600"
      },
      {
        "officename": "Chhasiya BO",
        "officetype": "BO",
        "delivery": "Delivery",
        "divisionname": "Gondal Division",
        "regionname": "Rajkot Region",
        "circlename": "Gujarat Circle",
        "latitude": "22.2506580",
        "longitude": "71.2696030"
      },
      {
        "officename": "Modhuka BO",
        "officetype": "BO",
        "delivery": "Delivery",
        "divisionname": "Gondal Division",
        "regionname": "Rajkot Region",
        "circlename": "Gujarat Circle",
        "latitude": "22.1069440",
        "longitude": "71.4121250"
      },
      {
        "officename": "Pipardi BO",
        "officetype": "BO",
        "delivery": "Delivery",
        "divisionname": "Gondal Division",
        "regionname": "Rajkot Region",
        "circlename": "Gujarat Circle",
        "latitude": "22.1799500",
        "longitude": "71.4477470"
      },
      {
        "officename": "Ajmer BO",
        "officetype": "BO",
        "delivery": "Delivery",
        "divisionname": "Gondal Division",
        "regionname": "Rajkot Region",
        "circlename": "Gujarat Circle",
        "latitude": "22.2122790",
        "longitude": "71.3792470"
      },
      {
        "officename": "Ori BO",
        "officetype": "BO",
        "delivery": "Delivery",
        "divisionname": "Gondal Division",
        "regionname": "Rajkot Region",
        "circlename": "Gujarat Circle",
        "latitude": "22.0393910",
        "longitude": "71.2088600"
      },
      {
        "officename": "Sanali BO",
        "officetype": "BO",
        "delivery": "Delivery",
        "divisionname": "Gondal Division",
        "regionname": "Rajkot Region",
        "circlename": "Gujarat Circle",
        "latitude": "22.1455335",
        "longitude": "71.4477469"
      },
      {
        "officename": "Amrapar BO",
        "officetype": "BO",
        "delivery": "Delivery",
        "divisionname": "Gondal Division",
        "regionname": "Rajkot Region",
        "circlename": "Gujarat Circle",
        "latitude": "22.1876550",
        "longitude": "71.3576550"
      },
      {
        "officename": "Devdhari BO",
        "officetype": "BO",
        "delivery": "Delivery",
        "divisionname": "Gondal Division",
        "regionname": "Rajkot Region",
        "circlename": "Gujarat Circle",
        "latitude": "22.1152810",
        "longitude": "71.4833650"
      },
      {
        "officename": "Gundala Jas BO",
        "officetype": "BO",
        "delivery": "Delivery",
        "divisionname": "Gondal Division",
        "regionname": "Rajkot Region",
        "circlename": "Gujarat Circle",
        "latitude": "22.1697670",
        "longitude": "71.3096820"
      },
      {
        "officename": "Hathasani BO",
        "officetype": "BO",
        "delivery": "Delivery",
        "divisionname": "Gondal Division",
        "regionname": "Rajkot Region",
        "circlename": "Gujarat Circle",
        "latitude": "22.1313740",
        "longitude": "71.3658780"
      },
      {
        "officename": "Lakhavad Moti BO",
        "officetype": "BO",
        "delivery": "Delivery",
        "divisionname": "Gondal Division",
        "regionname": "Rajkot Region",
        "circlename": "Gujarat Circle",
        "latitude": "22.2652480",
        "longitude": "71.3200860"
      },
      {
        "officename": "Vangadhra BO",
        "officetype": "BO",
        "delivery": "Delivery",
        "divisionname": "Gondal Division",
        "regionname": "Rajkot Region",
        "circlename": "Gujarat Circle",
        "latitude": "22.2328340",
        "longitude": "71.4462630"
      },
      {
        "officename": "Vinchhiya SO",
        "officetype": "PO",
        "delivery": "Delivery",
        "divisionname": "Gondal Division",
        "regionname": "Rajkot Region",
        "circlename": "Gujarat Circle",
        "latitude": "22.2110278",
        "longitude": "71.3798611"
      }
    ]
  },
  "360060": {
    "state": "GUJARAT",
    "district": "RAJKOT",
    "offices": [
      {
        "officename": "LakhavadNani BO",
        "officetype": "BO",
        "delivery": "Delivery",
        "divisionname": "Rajkot Division",
        "regionname": "Rajkot Region",
        "circlename": "Gujarat Circle",
        "latitude": "22.1588395",
        "longitude": "71.0951815"
      },
      {
        "officename": "Baldhoi BO",
        "officetype": "BO",
        "delivery": "Delivery",
        "divisionname": "Rajkot Division",
        "regionname": "Rajkot Region",
        "circlename": "Gujarat Circle",
        "latitude": "22.0479000",
        "longitude": "71.0600000"
      },
      {
        "officename": "Kanesara BO",
        "officetype": "BO",
        "delivery": "Delivery",
        "divisionname": "Rajkot Division",
        "regionname": "Rajkot Region",
        "circlename": "Gujarat Circle",
        "latitude": "22.1014958",
        "longitude": "71.0798652"
      },
      {
        "officename": "KharchiyaJam BO",
        "officetype": "BO",
        "delivery": "Delivery",
        "divisionname": "Rajkot Division",
        "regionname": "Rajkot Region",
        "circlename": "Gujarat Circle",
        "latitude": "22.0077103",
        "longitude": "71.1001167"
      },
      {
        "officename": "Virnagar SO",
        "officetype": "PO",
        "delivery": "Delivery",
        "divisionname": "Rajkot Division",
        "regionname": "Rajkot Region",
        "circlename": "Gujarat Circle",
        "latitude": "22.0373889",
        "longitude": "71.1132222"
      },
      {
        "officename": "Kothi BO",
        "officetype": "BO",
        "delivery": "Delivery",
        "divisionname": "Rajkot Division",
        "regionname": "Rajkot Region",
        "circlename": "Gujarat Circle",
        "latitude": "22.5251479",
        "longitude": "70.9946043"
      },
      {
        "officename": "Kundani BO",
        "officetype": "BO",
        "delivery": "Delivery",
        "divisionname": "Rajkot Division",
        "regionname": "Rajkot Region",
        "circlename": "Gujarat Circle",
        "latitude": "22.1249410",
        "longitude": "71.1567523"
      }
    ]
  },
  "360070": {
    "state": "GUJARAT",
    "district": "RAJKOT",
    "offices": [
      {
        "officename": "Dalia BO",
        "officetype": "BO",
        "delivery": "Delivery",
        "divisionname": "Gondal Division",
        "regionname": "Rajkot Region",
        "circlename": "Gujarat Circle",
        "latitude": "22.0743760",
        "longitude": "70.7146170"
      },
      {
        "officename": "Anida Vachhra BO",
        "officetype": "BO",
        "delivery": "Delivery",
        "divisionname": "Gondal Division",
        "regionname": "Rajkot Region",
        "circlename": "Gujarat Circle",
        "latitude": "22.0524470",
        "longitude": "70.5703700"
      },
      {
        "officename": "Nonghanchora BO",
        "officetype": "BO",
        "delivery": "Delivery",
        "divisionname": "Gondal Division",
        "regionname": "Rajkot Region",
        "circlename": "Gujarat Circle",
        "latitude": "22.0836940",
        "longitude": "70.5688830"
      },
      {
        "officename": "Mengni SO",
        "officetype": "PO",
        "delivery": "Delivery",
        "divisionname": "Gondal Division",
        "regionname": "Rajkot Region",
        "circlename": "Gujarat Circle",
        "latitude": "22.0919000",
        "longitude": "70.6956980"
      },
      {
        "officename": "Champabeda BO",
        "officetype": "BO",
        "delivery": "Delivery",
        "divisionname": "Gondal Division",
        "regionname": "Rajkot Region",
        "circlename": "Gujarat Circle",
        "latitude": "22.1034000",
        "longitude": "86.5672010"
      }
    ]
  },
  "360110": {
    "state": "GUJARAT",
    "district": "RAJKOT",
    "offices": [
      {
        "officename": "Adbalka BO",
        "officetype": "BO",
        "delivery": "Delivery",
        "divisionname": "Rajkot Division",
        "regionname": "Rajkot Region",
        "circlename": "Gujarat Circle",
        "latitude": "22.4571778",
        "longitude": "70.6765663"
      },
      {
        "officename": "Suvag BO",
        "officetype": "BO",
        "delivery": "Delivery",
        "divisionname": "Rajkot Division",
        "regionname": "Rajkot Region",
        "circlename": "Gujarat Circle",
        "latitude": "22.3011633",
        "longitude": "70.5584814"
      },
      {
        "officename": "Zilariya BO",
        "officetype": "BO",
        "delivery": "Delivery",
        "divisionname": "Rajkot Division",
        "regionname": "Rajkot Region",
        "circlename": "Gujarat Circle",
        "latitude": "22.4573263",
        "longitude": "70.6087136"
      },
      {
        "officename": "Khambhala BO",
        "officetype": "BO",
        "delivery": "Delivery",
        "divisionname": "Rajkot Division",
        "regionname": "Rajkot Region",
        "circlename": "Gujarat Circle",
        "latitude": "22.3318840",
        "longitude": "70.6164662"
      },
      {
        "officename": "Khodapipar BO",
        "officetype": "BO",
        "delivery": "Delivery",
        "divisionname": "Rajkot Division",
        "regionname": "Rajkot Region",
        "circlename": "Gujarat Circle",
        "latitude": "22.5580404",
        "longitude": "70.5739352"
      },
      {
        "officename": "Motakhijadia BO",
        "officetype": "BO",
        "delivery": "Delivery",
        "divisionname": "Rajkot Division",
        "regionname": "Rajkot Region",
        "circlename": "Gujarat Circle",
        "latitude": "22.3480770",
        "longitude": "70.5042302"
      },
      {
        "officename": "Rampar Mota BO",
        "officetype": "BO",
        "delivery": "Delivery",
        "divisionname": "Rajkot Division",
        "regionname": "Rajkot Region",
        "circlename": "Gujarat Circle",
        "latitude": "22.4193260",
        "longitude": "70.5784154"
      },
      {
        "officename": "Rampar Pati BO",
        "officetype": "BO",
        "delivery": "Delivery",
        "divisionname": "Rajkot Division",
        "regionname": "Rajkot Region",
        "circlename": "Gujarat Circle",
        "latitude": "22.3908744",
        "longitude": "70.5961874"
      },
      {
        "officename": "Visaman BO",
        "officetype": "BO",
        "delivery": "Delivery",
        "divisionname": "Rajkot Division",
        "regionname": "Rajkot Region",
        "circlename": "Gujarat Circle",
        "latitude": "22.3976940",
        "longitude": "70.4358672"
      },
      {
        "officename": "Khandheri BO",
        "officetype": "BO",
        "delivery": "Delivery",
        "divisionname": "Rajkot Division",
        "regionname": "Rajkot Region",
        "circlename": "Gujarat Circle",
        "latitude": "22.3743567",
        "longitude": "70.7327968"
      },
      {
        "officename": "Sal Pipalia BO",
        "officetype": "BO",
        "delivery": "Delivery",
        "divisionname": "Rajkot Division",
        "regionname": "Rajkot Region",
        "circlename": "Gujarat Circle",
        "latitude": "22.3168500",
        "longitude": "70.4745142"
      },
      {
        "officename": "Sarapdad BO",
        "officetype": "BO",
        "delivery": "Delivery",
        "divisionname": "Rajkot Division",
        "regionname": "Rajkot Region",
        "circlename": "Gujarat Circle",
        "latitude": "22.3549401",
        "longitude": "70.5468068"
      },
      {
        "officename": "Thoriyali BO",
        "officetype": "BO",
        "delivery": "Delivery",
        "divisionname": "Rajkot Division",
        "regionname": "Rajkot Region",
        "circlename": "Gujarat Circle",
        "latitude": "22.5756909",
        "longitude": "70.5730703"
      },
      {
        "officename": "Khangarka BO",
        "officetype": "BO",
        "delivery": "Delivery",
        "divisionname": "Rajkot Division",
        "regionname": "Rajkot Region",
        "circlename": "Gujarat Circle",
        "latitude": "22.4002141",
        "longitude": "70.4485603"
      },
      {
        "officename": "Dungarka BO",
        "officetype": "BO",
        "delivery": "Delivery",
        "divisionname": "Rajkot Division",
        "regionname": "Rajkot Region",
        "circlename": "Gujarat Circle",
        "latitude": "22.4573263",
        "longitude": "70.6087136"
      },
      {
        "officename": "Hadmatiya BO",
        "officetype": "BO",
        "delivery": "Delivery",
        "divisionname": "Rajkot Division",
        "regionname": "Rajkot Region",
        "circlename": "Gujarat Circle",
        "latitude": "22.4366357",
        "longitude": "70.4537352"
      },
      {
        "officename": "Ishwariya BO",
        "officetype": "BO",
        "delivery": "Delivery",
        "divisionname": "Rajkot Division",
        "regionname": "Rajkot Region",
        "circlename": "Gujarat Circle",
        "latitude": "22.2837710",
        "longitude": "70.6179392"
      },
      {
        "officename": "Khajurdi BO",
        "officetype": "BO",
        "delivery": "Delivery",
        "divisionname": "Rajkot Division",
        "regionname": "Rajkot Region",
        "circlename": "Gujarat Circle",
        "latitude": "22.5129686",
        "longitude": "70.5344353"
      },
      {
        "officename": "Khakhdabela BO",
        "officetype": "BO",
        "delivery": "Delivery",
        "divisionname": "Rajkot Division",
        "regionname": "Rajkot Region",
        "circlename": "Gujarat Circle",
        "latitude": "22.5049355",
        "longitude": "70.5677051"
      },
      {
        "officename": "Khamta BO",
        "officetype": "BO",
        "delivery": "Delivery",
        "divisionname": "Rajkot Division",
        "regionname": "Rajkot Region",
        "circlename": "Gujarat Circle",
        "latitude": "22.4690017",
        "longitude": "70.5555396"
      },
      {
        "officename": "Makajimeghpar BO",
        "officetype": "BO",
        "delivery": "Delivery",
        "divisionname": "Rajkot Division",
        "regionname": "Rajkot Region",
        "circlename": "Gujarat Circle",
        "latitude": "22.3344350",
        "longitude": "70.4183392"
      },
      {
        "officename": "Motichanol BO",
        "officetype": "BO",
        "delivery": "Delivery",
        "divisionname": "Rajkot Division",
        "regionname": "Rajkot Region",
        "circlename": "Gujarat Circle",
        "latitude": "22.4573263",
        "longitude": "70.6087136"
      },
      {
        "officename": "Nana Khijadia BO",
        "officetype": "BO",
        "delivery": "Delivery",
        "divisionname": "Rajkot Division",
        "regionname": "Rajkot Region",
        "circlename": "Gujarat Circle",
        "latitude": "22.4246023",
        "longitude": "70.5569577"
      },
      {
        "officename": "Rupavati BO",
        "officetype": "BO",
        "delivery": "Delivery",
        "divisionname": "Rajkot Division",
        "regionname": "Rajkot Region",
        "circlename": "Gujarat Circle",
        "latitude": "21.6768980",
        "longitude": "70.6188150"
      },
      {
        "officename": "Targhari BO",
        "officetype": "BO",
        "delivery": "Delivery",
        "divisionname": "Rajkot Division",
        "regionname": "Rajkot Region",
        "circlename": "Gujarat Circle",
        "latitude": "22.4573263",
        "longitude": "70.6087136"
      },
      {
        "officename": "Ukarda BO",
        "officetype": "BO",
        "delivery": "Delivery",
        "divisionname": "Rajkot Division",
        "regionname": "Rajkot Region",
        "circlename": "Gujarat Circle",
        "latitude": "22.4573263",
        "longitude": "70.6087136"
      },
      {
        "officename": "Paddhari SO",
        "officetype": "PO",
        "delivery": "Delivery",
        "divisionname": "Rajkot Division",
        "regionname": "Rajkot Region",
        "circlename": "Gujarat Circle",
        "latitude": "22.4341667",
        "longitude": "70.6027778"
      }
    ]
  },
  "360311": {
    "state": "GUJARAT",
    "district": "RAJKOT",
    "offices": [
      {
        "officename": "Daiya BO",
        "officetype": "BO",
        "delivery": "Delivery",
        "divisionname": "Gondal Division",
        "regionname": "Rajkot Region",
        "circlename": "Gujarat Circle",
        "latitude": "21.9657660",
        "longitude": "70.6737270"
      },
      {
        "officename": "Gundasara BO",
        "officetype": "BO",
        "delivery": "Delivery",
        "divisionname": "Gondal Division",
        "regionname": "Rajkot Region",
        "circlename": "Gujarat Circle",
        "latitude": "22.1162520",
        "longitude": "70.8179410"
      },
      {
        "officename": "Shivrajgadh BO",
        "officetype": "BO",
        "delivery": "Delivery",
        "divisionname": "Gondal Division",
        "regionname": "Rajkot Region",
        "circlename": "Gujarat Circle",
        "latitude": "21.8370020",
        "longitude": "70.8275700"
      },
      {
        "officename": "Charakhadi BO",
        "officetype": "BO",
        "delivery": "Delivery",
        "divisionname": "Gondal Division",
        "regionname": "Rajkot Region",
        "circlename": "Gujarat Circle",
        "latitude": "21.9006440",
        "longitude": "70.6636830"
      },
      {
        "officename": "Ghoghavadar BO",
        "officetype": "BO",
        "delivery": "Delivery",
        "divisionname": "Gondal Division",
        "regionname": "Rajkot Region",
        "circlename": "Gujarat Circle",
        "latitude": "21.9641280",
        "longitude": "70.8729390"
      },
      {
        "officename": "Nana Mandva BO",
        "officetype": "BO",
        "delivery": "Delivery",
        "divisionname": "Gondal Division",
        "regionname": "Rajkot Region",
        "circlename": "Gujarat Circle",
        "latitude": "21.9871760",
        "longitude": "70.9576520"
      },
      {
        "officename": "Vekri BO",
        "officetype": "BO",
        "delivery": "Delivery",
        "divisionname": "Gondal Division",
        "regionname": "Rajkot Region",
        "circlename": "Gujarat Circle",
        "latitude": "21.9412210",
        "longitude": "70.6893390"
      },
      {
        "officename": "Bhunava BO",
        "officetype": "BO",
        "delivery": "Delivery",
        "divisionname": "Gondal Division",
        "regionname": "Rajkot Region",
        "circlename": "Gujarat Circle",
        "latitude": "22.0532780",
        "longitude": "70.7703700"
      },
      {
        "officename": "Gondal Ram Dwar ND TSO",
        "officetype": "PO",
        "delivery": "Non Delivery",
        "divisionname": "Gondal Division",
        "regionname": "Rajkot Region",
        "circlename": "Gujarat Circle",
        "latitude": "21.977033",
        "longitude": "70.795762"
      },
      {
        "officename": "Sandhvaya BO",
        "officetype": "BO",
        "delivery": "Delivery",
        "divisionname": "Gondal Division",
        "regionname": "Rajkot Region",
        "circlename": "Gujarat Circle",
        "latitude": "24.8841400",
        "longitude": "79.5919480"
      },
      {
        "officename": "Khandadhar BO",
        "officetype": "BO",
        "delivery": "Delivery",
        "divisionname": "Gondal Division",
        "regionname": "Rajkot Region",
        "circlename": "Gujarat Circle",
        "latitude": "21.9611900",
        "longitude": "70.8034419"
      },
      {
        "officename": "Patidad BO",
        "officetype": "BO",
        "delivery": "Delivery",
        "divisionname": "Gondal Division",
        "regionname": "Rajkot Region",
        "circlename": "Gujarat Circle",
        "latitude": "21.9472310",
        "longitude": "70.7094130"
      },
      {
        "officename": "Dadva Mota BO",
        "officetype": "BO",
        "delivery": "Delivery",
        "divisionname": "Gondal Division",
        "regionname": "Rajkot Region",
        "circlename": "Gujarat Circle",
        "latitude": "22.0092870",
        "longitude": "71.0468050"
      },
      {
        "officename": "PipaliyaSadak BO",
        "officetype": "BO",
        "delivery": "Delivery",
        "divisionname": "Gondal Division",
        "regionname": "Rajkot Region",
        "circlename": "Gujarat Circle",
        "latitude": "23.1374630",
        "longitude": "77.4988750"
      },
      {
        "officename": "Ramod BO",
        "officetype": "BO",
        "delivery": "Delivery",
        "divisionname": "Gondal Division",
        "regionname": "Rajkot Region",
        "circlename": "Gujarat Circle",
        "latitude": "21.9664420",
        "longitude": "70.9279300"
      },
      {
        "officename": "Trakuda BO",
        "officetype": "BO",
        "delivery": "Delivery",
        "divisionname": "Gondal Division",
        "regionname": "Rajkot Region",
        "circlename": "Gujarat Circle",
        "latitude": "21.9542940",
        "longitude": "70.6499340"
      },
      {
        "officename": "Gondal Bhuvneshwari Pith SO",
        "officetype": "PO",
        "delivery": "Non Delivery",
        "divisionname": "Gondal Division",
        "regionname": "Rajkot Region",
        "circlename": "Gujarat Circle",
        "latitude": "21.1270430",
        "longitude": "73.1061800"
      },
      {
        "officename": "Gondal Vijaynagar ND TSO",
        "officetype": "PO",
        "delivery": "Non Delivery",
        "divisionname": "Gondal Division",
        "regionname": "Rajkot Region",
        "circlename": "Gujarat Circle",
        "latitude": "21.949917",
        "longitude": "70.793636"
      },
      {
        "officename": "Khadvanthali BO",
        "officetype": "BO",
        "delivery": "Delivery",
        "divisionname": "Gondal Division",
        "regionname": "Rajkot Region",
        "circlename": "Gujarat Circle",
        "latitude": "21.9611920",
        "longitude": "70.8034399"
      },
      {
        "officename": "Garnara BO",
        "officetype": "BO",
        "delivery": "Delivery",
        "divisionname": "Gondal Division",
        "regionname": "Rajkot Region",
        "circlename": "Gujarat Circle",
        "latitude": "25.3485520",
        "longitude": "75.5538710"
      },
      {
        "officename": "Semla BO",
        "officetype": "BO",
        "delivery": "Delivery",
        "divisionname": "Gondal Division",
        "regionname": "Rajkot Region",
        "circlename": "Gujarat Circle",
        "latitude": "22.0374340",
        "longitude": "70.8080430"
      },
      {
        "officename": "Rib BO",
        "officetype": "BO",
        "delivery": "Delivery",
        "divisionname": "Gondal Division",
        "regionname": "Rajkot Region",
        "circlename": "Gujarat Circle",
        "latitude": "21.9786000",
        "longitude": "70.7402000"
      },
      {
        "officename": "Kolithad BO",
        "officetype": "BO",
        "delivery": "Delivery",
        "divisionname": "Gondal Division",
        "regionname": "Rajkot Region",
        "circlename": "Gujarat Circle",
        "latitude": "22.0275660",
        "longitude": "70.6648040"
      },
      {
        "officename": "Chordi BO",
        "officetype": "BO",
        "delivery": "Delivery",
        "divisionname": "Gondal Division",
        "regionname": "Rajkot Region",
        "circlename": "Gujarat Circle",
        "latitude": "21.9132690",
        "longitude": "70.7427940"
      },
      {
        "officename": "Gondal HO",
        "officetype": "HO",
        "delivery": "Delivery",
        "divisionname": "Gondal Division",
        "regionname": "Rajkot Region",
        "circlename": "Gujarat Circle",
        "latitude": "21.9644444",
        "longitude": "70.7994167"
      },
      {
        "officename": "Lunivav BO",
        "officetype": "BO",
        "delivery": "Delivery",
        "divisionname": "Gondal Division",
        "regionname": "Rajkot Region",
        "circlename": "Gujarat Circle",
        "latitude": "22.0309290",
        "longitude": "70.6982610"
      },
      {
        "officename": "Anida Bhalodi BO",
        "officetype": "BO",
        "delivery": "Delivery",
        "divisionname": "Gondal Division",
        "regionname": "Rajkot Region",
        "circlename": "Gujarat Circle",
        "latitude": "21.9686290",
        "longitude": "70.7301520"
      },
      {
        "officename": "Khambha BO",
        "officetype": "BO",
        "delivery": "Delivery",
        "divisionname": "Gondal Division",
        "regionname": "Rajkot Region",
        "circlename": "Gujarat Circle",
        "latitude": "21.1399470",
        "longitude": "71.2547530"
      },
      {
        "officename": "Vora Kotda BO",
        "officetype": "BO",
        "delivery": "Delivery",
        "divisionname": "Gondal Division",
        "regionname": "Rajkot Region",
        "circlename": "Gujarat Circle",
        "latitude": "21.8945660",
        "longitude": "70.7822630"
      },
      {
        "officename": "Hadamtala Shemla BO",
        "officetype": "BO",
        "delivery": "Delivery",
        "divisionname": "Gondal Division",
        "regionname": "Rajkot Region",
        "circlename": "Gujarat Circle",
        "latitude": "22.0396770",
        "longitude": "70.8083460"
      },
      {
        "officename": "Biliyala BO",
        "officetype": "BO",
        "delivery": "Delivery",
        "divisionname": "Gondal Division",
        "regionname": "Rajkot Region",
        "circlename": "Gujarat Circle",
        "latitude": "22.0304000",
        "longitude": "70.7703700"
      },
      {
        "officename": "Mota Mandva BO",
        "officetype": "BO",
        "delivery": "Delivery",
        "divisionname": "Gondal Division",
        "regionname": "Rajkot Region",
        "circlename": "Gujarat Circle",
        "latitude": "22.0121890",
        "longitude": "70.9398920"
      },
      {
        "officename": "Vachhra BO",
        "officetype": "BO",
        "delivery": "Delivery",
        "divisionname": "Gondal Division",
        "regionname": "Rajkot Region",
        "circlename": "Gujarat Circle",
        "latitude": "22.1674950",
        "longitude": "69.4676470"
      },
      {
        "officename": "Ambardi BO",
        "officetype": "BO",
        "delivery": "Delivery",
        "divisionname": "Gondal Division",
        "regionname": "Rajkot Region",
        "circlename": "Gujarat Circle",
        "latitude": "21.7874040",
        "longitude": "71.4944950"
      },
      {
        "officename": "Hadamtala Kolithad BO",
        "officetype": "BO",
        "delivery": "Delivery",
        "divisionname": "Gondal Division",
        "regionname": "Rajkot Region",
        "circlename": "Gujarat Circle",
        "latitude": "22.0459290",
        "longitude": "70.6588570"
      },
      {
        "officename": "Umrali BO",
        "officetype": "BO",
        "delivery": "Delivery",
        "divisionname": "Gondal Division",
        "regionname": "Rajkot Region",
        "circlename": "Gujarat Circle",
        "latitude": "22.1771620",
        "longitude": "74.3189240"
      },
      {
        "officename": "Jamvadi BO",
        "officetype": "BO",
        "delivery": "Delivery",
        "divisionname": "Gondal Division",
        "regionname": "Rajkot Region",
        "circlename": "Gujarat Circle",
        "latitude": "21.9323160",
        "longitude": "70.7662820"
      },
      {
        "officename": "Ribda BO",
        "officetype": "BO",
        "delivery": "Delivery",
        "divisionname": "Gondal Division",
        "regionname": "Rajkot Region",
        "circlename": "Gujarat Circle",
        "latitude": "22.1274680",
        "longitude": "70.7807770"
      },
      {
        "officename": "Gondal Bhojrajpara SO",
        "officetype": "PO",
        "delivery": "Non Delivery",
        "divisionname": "Gondal Division",
        "regionname": "Rajkot Region",
        "circlename": "Gujarat Circle",
        "latitude": "21.9551700",
        "longitude": "70.7986160"
      }
    ]
  },
  "360320": {
    "state": "GUJARAT",
    "district": "RAJKOT",
    "offices": [
      {
        "officename": "Navagam BO",
        "officetype": "BO",
        "delivery": "Delivery",
        "divisionname": "Gondal Division",
        "regionname": "Rajkot Region",
        "circlename": "Gujarat Circle",
        "latitude": "22.4834100",
        "longitude": "70.0720640"
      },
      {
        "officename": "Gomta SO",
        "officetype": "PO",
        "delivery": "Delivery",
        "divisionname": "Gondal Division",
        "regionname": "Rajkot Region",
        "circlename": "Gujarat Circle",
        "latitude": "21.8720556",
        "longitude": "70.7310833"
      }
    ]
  },
  "360325": {
    "state": "GUJARAT",
    "district": "RAJKOT",
    "offices": [
      {
        "officename": "Sultanpur S.O",
        "officetype": "PO",
        "delivery": "Delivery",
        "divisionname": "Gondal Division",
        "regionname": "Rajkot Region",
        "circlename": "Gujarat Circle",
        "latitude": "22.2986944",
        "longitude": "70.7997778"
      },
      {
        "officename": "Vinzivad B.O",
        "officetype": "BO",
        "delivery": "Delivery",
        "divisionname": "Gondal Division",
        "regionname": "Rajkot Region",
        "circlename": "Gujarat Circle",
        "latitude": "21.783465",
        "longitude": "70.930808"
      },
      {
        "officename": "Dhudasiya B.O",
        "officetype": "BO",
        "delivery": "Delivery",
        "divisionname": "Gondal Division",
        "regionname": "Rajkot Region",
        "circlename": "Gujarat Circle",
        "latitude": "22.314756",
        "longitude": "70.337149"
      }
    ]
  },
  "360330": {
    "state": "GUJARAT",
    "district": "RAJKOT",
    "offices": [
      {
        "officename": "Bandra BO",
        "officetype": "BO",
        "delivery": "Delivery",
        "divisionname": "Gondal Division",
        "regionname": "Rajkot Region",
        "circlename": "Gujarat Circle",
        "latitude": "21.9611860",
        "longitude": "70.8034459"
      },
      {
        "officename": "Kamar Kotda BO",
        "officetype": "BO",
        "delivery": "Delivery",
        "divisionname": "Gondal Division",
        "regionname": "Rajkot Region",
        "circlename": "Gujarat Circle",
        "latitude": "21.8290270",
        "longitude": "70.8855730"
      },
      {
        "officename": "Satapar BO",
        "officetype": "BO",
        "delivery": "Delivery",
        "divisionname": "Gondal Division",
        "regionname": "Rajkot Region",
        "circlename": "Gujarat Circle",
        "latitude": "21.8236360",
        "longitude": "69.9126000"
      },
      {
        "officename": "Shishak BO",
        "officetype": "BO",
        "delivery": "Delivery",
        "divisionname": "Gondal Division",
        "regionname": "Rajkot Region",
        "circlename": "Gujarat Circle",
        "latitude": "21.8988430",
        "longitude": "70.9130680"
      },
      {
        "officename": "Mandan Kundla BO",
        "officetype": "BO",
        "delivery": "Delivery",
        "divisionname": "Gondal Division",
        "regionname": "Rajkot Region",
        "circlename": "Gujarat Circle",
        "latitude": "21.8508530",
        "longitude": "70.8647640"
      },
      {
        "officename": "Shrinathgadh BO",
        "officetype": "BO",
        "delivery": "Delivery",
        "divisionname": "Gondal Division",
        "regionname": "Rajkot Region",
        "circlename": "Gujarat Circle",
        "latitude": "21.8630830",
        "longitude": "70.9011790"
      },
      {
        "officename": "Devchadi BO",
        "officetype": "BO",
        "delivery": "Delivery",
        "divisionname": "Gondal Division",
        "regionname": "Rajkot Region",
        "circlename": "Gujarat Circle",
        "latitude": "21.8651650",
        "longitude": "70.7934130"
      },
      {
        "officename": "Moviya SO",
        "officetype": "PO",
        "delivery": "Delivery",
        "divisionname": "Gondal Division",
        "regionname": "Rajkot Region",
        "circlename": "Gujarat Circle",
        "latitude": "21.9209900",
        "longitude": "70.8659670"
      },
      {
        "officename": "Bandhiya BO",
        "officetype": "BO",
        "delivery": "Delivery",
        "divisionname": "Gondal Division",
        "regionname": "Rajkot Region",
        "circlename": "Gujarat Circle",
        "latitude": "21.9288030",
        "longitude": "70.9063810"
      }
    ]
  },
  "360360": {
    "state": "GUJARAT",
    "district": "RAJKOT",
    "offices": [
      {
        "officename": "Dedarva BO",
        "officetype": "BO",
        "delivery": "Delivery",
        "divisionname": "Gondal Division",
        "regionname": "Rajkot Region",
        "circlename": "Gujarat Circle",
        "latitude": "23.4362560",
        "longitude": "70.6752130"
      },
      {
        "officename": "Timbdi Arab BO",
        "officetype": "BO",
        "delivery": "Delivery",
        "divisionname": "Gondal Division",
        "regionname": "Rajkot Region",
        "circlename": "Gujarat Circle",
        "latitude": "21.6539180",
        "longitude": "70.5968600"
      },
      {
        "officename": "Bava Pipaliya BO",
        "officetype": "BO",
        "delivery": "Delivery",
        "divisionname": "Gondal Division",
        "regionname": "Rajkot Region",
        "circlename": "Gujarat Circle",
        "latitude": "21.6388120",
        "longitude": "70.6172180"
      },
      {
        "officename": "Juni Sankli BO",
        "officetype": "BO",
        "delivery": "Delivery",
        "divisionname": "Gondal Division",
        "regionname": "Rajkot Region",
        "circlename": "Gujarat Circle",
        "latitude": "21.6942840",
        "longitude": "70.5443420"
      },
      {
        "officename": "Jetalsar Jn SO",
        "officetype": "PO",
        "delivery": "Delivery",
        "divisionname": "Gondal Division",
        "regionname": "Rajkot Region",
        "circlename": "Gujarat Circle",
        "latitude": "21.7276389",
        "longitude": "70.5745556"
      },
      {
        "officename": "Jetalsar Gam BO",
        "officetype": "BO",
        "delivery": "Delivery",
        "divisionname": "Gondal Division",
        "regionname": "Rajkot Region",
        "circlename": "Gujarat Circle",
        "latitude": "21.7141200",
        "longitude": "70.5552880"
      },
      {
        "officename": "Pipalva BO",
        "officetype": "BO",
        "delivery": "Delivery",
        "divisionname": "Gondal Division",
        "regionname": "Rajkot Region",
        "circlename": "Gujarat Circle",
        "latitude": "21.7683190",
        "longitude": "71.4596200"
      },
      {
        "officename": "Rupavati BO",
        "officetype": "BO",
        "delivery": "Delivery",
        "divisionname": "Gondal Division",
        "regionname": "Rajkot Region",
        "circlename": "Gujarat Circle",
        "latitude": "21.5043050",
        "longitude": "71.6380050"
      },
      {
        "officename": "Moti Parabadi BO",
        "officetype": "BO",
        "delivery": "Delivery",
        "divisionname": "Gondal Division",
        "regionname": "Rajkot Region",
        "circlename": "Gujarat Circle",
        "latitude": "21.6752260",
        "longitude": "70.4580670"
      },
      {
        "officename": "Nani Parabadi BO",
        "officetype": "BO",
        "delivery": "Delivery",
        "divisionname": "Gondal Division",
        "regionname": "Rajkot Region",
        "circlename": "Gujarat Circle",
        "latitude": "21.6818400",
        "longitude": "70.5183120"
      },
      {
        "officename": "Torania BO",
        "officetype": "BO",
        "delivery": "Delivery",
        "divisionname": "Gondal Division",
        "regionname": "Rajkot Region",
        "circlename": "Gujarat Circle",
        "latitude": "21.6711650",
        "longitude": "70.4833560"
      },
      {
        "officename": "Akala BO",
        "officetype": "BO",
        "delivery": "Delivery",
        "divisionname": "Gondal Division",
        "regionname": "Rajkot Region",
        "circlename": "Gujarat Circle",
        "latitude": "21.6622990",
        "longitude": "71.3920860"
      }
    ]
  },
  "360370": {
    "state": "GUJARAT",
    "district": "RAJKOT",
    "offices": [
      {
        "officename": "Champrajpur BO",
        "officetype": "BO",
        "delivery": "Delivery",
        "divisionname": "Gondal Division",
        "regionname": "Rajkot Region",
        "circlename": "Gujarat Circle",
        "latitude": "21.7300480",
        "longitude": "70.6429390"
      },
      {
        "officename": "Derdi BO",
        "officetype": "BO",
        "delivery": "Delivery",
        "divisionname": "Gondal Division",
        "regionname": "Rajkot Region",
        "circlename": "Gujarat Circle",
        "latitude": "21.7548064",
        "longitude": "70.6350199"
      },
      {
        "officename": "Pedhla BO",
        "officetype": "BO",
        "delivery": "Delivery",
        "divisionname": "Gondal Division",
        "regionname": "Rajkot Region",
        "circlename": "Gujarat Circle",
        "latitude": "21.7530630",
        "longitude": "70.5696270"
      },
      {
        "officename": "Rabarika BO",
        "officetype": "BO",
        "delivery": "Delivery",
        "divisionname": "Gondal Division",
        "regionname": "Rajkot Region",
        "circlename": "Gujarat Circle",
        "latitude": "20.9686270",
        "longitude": "71.1463370"
      },
      {
        "officename": "Samadhiyala BO",
        "officetype": "BO",
        "delivery": "Delivery",
        "divisionname": "Gondal Division",
        "regionname": "Rajkot Region",
        "circlename": "Gujarat Circle",
        "latitude": "22.1874300",
        "longitude": "70.9509650"
      },
      {
        "officename": "Jambudi BO",
        "officetype": "BO",
        "delivery": "Delivery",
        "divisionname": "Gondal Division",
        "regionname": "Rajkot Region",
        "circlename": "Gujarat Circle",
        "latitude": "23.1088680",
        "longitude": "69.7614570"
      },
      {
        "officename": "Mandlikpur BO",
        "officetype": "BO",
        "delivery": "Delivery",
        "divisionname": "Gondal Division",
        "regionname": "Rajkot Region",
        "circlename": "Gujarat Circle",
        "latitude": "21.7419630",
        "longitude": "70.5488040"
      },
      {
        "officename": "Panch Pipla BO",
        "officetype": "BO",
        "delivery": "Delivery",
        "divisionname": "Gondal Division",
        "regionname": "Rajkot Region",
        "circlename": "Gujarat Circle",
        "latitude": "21.7871500",
        "longitude": "70.5562410"
      },
      {
        "officename": "Reshamdi Galol BO",
        "officetype": "BO",
        "delivery": "Delivery",
        "divisionname": "Gondal Division",
        "regionname": "Rajkot Region",
        "circlename": "Gujarat Circle",
        "latitude": "21.6586560",
        "longitude": "70.7227940"
      },
      {
        "officename": "Thana Galol BO",
        "officetype": "BO",
        "delivery": "Delivery",
        "divisionname": "Gondal Division",
        "regionname": "Rajkot Region",
        "circlename": "Gujarat Circle",
        "latitude": "21.6956660",
        "longitude": "70.6881610"
      },
      {
        "officename": "Jetpur FW ND TSO",
        "officetype": "PO",
        "delivery": "Non Delivery",
        "divisionname": "Gondal Division",
        "regionname": "Rajkot Region",
        "circlename": "Gujarat Circle",
        "latitude": "21.7551000",
        "longitude": "70.6203500"
      },
      {
        "officename": "Kharachiya BO",
        "officetype": "BO",
        "delivery": "Delivery",
        "divisionname": "Gondal Division",
        "regionname": "Rajkot Region",
        "circlename": "Gujarat Circle",
        "latitude": "21.7333100",
        "longitude": "70.6166900"
      },
      {
        "officename": "Mevasa BO",
        "officetype": "BO",
        "delivery": "Delivery",
        "divisionname": "Gondal Division",
        "regionname": "Rajkot Region",
        "circlename": "Gujarat Circle",
        "latitude": "21.4016150",
        "longitude": "70.5246340"
      },
      {
        "officename": "Mota Gundala BO",
        "officetype": "BO",
        "delivery": "Delivery",
        "divisionname": "Gondal Division",
        "regionname": "Rajkot Region",
        "circlename": "Gujarat Circle",
        "latitude": "21.7393910",
        "longitude": "70.5041820"
      },
      {
        "officename": "Devki Galol BO",
        "officetype": "BO",
        "delivery": "Delivery",
        "divisionname": "Gondal Division",
        "regionname": "Rajkot Region",
        "circlename": "Gujarat Circle",
        "latitude": "21.7551000",
        "longitude": "70.6203500"
      },
      {
        "officename": "Fareni BO",
        "officetype": "BO",
        "delivery": "Delivery",
        "divisionname": "Gondal Division",
        "regionname": "Rajkot Region",
        "circlename": "Gujarat Circle",
        "latitude": "21.7108280",
        "longitude": "70.5041820"
      },
      {
        "officename": "Kerali BO",
        "officetype": "BO",
        "delivery": "Delivery",
        "divisionname": "Gondal Division",
        "regionname": "Rajkot Region",
        "circlename": "Gujarat Circle",
        "latitude": "21.7333060",
        "longitude": "70.6166940"
      },
      {
        "officename": "Pithadia BO",
        "officetype": "BO",
        "delivery": "Delivery",
        "divisionname": "Gondal Division",
        "regionname": "Rajkot Region",
        "circlename": "Gujarat Circle",
        "latitude": "21.5851920",
        "longitude": "70.9405620"
      },
      {
        "officename": "Premgadh BO",
        "officetype": "BO",
        "delivery": "Delivery",
        "divisionname": "Gondal Division",
        "regionname": "Rajkot Region",
        "circlename": "Gujarat Circle",
        "latitude": "21.8343110",
        "longitude": "70.5681400"
      },
      {
        "officename": "Jetpur SO",
        "officetype": "PO",
        "delivery": "Delivery",
        "divisionname": "Gondal Division",
        "regionname": "Rajkot Region",
        "circlename": "Gujarat Circle",
        "latitude": "21.7615",
        "longitude": "70.6276"
      }
    ]
  },
  "360375": {
    "state": "GUJARAT",
    "district": "RAJKOT",
    "offices": [
      {
        "officename": "Sardharpur BO",
        "officetype": "BO",
        "delivery": "Delivery",
        "divisionname": "Gondal Division",
        "regionname": "Rajkot Region",
        "circlename": "Gujarat Circle",
        "latitude": "21.7849690",
        "longitude": "70.5911920"
      },
      {
        "officename": "Navagadh SO",
        "officetype": "PO",
        "delivery": "Delivery",
        "divisionname": "Gondal Division",
        "regionname": "Rajkot Region",
        "circlename": "Gujarat Circle",
        "latitude": "21.7732222",
        "longitude": "70.6172778"
      }
    ]
  },
  "360380": {
    "state": "GUJARAT",
    "district": "RAJKOT",
    "offices": [
      {
        "officename": "Virpur SO",
        "officetype": "PO",
        "delivery": "Delivery",
        "divisionname": "Gondal Division",
        "regionname": "Rajkot Region",
        "circlename": "Gujarat Circle",
        "latitude": "21.8451667",
        "longitude": "70.6975000"
      },
      {
        "officename": "Kagvad BO",
        "officetype": "BO",
        "delivery": "Delivery",
        "divisionname": "Gondal Division",
        "regionname": "Rajkot Region",
        "circlename": "Gujarat Circle",
        "latitude": "21.8111490",
        "longitude": "70.6893390"
      }
    ]
  },
  "360405": {
    "state": "GUJARAT",
    "district": "RAJKOT",
    "offices": [
      {
        "officename": "Boria BO",
        "officetype": "BO",
        "delivery": "Delivery",
        "divisionname": "Gondal Division",
        "regionname": "Rajkot Region",
        "circlename": "Gujarat Circle",
        "latitude": "21.9155964",
        "longitude": "70.4960704"
      },
      {
        "officename": "Dholidhar BO",
        "officetype": "BO",
        "delivery": "Delivery",
        "divisionname": "Gondal Division",
        "regionname": "Rajkot Region",
        "circlename": "Gujarat Circle",
        "latitude": "21.9080780",
        "longitude": "70.5755760"
      },
      {
        "officename": "Pipardi BO",
        "officetype": "BO",
        "delivery": "Delivery",
        "divisionname": "Gondal Division",
        "regionname": "Rajkot Region",
        "circlename": "Gujarat Circle",
        "latitude": "22.1799500",
        "longitude": "71.4477470"
      },
      {
        "officename": "Sajadiyali BO",
        "officetype": "BO",
        "delivery": "Delivery",
        "divisionname": "Gondal Division",
        "regionname": "Rajkot Region",
        "circlename": "Gujarat Circle",
        "latitude": "21.9365200",
        "longitude": "70.5569850"
      },
      {
        "officename": "Jamkandorna SO",
        "officetype": "PO",
        "delivery": "Delivery",
        "divisionname": "Gondal Division",
        "regionname": "Rajkot Region",
        "circlename": "Gujarat Circle",
        "latitude": "21.8921111",
        "longitude": "70.4927778"
      },
      {
        "officename": "Bhadra BO",
        "officetype": "BO",
        "delivery": "Delivery",
        "divisionname": "Gondal Division",
        "regionname": "Rajkot Region",
        "circlename": "Gujarat Circle",
        "latitude": "21.8973000",
        "longitude": "70.4997000"
      },
      {
        "officename": "Dadvi BO",
        "officetype": "BO",
        "delivery": "Delivery",
        "divisionname": "Gondal Division",
        "regionname": "Rajkot Region",
        "circlename": "Gujarat Circle",
        "latitude": "22.0337430",
        "longitude": "70.4937690"
      },
      {
        "officename": "Vavdi BO",
        "officetype": "BO",
        "delivery": "Delivery",
        "divisionname": "Gondal Division",
        "regionname": "Rajkot Region",
        "circlename": "Gujarat Circle",
        "latitude": "22.2309880",
        "longitude": "70.7971300"
      },
      {
        "officename": "Satodad BO",
        "officetype": "BO",
        "delivery": "Delivery",
        "divisionname": "Gondal Division",
        "regionname": "Rajkot Region",
        "circlename": "Gujarat Circle",
        "latitude": "21.9896470",
        "longitude": "70.4372400"
      }
    ]
  },
  "360410": {
    "state": "GUJARAT",
    "district": "RAJKOT",
    "offices": [
      {
        "officename": "Bhukhi BO",
        "officetype": "BO",
        "delivery": "Delivery",
        "divisionname": "Gondal Division",
        "regionname": "Rajkot Region",
        "circlename": "Gujarat Circle",
        "latitude": "21.7758470",
        "longitude": "70.4402160"
      },
      {
        "officename": "Chhadvavadar BO",
        "officetype": "BO",
        "delivery": "Delivery",
        "divisionname": "Gondal Division",
        "regionname": "Rajkot Region",
        "circlename": "Gujarat Circle",
        "latitude": "21.7167380",
        "longitude": "70.3539240"
      },
      {
        "officename": "Jamnavad BO",
        "officetype": "BO",
        "delivery": "Delivery",
        "divisionname": "Gondal Division",
        "regionname": "Rajkot Region",
        "circlename": "Gujarat Circle",
        "latitude": "21.7011890",
        "longitude": "70.4134370"
      },
      {
        "officename": "Raidi BO",
        "officetype": "BO",
        "delivery": "Delivery",
        "divisionname": "Gondal Division",
        "regionname": "Rajkot Region",
        "circlename": "Gujarat Circle",
        "latitude": "23.5555280",
        "longitude": "86.7554650"
      },
      {
        "officename": "Roghel BO",
        "officetype": "BO",
        "delivery": "Delivery",
        "divisionname": "Gondal Division",
        "regionname": "Rajkot Region",
        "circlename": "Gujarat Circle",
        "latitude": "21.8066000",
        "longitude": "70.4525500"
      },
      {
        "officename": "Chhatrasa BO",
        "officetype": "BO",
        "delivery": "Delivery",
        "divisionname": "Gondal Division",
        "regionname": "Rajkot Region",
        "circlename": "Gujarat Circle",
        "latitude": "21.5448120",
        "longitude": "70.2609230"
      },
      {
        "officename": "Nagalkhada BO",
        "officetype": "BO",
        "delivery": "Delivery",
        "divisionname": "Gondal Division",
        "regionname": "Rajkot Region",
        "circlename": "Gujarat Circle",
        "latitude": "21.6925210",
        "longitude": "70.3077970"
      },
      {
        "officename": "Pipaliya BO",
        "officetype": "BO",
        "delivery": "Delivery",
        "divisionname": "Gondal Division",
        "regionname": "Rajkot Region",
        "circlename": "Gujarat Circle",
        "latitude": "22.0947870",
        "longitude": "70.7746410"
      },
      {
        "officename": "Dhoraji SO",
        "officetype": "PO",
        "delivery": "Delivery",
        "divisionname": "Gondal Division",
        "regionname": "Rajkot Region",
        "circlename": "Gujarat Circle",
        "latitude": "22.2986944",
        "longitude": "70.7997778"
      },
      {
        "officename": "Kalana BO",
        "officetype": "BO",
        "delivery": "Delivery",
        "divisionname": "Gondal Division",
        "regionname": "Rajkot Region",
        "circlename": "Gujarat Circle",
        "latitude": "21.5931990",
        "longitude": "70.2832415"
      },
      {
        "officename": "Chikhaliya BO",
        "officetype": "BO",
        "delivery": "Delivery",
        "divisionname": "Gondal Division",
        "regionname": "Rajkot Region",
        "circlename": "Gujarat Circle",
        "latitude": "22.4809900",
        "longitude": "72.6003330"
      },
      {
        "officename": "Bhader BO",
        "officetype": "BO",
        "delivery": "Delivery",
        "divisionname": "Gondal Division",
        "regionname": "Rajkot Region",
        "circlename": "Gujarat Circle",
        "latitude": "21.3742430",
        "longitude": "70.9413050"
      },
      {
        "officename": "Bhola BO",
        "officetype": "BO",
        "delivery": "Delivery",
        "divisionname": "Gondal Division",
        "regionname": "Rajkot Region",
        "circlename": "Gujarat Circle",
        "latitude": "22.1785310",
        "longitude": "90.7101020"
      },
      {
        "officename": "Dudhivadar BO",
        "officetype": "BO",
        "delivery": "Delivery",
        "divisionname": "Gondal Division",
        "regionname": "Rajkot Region",
        "circlename": "Gujarat Circle",
        "latitude": "21.8487800",
        "longitude": "70.4956170"
      },
      {
        "officename": "Vadodar BO",
        "officetype": "BO",
        "delivery": "Delivery",
        "divisionname": "Gondal Division",
        "regionname": "Rajkot Region",
        "circlename": "Gujarat Circle",
        "latitude": "22.3071590",
        "longitude": "73.1812190"
      },
      {
        "officename": "Dhoraji DG ND TSO",
        "officetype": "PO",
        "delivery": "Non Delivery",
        "divisionname": "Gondal Division",
        "regionname": "Rajkot Region",
        "circlename": "Gujarat Circle",
        "latitude": "21.7389722",
        "longitude": "70.4492222"
      }
    ]
  },
  "360421": {
    "state": "GUJARAT",
    "district": "RAJKOT",
    "offices": [
      {
        "officename": "Bhadajalia BO",
        "officetype": "BO",
        "delivery": "Delivery",
        "divisionname": "Gondal Division",
        "regionname": "Rajkot Region",
        "circlename": "Gujarat Circle",
        "latitude": "21.6921500",
        "longitude": "70.3670000"
      },
      {
        "officename": "Moti Marad SO",
        "officetype": "PO",
        "delivery": "Delivery",
        "divisionname": "Gondal Division",
        "regionname": "Rajkot Region",
        "circlename": "Gujarat Circle",
        "latitude": "21.6799167",
        "longitude": "70.3742500"
      }
    ]
  },
  "360430": {
    "state": "GUJARAT",
    "district": "RAJKOT",
    "offices": [
      {
        "officename": "Patanvav SO",
        "officetype": "PO",
        "delivery": "Delivery",
        "divisionname": "Gondal Division",
        "regionname": "Rajkot Region",
        "circlename": "Gujarat Circle",
        "latitude": "21.6414",
        "longitude": "70.2632"
      },
      {
        "officename": "Chichod BO",
        "officetype": "BO",
        "delivery": "Delivery",
        "divisionname": "Gondal Division",
        "regionname": "Rajkot Region",
        "circlename": "Gujarat Circle",
        "latitude": "21.6340600",
        "longitude": "70.2906850"
      }
    ]
  },
  "360440": {
    "state": "GUJARAT",
    "district": "RAJKOT",
    "offices": [
      {
        "officename": "Dumiyani BO",
        "officetype": "BO",
        "delivery": "Delivery",
        "divisionname": "Gondal Division",
        "regionname": "Rajkot Region",
        "circlename": "Gujarat Circle",
        "latitude": "21.7510270",
        "longitude": "70.3368130"
      },
      {
        "officename": "Moti Vavdi BO",
        "officetype": "BO",
        "delivery": "Delivery",
        "divisionname": "Gondal Division",
        "regionname": "Rajkot Region",
        "circlename": "Gujarat Circle",
        "latitude": "21.6116620",
        "longitude": "71.6464600"
      },
      {
        "officename": "Khajurda BO",
        "officetype": "BO",
        "delivery": "Delivery",
        "divisionname": "Gondal Division",
        "regionname": "Rajkot Region",
        "circlename": "Gujarat Circle",
        "latitude": "21.8000000",
        "longitude": "70.2167000"
      },
      {
        "officename": "Sodvadar BO",
        "officetype": "BO",
        "delivery": "Delivery",
        "divisionname": "Gondal Division",
        "regionname": "Rajkot Region",
        "circlename": "Gujarat Circle",
        "latitude": "21.8507190",
        "longitude": "70.3719910"
      },
      {
        "officename": "Nani Vavdi BO",
        "officetype": "BO",
        "delivery": "Delivery",
        "divisionname": "Gondal Division",
        "regionname": "Rajkot Region",
        "circlename": "Gujarat Circle",
        "latitude": "22.8318400",
        "longitude": "70.7860010"
      },
      {
        "officename": "Zanzmer BO",
        "officetype": "BO",
        "delivery": "Delivery",
        "divisionname": "Gondal Division",
        "regionname": "Rajkot Region",
        "circlename": "Gujarat Circle",
        "latitude": "21.1959660",
        "longitude": "72.0848020"
      },
      {
        "officename": "Supedi SO",
        "officetype": "PO",
        "delivery": "Delivery",
        "divisionname": "Gondal Division",
        "regionname": "Rajkot Region",
        "circlename": "Gujarat Circle",
        "latitude": "21.7641944",
        "longitude": "70.3766944"
      }
    ]
  },
  "360450": {
    "state": "GUJARAT",
    "district": "RAJKOT",
    "offices": [
      {
        "officename": "Sajadiyali BO",
        "officetype": "BO",
        "delivery": "Delivery",
        "divisionname": "Gondal Division",
        "regionname": "Rajkot Region",
        "circlename": "Gujarat Circle",
        "latitude": "21.9365200",
        "longitude": "70.5569850"
      },
      {
        "officename": "Timbdi Jam BO",
        "officetype": "BO",
        "delivery": "Delivery",
        "divisionname": "Gondal Division",
        "regionname": "Rajkot Region",
        "circlename": "Gujarat Circle",
        "latitude": "22.0253000",
        "longitude": "70.5655000"
      },
      {
        "officename": "Arni BO",
        "officetype": "BO",
        "delivery": "Delivery",
        "divisionname": "Gondal Division",
        "regionname": "Rajkot Region",
        "circlename": "Gujarat Circle",
        "latitude": "21.7410340",
        "longitude": "70.2782320"
      },
      {
        "officename": "Khirsara Ghed BO",
        "officetype": "BO",
        "delivery": "Delivery",
        "divisionname": "Gondal Division",
        "regionname": "Rajkot Region",
        "circlename": "Gujarat Circle",
        "latitude": "21.7521970",
        "longitude": "70.7101560"
      },
      {
        "officename": "Vadali BO",
        "officetype": "BO",
        "delivery": "Delivery",
        "divisionname": "Gondal Division",
        "regionname": "Rajkot Region",
        "circlename": "Gujarat Circle",
        "latitude": "23.9419980",
        "longitude": "73.0375760"
      },
      {
        "officename": "Nava Matravad BO",
        "officetype": "BO",
        "delivery": "Delivery",
        "divisionname": "Gondal Division",
        "regionname": "Rajkot Region",
        "circlename": "Gujarat Circle",
        "latitude": "22.0059419",
        "longitude": "70.3152375"
      },
      {
        "officename": "Bhayavadar SO",
        "officetype": "PO",
        "delivery": "Delivery",
        "divisionname": "Gondal Division",
        "regionname": "Rajkot Region",
        "circlename": "Gujarat Circle",
        "latitude": "21.8533333",
        "longitude": "70.2472222"
      }
    ]
  },
  "360452": {
    "state": "GUJARAT",
    "district": "RAJKOT",
    "offices": [
      {
        "officename": "Chavandi BO",
        "officetype": "BO",
        "delivery": "Delivery",
        "divisionname": "Gondal Division",
        "regionname": "Rajkot Region",
        "circlename": "Gujarat Circle",
        "latitude": "22.0235400",
        "longitude": "70.3420210"
      },
      {
        "officename": "Khatli BO",
        "officetype": "BO",
        "delivery": "Delivery",
        "divisionname": "Gondal Division",
        "regionname": "Rajkot Region",
        "circlename": "Gujarat Circle",
        "latitude": "21.9251980",
        "longitude": "70.3777300"
      },
      {
        "officename": "Chitravad SO",
        "officetype": "PO",
        "delivery": "Delivery",
        "divisionname": "Gondal Division",
        "regionname": "Rajkot Region",
        "circlename": "Gujarat Circle",
        "latitude": "21.9577",
        "longitude": "70.3576"
      },
      {
        "officename": "Baradiya BO",
        "officetype": "BO",
        "delivery": "Delivery",
        "divisionname": "Gondal Division",
        "regionname": "Rajkot Region",
        "circlename": "Gujarat Circle",
        "latitude": "21.3229070",
        "longitude": "70.5919360"
      },
      {
        "officename": "Charel BO",
        "officetype": "BO",
        "delivery": "Delivery",
        "divisionname": "Gondal Division",
        "regionname": "Rajkot Region",
        "circlename": "Gujarat Circle",
        "latitude": "21.9509770",
        "longitude": "70.4015350"
      },
      {
        "officename": "Dadar BO",
        "officetype": "BO",
        "delivery": "Delivery",
        "divisionname": "Gondal Division",
        "regionname": "Rajkot Region",
        "circlename": "Gujarat Circle",
        "latitude": "22.0256208",
        "longitude": "70.3702909"
      },
      {
        "officename": "Gundasari BO",
        "officetype": "BO",
        "delivery": "Delivery",
        "divisionname": "Gondal Division",
        "regionname": "Rajkot Region",
        "circlename": "Gujarat Circle",
        "latitude": "22.0135590",
        "longitude": "70.3881450"
      }
    ]
  },
  "360460": {
    "state": "GUJARAT",
    "district": "RAJKOT",
    "offices": [
      {
        "officename": "Dhank SO",
        "officetype": "PO",
        "delivery": "Delivery",
        "divisionname": "Gondal Division",
        "regionname": "Rajkot Region",
        "circlename": "Gujarat Circle",
        "latitude": "21.7803000",
        "longitude": "70.0998990"
      }
    ]
  },
  "360465": {
    "state": "GUJARAT",
    "district": "RAJKOT",
    "offices": [
      {
        "officename": "Moti Khilori B.O",
        "officetype": "BO",
        "delivery": "Delivery",
        "divisionname": "Gondal Division",
        "regionname": "Rajkot Region",
        "circlename": "Gujarat Circle",
        "latitude": "21.800304",
        "longitude": "70.980685"
      },
      {
        "officename": "Derdi Kumbaji S.O",
        "officetype": "PO",
        "delivery": "Delivery",
        "divisionname": "Gondal Division",
        "regionname": "Rajkot Region",
        "circlename": "Gujarat Circle",
        "latitude": "22.2986944",
        "longitude": "70.7997778"
      },
      {
        "officename": "Meta Khambhaliya B.O",
        "officetype": "BO",
        "delivery": "Delivery",
        "divisionname": "Gondal Division",
        "regionname": "Rajkot Region",
        "circlename": "Gujarat Circle",
        "latitude": "21.818941",
        "longitude": "70.956909"
      }
    ]
  },