{
  "180001": {
    "state": "JAMMU AND KASHMIR",
    "district": "JAMMU",
    "offices": [
      {
        "officename": "Bakshinagar SO",
        "officetype": "PO",
        "delivery": "Non Delivery",
        "divisionname": "Jammu Division",
        "regionname": "JAMMU RN",
        "circlename": "Jammu Kashmir Circle",
        "latitude": "32.7378400",
        "longitude": "74.8492510"
      },
      {
        "officename": "OHRoad SO",
        "officetype": "PO",
        "delivery": "Non Delivery",
        "divisionname": "Jammu Division",
        "regionname": "JAMMU RN",
        "circlename": "Jammu Kashmir Circle",
        "latitude": "32.7340300",
        "longitude": "74.8660030"
      },
      {
        "officename": "Jammu Market SO",
        "officetype": "PO",
        "delivery": "Non Delivery",
        "divisionname": "Jammu Division",
        "regionname": "JAMMU RN",
        "circlename": "Jammu Kashmir Circle",
        "latitude": "32.7138790",
        "longitude": "74.8570900"
      },
      {
        "officename": "RNBazar SO",
        "officetype": "PO",
        "delivery": "Non Delivery",
        "divisionname": "Jammu Division",
        "regionname": "JAMMU RN",
        "circlename": "Jammu Kashmir Circle",
        "latitude": "32.7311730",
        "longitude": "74.8636880"
      },
      {
        "officename": "Shaktinagar Jammu SO",
        "officetype": "PO",
        "delivery": "Non Delivery",
        "divisionname": "Jammu Division",
        "regionname": "JAMMU RN",
        "circlename": "Jammu Kashmir Circle",
        "latitude": "32.7360277",
        "longitude": "74.8428888"
      },
      {
        "officename": "Jammu HO",
        "officetype": "HO",
        "delivery": "Delivery",
        "divisionname": "Jammu Division",
        "regionname": "JAMMU RN",
        "circlename": "Jammu Kashmir Circle",
        "latitude": "32.6984722",
        "longitude": "74.8575833"
      },
      {
        "officename": "New Secretariat Jammu SO",
        "officetype": "PO",
        "delivery": "Non Delivery",
        "divisionname": "Jammu Division",
        "regionname": "JAMMU RN",
        "circlename": "Jammu Kashmir Circle",
        "latitude": "32.7358920",
        "longitude": "74.8628240"
      },
      {
        "officename": "Mubarak Mandi SO",
        "officetype": "PO",
        "delivery": "Non Delivery",
        "divisionname": "Jammu Division",
        "regionname": "JAMMU RN",
        "circlename": "Jammu Kashmir Circle",
        "latitude": "32.6984722",
        "longitude": "74.8575833"
      },
      {
        "officename": "Peermitha SO",
        "officetype": "PO",
        "delivery": "Non Delivery",
        "divisionname": "Jammu Division",
        "regionname": "JAMMU RN",
        "circlename": "Jammu Kashmir Circle",
        "latitude": "32.7328370",
        "longitude": "74.8688050"
      }
    ]
  },
  "180002": {
    "state": "JAMMU AND KASHMIR",
    "district": "JAMMU",
    "offices": [
      {
        "officename": "Gho Manhasan BO",
        "officetype": "BO",
        "delivery": "Delivery",
        "divisionname": "Jammu Division",
        "regionname": "JAMMU RN",
        "circlename": "Jammu Kashmir Circle",
        "latitude": "32.7226130",
        "longitude": "74.8375540"
      },
      {
        "officename": "Gol Gujral BO",
        "officetype": "BO",
        "delivery": "Delivery",
        "divisionname": "Jammu Division",
        "regionname": "JAMMU RN",
        "circlename": "Jammu Kashmir Circle",
        "latitude": "32.7231710",
        "longitude": "74.8152270"
      },
      {
        "officename": "Talab Tillo SO",
        "officetype": "PO",
        "delivery": "Delivery",
        "divisionname": "Jammu Division",
        "regionname": "JAMMU RN",
        "circlename": "Jammu Kashmir Circle",
        "latitude": "32.7226130",
        "longitude": "74.8375540"
      },
      {
        "officename": "Bhadrod BO",
        "officetype": "BO",
        "delivery": "Delivery",
        "divisionname": "Jammu Division",
        "regionname": "JAMMU RN",
        "circlename": "Jammu Kashmir Circle",
        "latitude": "32.7139750",
        "longitude": "74.8927540"
      },
      {
        "officename": "Govind Nagar BO",
        "officetype": "BO",
        "delivery": "Delivery",
        "divisionname": "Jammu Division",
        "regionname": "JAMMU RN",
        "circlename": "Jammu Kashmir Circle",
        "latitude": "32.6892980",
        "longitude": "74.8826850"
      },
      {
        "officename": "Akalpur BO",
        "officetype": "BO",
        "delivery": "Delivery",
        "divisionname": "Jammu Division",
        "regionname": "JAMMU RN",
        "circlename": "Jammu Kashmir Circle",
        "latitude": "32.7357930",
        "longitude": "74.8214690"
      },
      {
        "officename": "Sangrampur BO",
        "officetype": "BO",
        "delivery": "Delivery",
        "divisionname": "Jammu Division",
        "regionname": "JAMMU RN",
        "circlename": "Jammu Kashmir Circle",
        "latitude": "32.7583440",
        "longitude": "74.7841440"
      }
    ]
  },
  "180003": {
    "state": "JAMMU AND KASHMIR",
    "district": "JAMMU",
    "offices": [
      {
        "officename": "Mandal BO",
        "officetype": "BO",
        "delivery": "Delivery",
        "divisionname": "Jammu Division",
        "regionname": "JAMMU RN",
        "circlename": "Jammu Kashmir Circle",
        "latitude": "33.8806830",
        "longitude": "75.4363910"
      },
      {
        "officename": "Jammu Cantt SO",
        "officetype": "PO",
        "delivery": "Delivery",
        "divisionname": "Jammu Division",
        "regionname": "JAMMU RN",
        "circlename": "Jammu Kashmir Circle",
        "latitude": "32.6892900",
        "longitude": "74.8331060"
      },
      {
        "officename": "NATC SO",
        "officetype": "PO",
        "delivery": "Non Delivery",
        "divisionname": "Jammu Division",
        "regionname": "JAMMU RN",
        "circlename": "Jammu Kashmir Circle",
        "latitude": "32.6898889",
        "longitude": "74.8366667"
      },
      {
        "officename": "Makwal BO",
        "officetype": "BO",
        "delivery": "Delivery",
        "divisionname": "Jammu Division",
        "regionname": "JAMMU RN",
        "circlename": "Jammu Kashmir Circle",
        "latitude": "32.5214560",
        "longitude": "75.0120150"
      },
      {
        "officename": "Sohanjana BO",
        "officetype": "BO",
        "delivery": "Delivery",
        "divisionname": "Jammu Division",
        "regionname": "JAMMU RN",
        "circlename": "Jammu Kashmir Circle",
        "latitude": "32.8806530",
        "longitude": "75.0521900"
      },
      {
        "officename": "Industrial Estate SO Jammu",
        "officetype": "PO",
        "delivery": "Non Delivery",
        "divisionname": "Jammu Division",
        "regionname": "JAMMU RN",
        "circlename": "Jammu Kashmir Circle",
        "latitude": "32.6748860",
        "longitude": "74.8755660"
      }
    ]
  },
  "180004": {
    "state": "JAMMU AND KASHMIR",
    "district": "JAMMU",
    "offices": [
      {
        "officename": "Guru Nanak Nagar SO Jammu",
        "officetype": "PO",
        "delivery": "Non Delivery",
        "divisionname": "Jammu Division",
        "regionname": "JAMMU RN",
        "circlename": "Jammu Kashmir Circle",
        "latitude": "32.6944510",
        "longitude": "74.8654950"
      },
      {
        "officename": "Gandhinagar HO",
        "officetype": "HO",
        "delivery": "Delivery",
        "divisionname": "Jammu Division",
        "regionname": "JAMMU RN",
        "circlename": "Jammu Kashmir Circle",
        "latitude": "32.6984722",
        "longitude": "74.8575833"
      }
    ]
  },
  "180005": {
    "state": "JAMMU AND KASHMIR",
    "district": "JAMMU",
    "offices": [
      {
        "officename": "Karan Nagar SO Jammu",
        "officetype": "PO",
        "delivery": "Non Delivery",
        "divisionname": "Jammu Division",
        "regionname": "JAMMU RN",
        "circlename": "Jammu Kashmir Circle",
        "latitude": "32.7458730",
        "longitude": "74.8697190"
      },
      {
        "officename": "Subash Nagar Jammu SO",
        "officetype": "PO",
        "delivery": "Non Delivery",
        "divisionname": "Jammu Division",
        "regionname": "JAMMU RN",
        "circlename": "Jammu Kashmir Circle",
        "latitude": "32.7449710",
        "longitude": "74.8455960"
      },
      {
        "officename": "Kotli Colony SO",
        "officetype": "PO",
        "delivery": "Non Delivery",
        "divisionname": "Jammu Division",
        "regionname": "JAMMU RN",
        "circlename": "Jammu Kashmir Circle",
        "latitude": "32.7429444",
        "longitude": "74.8504444"
      },
      {
        "officename": "Rehari Mohalla SO",
        "officetype": "PO",
        "delivery": "Delivery",
        "divisionname": "Jammu Division",
        "regionname": "JAMMU RN",
        "circlename": "Jammu Kashmir Circle",
        "latitude": "32.7449880",
        "longitude": "74.8506790"
      },
      {
        "officename": "Puran Nagar SO",
        "officetype": "PO",
        "delivery": "Non Delivery",
        "divisionname": "Jammu Division",
        "regionname": "JAMMU RN",
        "circlename": "Jammu Kashmir Circle",
        "latitude": "32.7480720",
        "longitude": "74.8607550"
      }
    ]
  },
  "180006": {
    "state": "JAMMU AND KASHMIR",
    "district": "JAMMU",
    "offices": [
      {
        "officename": "New University Campus SO",
        "officetype": "PO",
        "delivery": "Delivery",
        "divisionname": "Jammu Division",
        "regionname": "JAMMU RN",
        "circlename": "Jammu Kashmir Circle",
        "latitude": "32.7193700",
        "longitude": "74.8680630"
      },
      {
        "officename": "Qilla Bahu SO",
        "officetype": "PO",
        "delivery": "Non Delivery",
        "divisionname": "Jammu Division",
        "regionname": "JAMMU RN",
        "circlename": "Jammu Kashmir Circle",
        "latitude": "32.7263020",
        "longitude": "74.8801340"
      }
    ]
  },
  "180007": {
    "state": "JAMMU AND KASHMIR",
    "district": "JAMMU",
    "offices": [
      {
        "officename": "Janipur High Court SO",
        "officetype": "PO",
        "delivery": "Non Delivery",
        "divisionname": "Jammu Division",
        "regionname": "JAMMU RN",
        "circlename": "Jammu Kashmir Circle",
        "latitude": "32.7595650",
        "longitude": "74.8561020"
      },
      {
        "officename": "Janipur SO",
        "officetype": "PO",
        "delivery": "Delivery",
        "divisionname": "Jammu Division",
        "regionname": "JAMMU RN",
        "circlename": "Jammu Kashmir Circle",
        "latitude": "34.7542620",
        "longitude": "74.8594850"
      }
    ]
  },
  "180009": {
    "state": "JAMMU AND KASHMIR",
    "district": "JAMMU",
    "offices": [
      {
        "officename": "SKUASTCHATHA SO",
        "officetype": "PO",
        "delivery": "Delivery",
        "divisionname": "Jammu Division",
        "regionname": "JAMMU RN",
        "circlename": "Jammu Kashmir Circle",
        "latitude": "32.6529150",
        "longitude": "74.8071130"
      }
    ]
  },
  "180010": {
    "state": "JAMMU AND KASHMIR",
    "district": "JAMMU",
    "offices": [
      {
        "officename": "Gangyal SO",
        "officetype": "PO",
        "delivery": "Delivery",
        "divisionname": "Jammu Division",
        "regionname": "JAMMU RN",
        "circlename": "Jammu Kashmir Circle",
        "latitude": "32.6682910",
        "longitude": "74.8667950"
      },
      {
        "officename": "Kalu Chak BO",
        "officetype": "BO",
        "delivery": "Delivery",
        "divisionname": "Jammu Division",
        "regionname": "JAMMU RN",
        "circlename": "Jammu Kashmir Circle",
        "latitude": "32.6682910",
        "longitude": "74.8667950"
      }
    ]
  },
  "180011": {
    "state": "JAMMU AND KASHMIR",
    "district": "JAMMU",
    "offices": [
      {
        "officename": "Sunjwan BO",
        "officetype": "BO",
        "delivery": "Delivery",
        "divisionname": "Jammu Division",
        "regionname": "JAMMU RN",
        "circlename": "Jammu Kashmir Circle",
        "latitude": "32.6938260",
        "longitude": "74.9062620"
      },
      {
        "officename": "Greater Kailash SO",
        "officetype": "PO",
        "delivery": "Non Delivery",
        "divisionname": "Jammu Division",
        "regionname": "JAMMU RN",
        "circlename": "Jammu Kashmir Circle",
        "latitude": "32.6648030",
        "longitude": "74.8945690"
      },
      {
        "officename": "Sainik Colony SO",
        "officetype": "PO",
        "delivery": "Delivery",
        "divisionname": "Jammu Division",
        "regionname": "JAMMU RN",
        "circlename": "Jammu Kashmir Circle",
        "latitude": "32.6724710",
        "longitude": "74.9121080"
      }
    ]
  },
  "180012": {
    "state": "JAMMU AND KASHMIR",
    "district": "JAMMU",
    "offices": [
      {
        "officename": "Meghdoot Bhawan",
        "officetype": "PO",
        "delivery": "Non Delivery",
        "divisionname": "Jammu Division",
        "regionname": "JAMMU RN",
        "circlename": "Jammu Kashmir Circle",
        "latitude": "32.71018622763894",
        "longitude": "74.87953785806894"
      },
      {
        "officename": "Railway Station SO",
        "officetype": "PO",
        "delivery": "Delivery",
        "divisionname": "Jammu Division",
        "regionname": "JAMMU RN",
        "circlename": "Jammu Kashmir Circle",
        "latitude": "32.7059050",
        "longitude": "74.8799670"
      },
      {
        "officename": "New Fruit Market SO",
        "officetype": "PO",
        "delivery": "Non Delivery",
        "divisionname": "Jammu Division",
        "regionname": "JAMMU RN",
        "circlename": "Jammu Kashmir Circle",
        "latitude": "32.7159870",
        "longitude": "74.8799690"
      }
    ]
  },
  "180013": {
    "state": "JAMMU AND KASHMIR",
    "district": "JAMMU",
    "offices": [
      {
        "officename": "Roopnagar Jammu Tawi SO",
        "officetype": "PO",
        "delivery": "Delivery",
        "divisionname": "Jammu Division",
        "regionname": "JAMMU RN",
        "circlename": "Jammu Kashmir Circle",
        "latitude": "32.7723110",
        "longitude": "74.8398210"
      }
    ]
  },
  "180015": {
    "state": "JAMMU AND KASHMIR",
    "district": "JAMMU",
    "offices": [
      {
        "officename": "Chani Himat SO",
        "officetype": "PO",
        "delivery": "Delivery",
        "divisionname": "Jammu Division",
        "regionname": "JAMMU RN",
        "circlename": "Jammu Kashmir Circle",
        "latitude": "32.6923920",
        "longitude": "74.8945690"
      }
    ]
  },
  "180016": {
    "state": "JAMMU AND KASHMIR",
    "district": "JAMMU",
    "offices": [
      {
        "officename": "Vinaik Bazar SO",
        "officetype": "PO",
        "delivery": "Delivery",
        "divisionname": "Jammu Division",
        "regionname": "JAMMU RN",
        "circlename": "Jammu Kashmir Circle",
        "latitude": "32.7305120",
        "longitude": "74.8674950"
      },
      {
        "officename": "Krishna Nagar SO Jammu",
        "officetype": "PO",
        "delivery": "Non Delivery",
        "divisionname": "Jammu Division",
        "regionname": "JAMMU RN",
        "circlename": "Jammu Kashmir Circle",
        "latitude": "32.7335010",
        "longitude": "74.8515800"
      }
    ]
  },
  "180017": {
    "state": "JAMMU AND KASHMIR",
    "district": "JAMMU",
    "offices": [
      {
        "officename": "Aitham BO",
        "officetype": "BO",
        "delivery": "Delivery",
        "divisionname": "Jammu Division",
        "regionname": "JAMMU RN",
        "circlename": "Jammu Kashmir Circle",
        "latitude": "32.7446050",
        "longitude": "74.9778870"
      },
      {
        "officename": "Kana Chirgal BO",
        "officetype": "BO",
        "delivery": "Delivery",
        "divisionname": "Jammu Division",
        "regionname": "JAMMU RN",
        "circlename": "Jammu Kashmir Circle",
        "latitude": "32.7360560",
        "longitude": "74.9235610"
      },
      {
        "officename": "Majeen SO",
        "officetype": "PO",
        "delivery": "Delivery",
        "divisionname": "Jammu Division",
        "regionname": "JAMMU RN",
        "circlename": "Jammu Kashmir Circle",
        "latitude": "32.7513889",
        "longitude": "74.9083333"
      },
      {
        "officename": "Bain Bajalta BO",
        "officetype": "BO",
        "delivery": "Delivery",
        "divisionname": "Jammu Division",
        "regionname": "JAMMU RN",
        "circlename": "Jammu Kashmir Circle",
        "latitude": "32.7621690",
        "longitude": "74.9520670"
      },
      {
        "officename": "Surinsar BO",
        "officetype": "BO",
        "delivery": "Delivery",
        "divisionname": "Jammu Division",
        "regionname": "JAMMU RN",
        "circlename": "Jammu Kashmir Circle",
        "latitude": "32.7605320",
        "longitude": "74.9397970"
      }
    ]
  },
  "180018": {
    "state": "JAMMU AND KASHMIR",
    "district": "JAMMU",
    "offices": [
      {
        "officename": "Udheywala SO",
        "officetype": "PO",
        "delivery": "Delivery",
        "divisionname": "Jammu Division",
        "regionname": "JAMMU RN",
        "circlename": "Jammu Kashmir Circle",
        "latitude": "32.7435780",
        "longitude": "74.8119640"
      }
    ]
  },
  "180019": {
    "state": "JAMMU AND KASHMIR",
    "district": "JAMMU",
    "offices": [
      {
        "officename": "Sidhra Housing colony",
        "officetype": "PO",
        "delivery": "Delivery",
        "divisionname": "Jammu Division",
        "regionname": "JAMMU RN",
        "circlename": "Jammu Kashmir Circle",
        "latitude": "32.7296500",
        "longitude": "74.8065900"
      }
    ]
  },
  "180020": {
    "state": "JAMMU AND KASHMIR",
    "district": "JAMMU",
    "offices": [
      {
        "officename": "TRIKUTA NAGAR",
        "officetype": "PO",
        "delivery": "Delivery",
        "divisionname": "Jammu Division",
        "regionname": "JAMMU RN",
        "circlename": "Jammu Kashmir Circle",
        "latitude": "32.6957500",
        "longitude": "74.8755600"
      }
    ]
  },
  "181008": {
    "state": "JAMMU AND KASHMIR",
    "district": "JAMMU",
    "offices": [
      {
        "officename": "Raipur Satwari",
        "officetype": "PO",
        "delivery": "Delivery",
        "divisionname": "Jammu Division",
        "regionname": "JAMMU RN",
        "circlename": "Jammu Kashmir Circle",
        "latitude": "32.692423",
        "longitude": "74.82747"
      }
    ]
  },
  "181101": {
    "state": "JAMMU AND KASHMIR",
    "district": "JAMMU",
    "offices": [
      {
        "officename": "Khour Devian BO",
        "officetype": "BO",
        "delivery": "Delivery",
        "divisionname": "Jammu Division",
        "regionname": "JAMMU RN",
        "circlename": "Jammu Kashmir Circle",
        "latitude": "32.5492010",
        "longitude": "74.2015800"
      },
      {
        "officename": "Rattisn BO",
        "officetype": "BO",
        "delivery": "Delivery",
        "divisionname": "Jammu Division",
        "regionname": "JAMMU RN",
        "circlename": "Jammu Kashmir Circle",
        "latitude": "32.6435240",
        "longitude": "74.8140430"
      },
      {
        "officename": "Gadigarh BO",
        "officetype": "BO",
        "delivery": "Delivery",
        "divisionname": "Jammu Division",
        "regionname": "JAMMU RN",
        "circlename": "Jammu Kashmir Circle",
        "latitude": "32.6775290",
        "longitude": "74.8521750"
      },
      {
        "officename": "Kirpind BO",
        "officetype": "BO",
        "delivery": "Delivery",
        "divisionname": "Jammu Division",
        "regionname": "JAMMU RN",
        "circlename": "Jammu Kashmir Circle",
        "latitude": "32.6444190",
        "longitude": "74.8185450"
      },
      {
        "officename": "Langotian BO",
        "officetype": "BO",
        "delivery": "Delivery",
        "divisionname": "Jammu Division",
        "regionname": "JAMMU RN",
        "circlename": "Jammu Kashmir Circle",
        "latitude": "32.5864550",
        "longitude": "74.7849070"
      },
      {
        "officename": "Bhour Camp BO",
        "officetype": "BO",
        "delivery": "Delivery",
        "divisionname": "Jammu Division",
        "regionname": "JAMMU RN",
        "circlename": "Jammu Kashmir Circle",
        "latitude": "32.4601620",
        "longitude": "74.2029980"
      },
      {
        "officename": "Simble Camp BO",
        "officetype": "BO",
        "delivery": "Delivery",
        "divisionname": "Jammu Division",
        "regionname": "JAMMU RN",
        "circlename": "Jammu Kashmir Circle",
        "latitude": "32.7152150",
        "longitude": "74.2312300"
      },
      {
        "officename": "Miran Sahib SO",
        "officetype": "PO",
        "delivery": "Delivery",
        "divisionname": "Jammu Division",
        "regionname": "JAMMU RN",
        "circlename": "Jammu Kashmir Circle",
        "latitude": "32.6444190",
        "longitude": "74.8158450"
      }
    ]
  },
  "181102": {
    "state": "JAMMU AND KASHMIR",
    "district": "JAMMU",
    "offices": [
      {
        "officename": "Agra Chak BO",
        "officetype": "BO",
        "delivery": "Delivery",
        "divisionname": "Jammu Division",
        "regionname": "JAMMU RN",
        "circlename": "Jammu Kashmir Circle",
        "latitude": "32.5828840",
        "longitude": "74.6781000"
      },
      {
        "officename": "Faloura BO",
        "officetype": "BO",
        "delivery": "Delivery",
        "divisionname": "Jammu Division",
        "regionname": "JAMMU RN",
        "circlename": "Jammu Kashmir Circle",
        "latitude": "32.6219570",
        "longitude": "74.2598500"
      },
      {
        "officename": "Kotlishah Daula BO",
        "officetype": "BO",
        "delivery": "Delivery",
        "divisionname": "Jammu Division",
        "regionname": "JAMMU RN",
        "circlename": "Jammu Kashmir Circle",
        "latitude": "32.6219770",
        "longitude": "74.7574030"
      },
      {
        "officename": "Rangpur Malania BO",
        "officetype": "BO",
        "delivery": "Delivery",
        "divisionname": "Jammu Division",
        "regionname": "JAMMU RN",
        "circlename": "Jammu Kashmir Circle",
        "latitude": "32.5711490",
        "longitude": "74.6676040"
      },
      {
        "officename": "Jassore BO",
        "officetype": "BO",
        "delivery": "Delivery",
        "divisionname": "Jammu Division",
        "regionname": "JAMMU RN",
        "circlename": "Jammu Kashmir Circle",
        "latitude": "32.1634010",
        "longitude": "75.2181660"
      },
      {
        "officename": "Suchetgarh BO",
        "officetype": "BO",
        "delivery": "Delivery",
        "divisionname": "Jammu Division",
        "regionname": "JAMMU RN",
        "circlename": "Jammu Kashmir Circle",
        "latitude": "32.5711490",
        "longitude": "76.6676040"
      },
      {
        "officename": "RSPura Adda SO",
        "officetype": "PO",
        "delivery": "Non Delivery",
        "divisionname": "Jammu Division",
        "regionname": "JAMMU RN",
        "circlename": "Jammu Kashmir Circle",
        "latitude": "32.6053889",
        "longitude": "74.8500000"
      },
      {
        "officename": "Badyal Brahmna BO",
        "officetype": "BO",
        "delivery": "Delivery",
        "divisionname": "Jammu Division",
        "regionname": "JAMMU RN",
        "circlename": "Jammu Kashmir Circle",
        "latitude": "32.6219457",
        "longitude": "74.6982152"
      },
      {
        "officename": "Chandu Chak BO",
        "officetype": "BO",
        "delivery": "Delivery",
        "divisionname": "Jammu Division",
        "regionname": "JAMMU RN",
        "circlename": "Jammu Kashmir Circle",
        "latitude": "32.6147200",
        "longitude": "74.5956820"
      },
      {
        "officename": "Chohala BO",
        "officetype": "BO",
        "delivery": "Delivery",
        "divisionname": "Jammu Division",
        "regionname": "JAMMU RN",
        "circlename": "Jammu Kashmir Circle",
        "latitude": "32.6027130",
        "longitude": "74.7597840"
      },
      {
        "officename": "Satrayan BO",
        "officetype": "BO",
        "delivery": "Delivery",
        "divisionname": "Jammu Division",
        "regionname": "JAMMU RN",
        "circlename": "Jammu Kashmir Circle",
        "latitude": "32.5672140",
        "longitude": "75.6102790"
      },
      {
        "officename": "Shamka BO",
        "officetype": "BO",
        "delivery": "Delivery",
        "divisionname": "Jammu Division",
        "regionname": "JAMMU RN",
        "circlename": "Jammu Kashmir Circle",
        "latitude": "32.5521770",
        "longitude": "74.8689210"
      },
      {
        "officename": "Chakrohi BO",
        "officetype": "BO",
        "delivery": "Delivery",
        "divisionname": "Jammu Division",
        "regionname": "JAMMU RN",
        "circlename": "Jammu Kashmir Circle",
        "latitude": "32.5140000",
        "longitude": "74.6846860"
      },
      {
        "officename": "Gharana BO",
        "officetype": "BO",
        "delivery": "Delivery",
        "divisionname": "Jammu Division",
        "regionname": "JAMMU RN",
        "circlename": "Jammu Kashmir Circle",
        "latitude": "32.8595240",
        "longitude": "72.3215420"
      },
      {
        "officename": "RSPura SO",
        "officetype": "PO",
        "delivery": "Delivery",
        "divisionname": "Jammu Division",
        "regionname": "JAMMU RN",
        "circlename": "Jammu Kashmir Circle",
        "latitude": "32.6048990",
        "longitude": "74.7315310"
      }
    ]
  },
  "181111": {
    "state": "JAMMU AND KASHMIR",
    "district": "JAMMU",
    "offices": [
      {
        "officename": "Dablehar SO",
        "officetype": "PO",
        "delivery": "Delivery",
        "divisionname": "Jammu Division",
        "regionname": "JAMMU RN",
        "circlename": "Jammu Kashmir Circle",
        "latitude": "32.5395290",
        "longitude": "74.7317340"
      },
      {
        "officename": "Goondla BO",
        "officetype": "BO",
        "delivery": "Delivery",
        "divisionname": "Jammu Division",
        "regionname": "JAMMU RN",
        "circlename": "Jammu Kashmir Circle",
        "latitude": "32.5021900",
        "longitude": "74.1725630"
      },
      {
        "officename": "Magowali BO",
        "officetype": "BO",
        "delivery": "Delivery",
        "divisionname": "Jammu Division",
        "regionname": "JAMMU RN",
        "circlename": "Jammu Kashmir Circle",
        "latitude": "32.5154680",
        "longitude": "74.7132220"
      },
      {
        "officename": "Rathana BO",
        "officetype": "BO",
        "delivery": "Delivery",
        "divisionname": "Jammu Division",
        "regionname": "JAMMU RN",
        "circlename": "Jammu Kashmir Circle",
        "latitude": "32.5398780",
        "longitude": "74.7878320"
      },
      {
        "officename": "Salehar BO",
        "officetype": "BO",
        "delivery": "Delivery",
        "divisionname": "Jammu Division",
        "regionname": "JAMMU RN",
        "circlename": "Jammu Kashmir Circle",
        "latitude": "32.5604110",
        "longitude": "74.8200070"
      }
    ]
  },
  "181121": {
    "state": "JAMMU AND KASHMIR",
    "district": "JAMMU",
    "offices": [
      {
        "officename": "AGOffice BO",
        "officetype": "BO",
        "delivery": "Delivery",
        "divisionname": "Jammu Division",
        "regionname": "JAMMU RN",
        "circlename": "Jammu Kashmir Circle",
        "latitude": "32.7373760",
        "longitude": "74.8378570"
      },
      {
        "officename": "Paloura SO",
        "officetype": "PO",
        "delivery": "Delivery",
        "divisionname": "Jammu Division",
        "regionname": "JAMMU RN",
        "circlename": "Jammu Kashmir Circle",
        "latitude": "32.7554490",
        "longitude": "74.8243940"
      },
      {
        "officename": "Topsherkhania BO",
        "officetype": "BO",
        "delivery": "Delivery",
        "divisionname": "Jammu Division",
        "regionname": "JAMMU RN",
        "circlename": "Jammu Kashmir Circle",
        "latitude": "32.7483850",
        "longitude": "74.8397470"
      }
    ]
  },
  "181122": {
    "state": "JAMMU AND KASHMIR",
    "district": "JAMMU",
    "offices": [
      {
        "officename": "Ranjan BO",
        "officetype": "BO",
        "delivery": "Delivery",
        "divisionname": "Jammu Division",
        "regionname": "JAMMU RN",
        "circlename": "Jammu Kashmir Circle",
        "latitude": "32.8694060",
        "longitude": "74.7658920"
      },
      {
        "officename": "Gharota BO",
        "officetype": "BO",
        "delivery": "Delivery",
        "divisionname": "Jammu Division",
        "regionname": "JAMMU RN",
        "circlename": "Jammu Kashmir Circle",
        "latitude": "32.8564200",
        "longitude": "74.7278540"
      },
      {
        "officename": "Rabta BO",
        "officetype": "BO",
        "delivery": "Delivery",
        "divisionname": "Jammu Division",
        "regionname": "JAMMU RN",
        "circlename": "Jammu Kashmir Circle",
        "latitude": "32.8194620",
        "longitude": "74.7435210"
      },
      {
        "officename": "Sarote BO",
        "officetype": "BO",
        "delivery": "Delivery",
        "divisionname": "Jammu Division",
        "regionname": "JAMMU RN",
        "circlename": "Jammu Kashmir Circle",
        "latitude": "32.8340690",
        "longitude": "74.8327540"
      },
      {
        "officename": "Seri Panditan BO",
        "officetype": "BO",
        "delivery": "Delivery",
        "divisionname": "Jammu Division",
        "regionname": "JAMMU RN",
        "circlename": "Jammu Kashmir Circle",
        "latitude": "32.8823790",
        "longitude": "74.8039210"
      },
      {
        "officename": "Kot BO",
        "officetype": "BO",
        "delivery": "Delivery",
        "divisionname": "Jammu Division",
        "regionname": "JAMMU RN",
        "circlename": "Jammu Kashmir Circle",
        "latitude": "32.8160240",
        "longitude": "74.8184070"
      },
      {
        "officename": "Bhalwal SO",
        "officetype": "PO",
        "delivery": "Delivery",
        "divisionname": "Jammu Division",
        "regionname": "JAMMU RN",
        "circlename": "Jammu Kashmir Circle",
        "latitude": "32.8094800",
        "longitude": "74.7684450"
      },
      {
        "officename": "Baran BO",
        "officetype": "BO",
        "delivery": "Delivery",
        "divisionname": "Jammu Division",
        "regionname": "JAMMU RN",
        "circlename": "Jammu Kashmir Circle",
        "latitude": "32.8239010",
        "longitude": "74.7541890"
      },
      {
        "officename": "Jandial BO",
        "officetype": "BO",
        "delivery": "Delivery",
        "divisionname": "Jammu Division",
        "regionname": "JAMMU RN",
        "circlename": "Jammu Kashmir Circle",
        "latitude": "32.8293420",
        "longitude": "74.6542130"
      }
    ]
  },
  "181123": {
    "state": "JAMMU AND KASHMIR",
    "district": "JAMMU",
    "offices": [
      {
        "officename": "Raipur BO",
        "officetype": "BO",
        "delivery": "Delivery",
        "divisionname": "Jammu Division",
        "regionname": "JAMMU RN",
        "circlename": "Jammu Kashmir Circle",
        "latitude": "32.7883250",
        "longitude": "74.8226020"
      },
      {
        "officename": "Bantalab SO",
        "officetype": "PO",
        "delivery": "Delivery",
        "divisionname": "Jammu Division",
        "regionname": "JAMMU RN",
        "circlename": "Jammu Kashmir Circle",
        "latitude": "32.7843500",
        "longitude": "74.8237030"
      }
    ]
  },
  "181124": {
    "state": "JAMMU AND KASHMIR",
    "district": "JAMMU",
    "offices": [
      {
        "officename": "Bsf Camp Paloura SO",
        "officetype": "PO",
        "delivery": "Delivery",
        "divisionname": "Jammu Division",
        "regionname": "JAMMU RN",
        "circlename": "Jammu Kashmir Circle",
        "latitude": "32.7506480",
        "longitude": "74.8203270"
      }
    ]
  },
  "181131": {
    "state": "JAMMU AND KASHMIR",
    "district": "JAMMU",
    "offices": [
      {
        "officename": "Adlehar BO",
        "officetype": "BO",
        "delivery": "Delivery",
        "divisionname": "Jammu Division",
        "regionname": "JAMMU RN",
        "circlename": "Jammu Kashmir Circle",
        "latitude": "32.5013260",
        "longitude": "74.8112330"
      },
      {
        "officename": "Allah BO",
        "officetype": "BO",
        "delivery": "Delivery",
        "divisionname": "Jammu Division",
        "regionname": "JAMMU RN",
        "circlename": "Jammu Kashmir Circle",
        "latitude": "32.5012360",
        "longitude": "74.0258500"
      },
      {
        "officename": "Rangpur Trewa BO",
        "officetype": "BO",
        "delivery": "Delivery",
        "divisionname": "Jammu Division",
        "regionname": "JAMMU RN",
        "circlename": "Jammu Kashmir Circle",
        "latitude": "32.4215200",
        "longitude": "72.1362520"
      },
      {
        "officename": "Kalyana BO",
        "officetype": "BO",
        "delivery": "Delivery",
        "divisionname": "Jammu Division",
        "regionname": "JAMMU RN",
        "circlename": "Jammu Kashmir Circle",
        "latitude": "32.5192240",
        "longitude": "74.7995330"
      },
      {
        "officename": "Pindicharka Kalan BO",
        "officetype": "BO",
        "delivery": "Delivery",
        "divisionname": "Jammu Division",
        "regionname": "JAMMU RN",
        "circlename": "Jammu Kashmir Circle",
        "latitude": "32.2438100",
        "longitude": "74.1365260"
      },
      {
        "officename": "Sai Kalan BO",
        "officetype": "BO",
        "delivery": "Delivery",
        "divisionname": "Jammu Division",
        "regionname": "JAMMU RN",
        "circlename": "Jammu Kashmir Circle",
        "latitude": "24.6808110",
        "longitude": "73.2028100"
      },
      {
        "officename": "Talhar BO",
        "officetype": "BO",
        "delivery": "Delivery",
        "divisionname": "Jammu Division",
        "regionname": "JAMMU RN",
        "circlename": "Jammu Kashmir Circle",
        "latitude": "32.5156180",
        "longitude": "74.7702800"
      },
      {
        "officename": "Arnia SO",
        "officetype": "PO",
        "delivery": "Delivery",
        "divisionname": "Jammu Division",
        "regionname": "JAMMU RN",
        "circlename": "Jammu Kashmir Circle",
        "latitude": "32.5192240",
        "longitude": "74.7995330"
      },
      {
        "officename": "Parlah BO",
        "officetype": "BO",
        "delivery": "Delivery",
        "divisionname": "Jammu Division",
        "regionname": "JAMMU RN",
        "circlename": "Jammu Kashmir Circle",
        "latitude": "32.4940970",
        "longitude": "74.7190750"
      },
      {
        "officename": "Kool Kalan BO",
        "officetype": "BO",
        "delivery": "Delivery",
        "divisionname": "Jammu Division",
        "regionname": "JAMMU RN",
        "circlename": "Jammu Kashmir Circle",
        "latitude": "32.5192240",
        "longitude": "74.7995330"
      }
    ]
  },
  "181132": {
    "state": "JAMMU AND KASHMIR",
    "district": "JAMMU",
    "offices": [
      {
        "officename": "Deoli BO",
        "officetype": "BO",
        "delivery": "Delivery",
        "divisionname": "Jammu Division",
        "regionname": "JAMMU RN",
        "circlename": "Jammu Kashmir Circle",
        "latitude": "25.7582180",
        "longitude": "75.3818160"
      },
      {
        "officename": "Rehal BO",
        "officetype": "BO",
        "delivery": "Delivery",
        "divisionname": "Jammu Division",
        "regionname": "JAMMU RN",
        "circlename": "Jammu Kashmir Circle",
        "latitude": "32.5617120",
        "longitude": "74.8755660"
      },
      {
        "officename": "Bishnah SO",
        "officetype": "PO",
        "delivery": "Non Delivery",
        "divisionname": "Jammu Division",
        "regionname": "JAMMU RN",
        "circlename": "Jammu Kashmir Circle",
        "latitude": "32.6108190",
        "longitude": "74.8594850"
      },
      {
        "officename": "Kanhal BO",
        "officetype": "BO",
        "delivery": "Delivery",
        "divisionname": "Jammu Division",
        "regionname": "JAMMU RN",
        "circlename": "Jammu Kashmir Circle",
        "latitude": "32.5961220",
        "longitude": "74.8353610"
      },
      {
        "officename": "Kheri BO",
        "officetype": "BO",
        "delivery": "Delivery",
        "divisionname": "Jammu Division",
        "regionname": "JAMMU RN",
        "circlename": "Jammu Kashmir Circle",
        "latitude": "32.6108190",
        "longitude": "74.8594850"
      },
      {
        "officename": "Kotli Mian Fateh BO",
        "officetype": "BO",
        "delivery": "Delivery",
        "divisionname": "Jammu Division",
        "regionname": "JAMMU RN",
        "circlename": "Jammu Kashmir Circle",
        "latitude": "32.6308640",
        "longitude": "74.8317050"
      },
      {
        "officename": "Banachak BO",
        "officetype": "BO",
        "delivery": "Delivery",
        "divisionname": "Jammu Division",
        "regionname": "JAMMU RN",
        "circlename": "Jammu Kashmir Circle",
        "latitude": "32.6031000",
        "longitude": "74.8781250"
      },
      {
        "officename": "Chak Umrah BO",
        "officetype": "BO",
        "delivery": "Delivery",
        "divisionname": "Jammu Division",
        "regionname": "JAMMU RN",
        "circlename": "Jammu Kashmir Circle",
        "latitude": "32.5271310",
        "longitude": "74.8638710"
      },
      {
        "officename": "Darap BO",
        "officetype": "BO",
        "delivery": "Delivery",
        "divisionname": "Jammu Division",
        "regionname": "JAMMU RN",
        "circlename": "Jammu Kashmir Circle",
        "latitude": "32.3063260",
        "longitude": "75.1862220"
      },
      {
        "officename": "Palli BO",
        "officetype": "BO",
        "delivery": "Delivery",
        "divisionname": "Jammu Division",
        "regionname": "JAMMU RN",
        "circlename": "Jammu Kashmir Circle",
        "latitude": "32.6108190",
        "longitude": "74.8594850"
      },
      {
        "officename": "Pandorian Manhasan BO",
        "officetype": "BO",
        "delivery": "Delivery",
        "divisionname": "Jammu Division",
        "regionname": "JAMMU RN",
        "circlename": "Jammu Kashmir Circle",
        "latitude": "32.6321020",
        "longitude": "74.2012520"
      },
      {
        "officename": "Bishnah Adda SO",
        "officetype": "PO",
        "delivery": "Delivery",
        "divisionname": "Jammu Division",
        "regionname": "JAMMU RN",
        "circlename": "Jammu Kashmir Circle",
        "latitude": "32.6108190",
        "longitude": "74.8549485"
      }
    ]
  },
  "181133": {
    "state": "JAMMU AND KASHMIR",
    "district": "SAMBA",
    "offices": [
      {
        "officename": "Birpur BO",
        "officetype": "BO",
        "delivery": "Delivery",
        "divisionname": "Jammu Division",
        "regionname": "JAMMU RN",
        "circlename": "Jammu Kashmir Circle",
        "latitude": "32.6365220",
        "longitude": "74.9141350"
      },
      {
        "officename": "Smailpur BO",
        "officetype": "BO",
        "delivery": "Delivery",
        "divisionname": "Jammu Division",
        "regionname": "JAMMU RN",
        "circlename": "Jammu Kashmir Circle",
        "latitude": "32.6291610",
        "longitude": "74.9616850"
      },
      {
        "officename": "Tarore BO",
        "officetype": "BO",
        "delivery": "Delivery",
        "divisionname": "Jammu Division",
        "regionname": "JAMMU RN",
        "circlename": "Jammu Kashmir Circle",
        "latitude": "32.5415400",
        "longitude": "74.2651450"
      },
      {
        "officename": "Sarore BO",
        "officetype": "BO",
        "delivery": "Delivery",
        "divisionname": "Jammu Division",
        "regionname": "JAMMU RN",
        "circlename": "Jammu Kashmir Circle",
        "latitude": "32.6297690",
        "longitude": "74.8901840"
      },
      {
        "officename": "Bari Brahmna Icomplex SO",
        "officetype": "PO",
        "delivery": "Delivery",
        "divisionname": "Jammu Division",
        "regionname": "JAMMU RN",
        "circlename": "Jammu Kashmir Circle",
        "latitude": "32.6446910",
        "longitude": "74.8997270"
      },
      {
        "officename": "Bari Brahmna SO",
        "officetype": "PO",
        "delivery": "Non Delivery",
        "divisionname": "Jammu Division",
        "regionname": "JAMMU RN",
        "circlename": "Jammu Kashmir Circle",
        "latitude": "32.6365220",
        "longitude": "74.9141350"
      }
    ]
  },
  "181134": {
    "state": "JAMMU AND KASHMIR",
    "district": "JAMMU",
    "offices": [
      {
        "officename": "AIIMS Vijaypur",
        "officetype": "PO",
        "delivery": "Delivery",
        "divisionname": "Jammu Division",
        "regionname": "DivReportingCircle",
        "circlename": "Jammu Kashmir Circle",
        "latitude": "32.564468",
        "longitude": "75.0356005"
      }
    ]
  },
  "181141": {
    "state": "JAMMU AND KASHMIR",
    "district": "SAMBA",
    "offices": [
      {
        "officename": "Abtal BO",
        "officetype": "BO",
        "delivery": "Delivery",
        "divisionname": "Jammu Division",
        "regionname": "JAMMU RN",
        "circlename": "Jammu Kashmir Circle",
        "latitude": "32.4894350",
        "longitude": "74.9256270"
      },
      {
        "officename": "Chak Chimna BO",
        "officetype": "BO",
        "delivery": "Delivery",
        "divisionname": "Jammu Division",
        "regionname": "JAMMU RN",
        "circlename": "Jammu Kashmir Circle",
        "latitude": "32.1354770",
        "longitude": "75.6120790"
      },
      {
        "officename": "Nanga BO",
        "officetype": "BO",
        "delivery": "Delivery",
        "divisionname": "Jammu Division",
        "regionname": "JAMMU RN",
        "circlename": "Jammu Kashmir Circle",
        "latitude": "32.4667270",
        "longitude": "74.9571230"
      },
      {
        "officename": "Ramgarh SO Jammu",
        "officetype": "PO",
        "delivery": "Delivery",
        "divisionname": "Jammu Division",
        "regionname": "JAMMU RN",
        "circlename": "Jammu Kashmir Circle",
        "latitude": "32.8918930",
        "longitude": "74.7585780"
      },
      {
        "officename": "Kesomanhasan BO",
        "officetype": "BO",
        "delivery": "Delivery",
        "divisionname": "Jammu Division",
        "regionname": "JAMMU RN",
        "circlename": "Jammu Kashmir Circle",
        "latitude": "32.5076740",
        "longitude": "74.9647150"
      },
      {
        "officename": "Nandpur BO",
        "officetype": "BO",
        "delivery": "Delivery",
        "divisionname": "Jammu Division",
        "regionname": "JAMMU RN",
        "circlename": "Jammu Kashmir Circle",
        "latitude": "32.7009010",
        "longitude": "75.5040200"
      }
    ]
  },
  "181143": {
    "state": "JAMMU AND KASHMIR",
    "district": "SAMBA",
    "offices": [
      {
        "officename": "Rahya BO",
        "officetype": "BO",
        "delivery": "Delivery",
        "divisionname": "Jammu Division",
        "regionname": "JAMMU RN",
        "circlename": "Jammu Kashmir Circle",
        "latitude": "32.6225810",
        "longitude": "74.9927050"
      },
      {
        "officename": "Rajinderpura BO",
        "officetype": "BO",
        "delivery": "Delivery",
        "divisionname": "Jammu Division",
        "regionname": "JAMMU RN",
        "circlename": "Jammu Kashmir Circle",
        "latitude": "32.2668510",
        "longitude": "74.5967050"
      },
      {
        "officename": "CENTRAL UNIVERSITY BO",
        "officetype": "BO",
        "delivery": "Delivery",
        "divisionname": "Jammu Division",
        "regionname": "JAMMU RN",
        "circlename": "Jammu Kashmir Circle",
        "latitude": "NA",
        "longitude": "NA"
      },
      {
        "officename": "Gurah Salathia SO",
        "officetype": "PO",
        "delivery": "Delivery",
        "divisionname": "Jammu Division",
        "regionname": "JAMMU RN",
        "circlename": "Jammu Kashmir Circle",
        "latitude": "32.6047778",
        "longitude": "75.0431389"
      }
    ]
  },
  "181145": {
    "state": "JAMMU AND KASHMIR",
    "district": "SAMBA",
    "offices": [
      {
        "officename": "Khara Madana BO",
        "officetype": "BO",
        "delivery": "Delivery",
        "divisionname": "Jammu Division",
        "regionname": "JAMMU RN",
        "circlename": "Jammu Kashmir Circle",
        "latitude": "32.6814870",
        "longitude": "75.0085400"
      },
      {
        "officename": "Mandal BO",
        "officetype": "BO",
        "delivery": "Delivery",
        "divisionname": "Jammu Division",
        "regionname": "JAMMU RN",
        "circlename": "Jammu Kashmir Circle",
        "latitude": "32.8806830",
        "longitude": "75.4363910"
      },
      {
        "officename": "Utter Behni BO",
        "officetype": "BO",
        "delivery": "Delivery",
        "divisionname": "Jammu Division",
        "regionname": "JAMMU RN",
        "circlename": "Jammu Kashmir Circle",
        "latitude": "32.6215840",
        "longitude": "75.0036250"
      },
      {
        "officename": "Purmandal SO",
        "officetype": "PO",
        "delivery": "Delivery",
        "divisionname": "Jammu Division",
        "regionname": "JAMMU RN",
        "circlename": "Jammu Kashmir Circle",
        "latitude": "32.6814870",
        "longitude": "74.0085400"
      }
    ]
  },
  "181152": {
    "state": "JAMMU AND KASHMIR",
    "district": "JAMMU",
    "offices": [
      {
        "officename": "Bathindi SO",
        "officetype": "PO",
        "delivery": "Delivery",
        "divisionname": "Jammu Division",
        "regionname": "JAMMU RN",
        "circlename": "Jammu Kashmir Circle",
        "latitude": "32.7103770",
        "longitude": "74.9062620"
      }
    ]
  },
  "181201": {
    "state": "JAMMU AND KASHMIR",
    "district": "JAMMU",
    "offices": [
      {
        "officename": "Lehar BO",
        "officetype": "BO",
        "delivery": "Delivery",
        "divisionname": "Jammu Division",
        "regionname": "JAMMU RN",
        "circlename": "Jammu Kashmir Circle",
        "latitude": "32.8995240",
        "longitude": "74.7424850"
      },
      {
        "officename": "Mandarian BO",
        "officetype": "BO",
        "delivery": "Delivery",
        "divisionname": "Jammu Division",
        "regionname": "JAMMU RN",
        "circlename": "Jammu Kashmir Circle",
        "latitude": "32.9529840",
        "longitude": "74.7199070"
      },
      {
        "officename": "Gharatal BO",
        "officetype": "BO",
        "delivery": "Delivery",
        "divisionname": "Jammu Division",
        "regionname": "JAMMU RN",
        "circlename": "Jammu Kashmir Circle",
        "latitude": "32.6854260",
        "longitude": "74.2354890"
      },
      {
        "officename": "Gurha Brahmna BO",
        "officetype": "BO",
        "delivery": "Delivery",
        "divisionname": "Jammu Division",
        "regionname": "JAMMU RN",
        "circlename": "Jammu Kashmir Circle",
        "latitude": "32.7567120",
        "longitude": "74.7651110"
      },
      {
        "officename": "Ambaran BO",
        "officetype": "BO",
        "delivery": "Delivery",
        "divisionname": "Jammu Division",
        "regionname": "JAMMU RN",
        "circlename": "Jammu Kashmir Circle",
        "latitude": "32.8995240",
        "longitude": "74.7424850"
      },
      {
        "officename": "Bala BO",
        "officetype": "BO",
        "delivery": "Delivery",
        "divisionname": "Jammu Division",
        "regionname": "JAMMU RN",
        "circlename": "Jammu Kashmir Circle",
        "latitude": "32.7097210",
        "longitude": "74.8897870"
      },
      {
        "officename": "Brui BO",
        "officetype": "BO",
        "delivery": "Delivery",
        "divisionname": "Jammu Division",
        "regionname": "JAMMU RN",
        "circlename": "Jammu Kashmir Circle",
        "latitude": "32.6548210",
        "longitude": "74.5621480"
      },
      {
        "officename": "Gandharwan BO",
        "officetype": "BO",
        "delivery": "Delivery",
        "divisionname": "Jammu Division",
        "regionname": "JAMMU RN",
        "circlename": "Jammu Kashmir Circle",
        "latitude": "32.4956340",
        "longitude": "74.3445220"
      },
      {
        "officename": "Sungal BO",
        "officetype": "BO",
        "delivery": "Delivery",
        "divisionname": "Jammu Division",
        "regionname": "JAMMU RN",
        "circlename": "Jammu Kashmir Circle",
        "latitude": "41.1329740",
        "longitude": "73.3618890"
      },
      {
        "officename": "Akhnoor SO",
        "officetype": "PO",
        "delivery": "Delivery",
        "divisionname": "Jammu Division",
        "regionname": "JAMMU RN",
        "circlename": "Jammu Kashmir Circle",
        "latitude": "32.8995240",
        "longitude": "74.7424850"
      },
      {
        "officename": "Pacca Danga Akhnoor SO",
        "officetype": "PO",
        "delivery": "Non Delivery",
        "divisionname": "Jammu Division",
        "regionname": "JAMMU RN",
        "circlename": "Jammu Kashmir Circle",
        "latitude": "32.7257777",
        "longitude": "74.8487222"
      },
      {
        "officename": "Bamal Colony BO",
        "officetype": "BO",
        "delivery": "Delivery",
        "divisionname": "Jammu Division",
        "regionname": "JAMMU RN",
        "circlename": "Jammu Kashmir Circle",
        "latitude": "32.6958210",
        "longitude": "74.3326510"
      },
      {
        "officename": "Pangyari BO",
        "officetype": "BO",
        "delivery": "Delivery",
        "divisionname": "Jammu Division",
        "regionname": "JAMMU RN",
        "circlename": "Jammu Kashmir Circle",
        "latitude": "32.8995240",
        "longitude": "74.7424850"
      },
      {
        "officename": "Kaink Jagir BO",
        "officetype": "BO",
        "delivery": "Delivery",
        "divisionname": "Jammu Division",
        "regionname": "JAMMU RN",
        "circlename": "Jammu Kashmir Circle",
        "latitude": "32.9661380",
        "longitude": "74.7401930"
      },
      {
        "officename": "Kathar BO",
        "officetype": "BO",
        "delivery": "Delivery",
        "divisionname": "Jammu Division",
        "regionname": "JAMMU RN",
        "circlename": "Jammu Kashmir Circle",
        "latitude": "33.0165290",
        "longitude": "74.7140990"
      },
      {
        "officename": "Mawa Brahmna BO",
        "officetype": "BO",
        "delivery": "Delivery",
        "divisionname": "Jammu Division",
        "regionname": "JAMMU RN",
        "circlename": "Jammu Kashmir Circle",
        "latitude": "32.9222840",
        "longitude": "74.5726910"
      }
    ]
  },
  "181202": {
    "state": "JAMMU AND KASHMIR",
    "district": "JAMMU",
    "offices": [
      {
        "officename": "Devipur BO",
        "officetype": "BO",
        "delivery": "Delivery",
        "divisionname": "Jammu Division",
        "regionname": "JAMMU RN",
        "circlename": "Jammu Kashmir Circle",
        "latitude": "32.5563750",
        "longitude": "74.6502900"
      },
      {
        "officename": "Dhoke Khalsa BO",
        "officetype": "BO",
        "delivery": "Delivery",
        "divisionname": "Jammu Division",
        "regionname": "JAMMU RN",
        "circlename": "Jammu Kashmir Circle",
        "latitude": "32.8148450",
        "longitude": "74.5372660"
      },
      {
        "officename": "Bakore BO",
        "officetype": "BO",
        "delivery": "Delivery",
        "divisionname": "Jammu Division",
        "regionname": "JAMMU RN",
        "circlename": "Jammu Kashmir Circle",
        "latitude": "32.8071220",
        "longitude": "74.5620300"
      },
      {
        "officename": "Chak Kirpalpur BO",
        "officetype": "BO",
        "delivery": "Delivery",
        "divisionname": "Jammu Division",
        "regionname": "JAMMU RN",
        "circlename": "Jammu Kashmir Circle",
        "latitude": "31.2000290",
        "longitude": "75.7182500"
      },
      {
        "officename": "Datial BO",
        "officetype": "BO",
        "delivery": "Delivery",
        "divisionname": "Jammu Division",
        "regionname": "JAMMU RN",
        "circlename": "Jammu Kashmir Circle",
        "latitude": "32.5762010",
        "longitude": "74.6584250"
      },
      {
        "officename": "Jourian SO",
        "officetype": "PO",
        "delivery": "Delivery",
        "divisionname": "Jammu Division",
        "regionname": "JAMMU RN",
        "circlename": "Jammu Kashmir Circle",
        "latitude": "32.8325278",
        "longitude": "74.5769722"
      },
      {
        "officename": "Maira BO",
        "officetype": "BO",
        "delivery": "Delivery",
        "divisionname": "Jammu Division",
        "regionname": "JAMMU RN",
        "circlename": "Jammu Kashmir Circle",
        "latitude": "32.8030390",
        "longitude": "74.5397660"
      },
      {
        "officename": "Bhalwal Brahmna BO",
        "officetype": "BO",
        "delivery": "Delivery",
        "divisionname": "Jammu Division",
        "regionname": "JAMMU RN",
        "circlename": "Jammu Kashmir Circle",
        "latitude": "32.8727800",
        "longitude": "74.5726910"
      }
    ]
  },
  "181203": {
    "state": "JAMMU AND KASHMIR",
    "district": "JAMMU",
    "offices": [
      {
        "officename": "Khour SO",
        "officetype": "PO",
        "delivery": "Delivery",
        "divisionname": "Jammu Division",
        "regionname": "JAMMU RN",
        "circlename": "Jammu Kashmir Circle",
        "latitude": "32.6025170",
        "longitude": "74.8084220"
      },
      {
        "officename": "Hamirpur Sidhar BO",
        "officetype": "BO",
        "delivery": "Delivery",
        "divisionname": "Jammu Division",
        "regionname": "JAMMU RN",
        "circlename": "Jammu Kashmir Circle",
        "latitude": "32.6025170",
        "longitude": "74.8084220"
      },
      {
        "officename": "Nathal BO",
        "officetype": "BO",
        "delivery": "Delivery",
        "divisionname": "Jammu Division",
        "regionname": "JAMMU RN",
        "circlename": "Jammu Kashmir Circle",
        "latitude": "32.9281130",
        "longitude": "74.4232510"
      },
      {
        "officename": "Nikkian BO",
        "officetype": "BO",
        "delivery": "Delivery",
        "divisionname": "Jammu Division",
        "regionname": "JAMMU RN",
        "circlename": "Jammu Kashmir Circle",
        "latitude": "32.8159940",
        "longitude": "74.4987190"
      },
      {
        "officename": "Kaleeth BO",
        "officetype": "BO",
        "delivery": "Delivery",
        "divisionname": "Jammu Division",
        "regionname": "JAMMU RN",
        "circlename": "Jammu Kashmir Circle",
        "latitude": "32.8625100",
        "longitude": "74.4804050"
      },
      {
        "officename": "Kharah BO",
        "officetype": "BO",
        "delivery": "Delivery",
        "divisionname": "Jammu Division",
        "regionname": "JAMMU RN",
        "circlename": "Jammu Kashmir Circle",
        "latitude": "32.7523640",
        "longitude": "74.3428150"
      },
      {
        "officename": "Naryana BO",
        "officetype": "BO",
        "delivery": "Delivery",
        "divisionname": "Jammu Division",
        "regionname": "JAMMU RN",
        "circlename": "Jammu Kashmir Circle",
        "latitude": "32.9470430",
        "longitude": "74.9476060"
      },
      {
        "officename": "Sainth BO",
        "officetype": "BO",
        "delivery": "Delivery",
        "divisionname": "Jammu Division",
        "regionname": "JAMMU RN",
        "circlename": "Jammu Kashmir Circle",
        "latitude": "32.7272170",
        "longitude": "74.8567440"
      },
      {
        "officename": "Chak Malal BO",
        "officetype": "BO",
        "delivery": "Delivery",
        "divisionname": "Jammu Division",
        "regionname": "JAMMU RN",
        "circlename": "Jammu Kashmir Circle",
        "latitude": "32.8354710",
        "longitude": "74.5437700"
      },
      {
        "officename": "Danwal BO",
        "officetype": "BO",
        "delivery": "Delivery",
        "divisionname": "Jammu Division",
        "regionname": "JAMMU RN",
        "circlename": "Jammu Kashmir Circle",
        "latitude": "32.8225670",
        "longitude": "74.5126370"
      },
      {
        "officename": "Gigrial BO",
        "officetype": "BO",
        "delivery": "Delivery",
        "divisionname": "Jammu Division",
        "regionname": "JAMMU RN",
        "circlename": "Jammu Kashmir Circle",
        "latitude": "32.8139540",
        "longitude": "74.3251320"
      }
    ]
  },
  "181204": {
    "state": "JAMMU AND KASHMIR",
    "district": "JAMMU",
    "offices": [
      {
        "officename": "Kot Maira BO",
        "officetype": "BO",
        "delivery": "Delivery",
        "divisionname": "Jammu Division",
        "regionname": "JAMMU RN",
        "circlename": "Jammu Kashmir Circle",
        "latitude": "32.8410290",
        "longitude": "74.4628210"
      },
      {
        "officename": "Pallanwala SO",
        "officetype": "PO",
        "delivery": "Delivery",
        "divisionname": "Jammu Division",
        "regionname": "JAMMU RN",
        "circlename": "Jammu Kashmir Circle",
        "latitude": "32.8403333",
        "longitude": "74.4666667"
      },
      {
        "officename": "Bardoh BO",
        "officetype": "BO",
        "delivery": "Delivery",
        "divisionname": "Jammu Division",
        "regionname": "JAMMU RN",
        "circlename": "Jammu Kashmir Circle",
        "latitude": "32.8269240",
        "longitude": "74.3526910"
      }
    ]
  },
  "181205": {
    "state": "JAMMU AND KASHMIR",
    "district": "JAMMU",
    "offices": [
      {
        "officename": "Muthi SO",
        "officetype": "PO",
        "delivery": "Delivery",
        "divisionname": "Jammu Division",
        "regionname": "JAMMU RN",
        "circlename": "Jammu Kashmir Circle",
        "latitude": "34.7583200",
        "longitude": "74.8141570"
      }
    ]
  },
  "181206": {
    "state": "JAMMU AND KASHMIR",
    "district": "JAMMU",
    "offices": [
      {
        "officename": "Halqa BO",
        "officetype": "BO",
        "delivery": "Delivery",
        "divisionname": "Jammu Division",
        "regionname": "JAMMU RN",
        "circlename": "Jammu Kashmir Circle",
        "latitude": "32.7631480",
        "longitude": "74.7059680"
      },
      {
        "officename": "Kangrial BO",
        "officetype": "BO",
        "delivery": "Delivery",
        "divisionname": "Jammu Division",
        "regionname": "JAMMU RN",
        "circlename": "Jammu Kashmir Circle",
        "latitude": "32.7244250",
        "longitude": "74.7377410"
      },
      {
        "officename": "Batehra BO",
        "officetype": "BO",
        "delivery": "Delivery",
        "divisionname": "Jammu Division",
        "regionname": "JAMMU RN",
        "circlename": "Jammu Kashmir Circle",
        "latitude": "32.7890110",
        "longitude": "74.7827000"
      },
      {
        "officename": "Gajansoo BO",
        "officetype": "BO",
        "delivery": "Delivery",
        "divisionname": "Jammu Division",
        "regionname": "JAMMU RN",
        "circlename": "Jammu Kashmir Circle",
        "latitude": "32.7358460",
        "longitude": "74.6663910"
      },
      {
        "officename": "Karloop BO",
        "officetype": "BO",
        "delivery": "Delivery",
        "divisionname": "Jammu Division",
        "regionname": "JAMMU RN",
        "circlename": "Jammu Kashmir Circle",
        "latitude": "32.7483960",
        "longitude": "74.7291740"
      },
      {
        "officename": "Paryal BO",
        "officetype": "BO",
        "delivery": "Delivery",
        "divisionname": "Jammu Division",
        "regionname": "JAMMU RN",
        "circlename": "Jammu Kashmir Circle",
        "latitude": "32.7788940",
        "longitude": "74.6912720"
      },
      {
        "officename": "Garkhal BO",
        "officetype": "BO",
        "delivery": "Delivery",
        "divisionname": "Jammu Division",
        "regionname": "JAMMU RN",
        "circlename": "Jammu Kashmir Circle",
        "latitude": "32.7233920",
        "longitude": "74.5921250"
      },
      {
        "officename": "Misriwala BO",
        "officetype": "BO",
        "delivery": "Delivery",
        "divisionname": "Jammu Division",
        "regionname": "JAMMU RN",
        "circlename": "Jammu Kashmir Circle",
        "latitude": "32.7440530",
        "longitude": "74.8046520"
      },
      {
        "officename": "Dumana SO",
        "officetype": "PO",
        "delivery": "Delivery",
        "divisionname": "Jammu Division",
        "regionname": "JAMMU RN",
        "circlename": "Jammu Kashmir Circle",
        "latitude": "32.7266020",
        "longitude": "74.8570260"
      },
      {
        "officename": "Chak Shama BO",
        "officetype": "BO",
        "delivery": "Delivery",
        "divisionname": "Jammu Division",
        "regionname": "JAMMU RN",
        "circlename": "Jammu Kashmir Circle",
        "latitude": "32.7548320",
        "longitude": "74.6328420"
      },
      {
        "officename": "Kanachak BO",
        "officetype": "BO",
        "delivery": "Delivery",
        "divisionname": "Jammu Division",
        "regionname": "JAMMU RN",
        "circlename": "Jammu Kashmir Circle",
        "latitude": "32.7233420",
        "longitude": "74.5624270"
      },
      {
        "officename": "Nagbani BO",
        "officetype": "BO",
        "delivery": "Delivery",
        "divisionname": "Jammu Division",
        "regionname": "JAMMU RN",
        "circlename": "Jammu Kashmir Circle",
        "latitude": "32.7266020",
        "longitude": "74.8570260"
      }
    ]
  },
  "181207": {
    "state": "JAMMU AND KASHMIR",
    "district": "JAMMU",
    "offices": [
      {
        "officename": "Pargwal SO",
        "officetype": "PO",
        "delivery": "Delivery",
        "divisionname": "Jammu Division",
        "regionname": "JAMMU RN",
        "circlename": "Jammu Kashmir Circle",
        "latitude": "32.7989444",
        "longitude": "74.6049167"
      },
      {
        "officename": "Gura Manhasan BO",
        "officetype": "BO",
        "delivery": "Delivery",
        "divisionname": "Jammu Division",
        "regionname": "JAMMU RN",
        "circlename": "Jammu Kashmir Circle",
        "latitude": "32.7982080",
        "longitude": "74.6034420"
      }
    ]
  },
  "181208": {
    "state": "JAMMU AND KASHMIR",
    "district": "JAMMU",
    "offices": [
      {
        "officename": "Bawa Talab",
        "officetype": "PO",
        "delivery": "Delivery",
        "divisionname": "Jammu Division",
        "regionname": "JAMMU RN",
        "circlename": "Jammu Kashmir Circle",
        "latitude": "32.830701",
        "longitude": "74.752616"
      }
    ]
  },
  "181221": {
    "state": "JAMMU AND KASHMIR",
    "district": "JAMMU",
    "offices": [
      {
        "officename": "JKotli BO",
        "officetype": "BO",
        "delivery": "Delivery",
        "divisionname": "Jammu Division",
        "regionname": "JAMMU RN",
        "circlename": "Jammu Kashmir Circle",
        "latitude": "32.7964720",
        "longitude": "74.9153330"
      },
      {
        "officename": "Jagti BO",
        "officetype": "BO",
        "delivery": "Delivery",
        "divisionname": "Jammu Division",
        "regionname": "JAMMU RN",
        "circlename": "Jammu Kashmir Circle",
        "latitude": "32.7964720",
        "longitude": "74.9153330"
      },
      {
        "officename": "Panjgrain BO",
        "officetype": "BO",
        "delivery": "Delivery",
        "divisionname": "Jammu Division",
        "regionname": "JAMMU RN",
        "circlename": "Jammu Kashmir Circle",
        "latitude": "32.7964720",
        "longitude": "74.9153330"
      },
      {
        "officename": "Shiba BO",
        "officetype": "BO",
        "delivery": "Delivery",
        "divisionname": "Jammu Division",
        "regionname": "JAMMU RN",
        "circlename": "Jammu Kashmir Circle",
        "latitude": "32.7254620",
        "longitude": "74.6542050"
      },
      {
        "officename": "Jagti Migrant Township S.O",
        "officetype": "PO",
        "delivery": "Non Delivery",
        "divisionname": "Jammu Division",
        "regionname": "JAMMU RN",
        "circlename": "Jammu Kashmir Circle",
        "latitude": "NA",
        "longitude": "NA"
      },
      {
        "officename": "Nadore BO",
        "officetype": "BO",
        "delivery": "Delivery",
        "divisionname": "Jammu Division",
        "regionname": "JAMMU RN",
        "circlename": "Jammu Kashmir Circle",
        "latitude": "32.7266020",
        "longitude": "74.8570260"
      },
      {
        "officename": "Kandoli Nagrota SO",
        "officetype": "PO",
        "delivery": "Delivery",
        "divisionname": "Jammu Division",
        "regionname": "JAMMU RN",
        "circlename": "Jammu Kashmir Circle",
        "latitude": "32.7964720",
        "longitude": "74.9153330"
      }
    ]
  },
  "181224": {
    "state": "JAMMU AND KASHMIR",
    "district": "JAMMU",
    "offices": [
      {
        "officename": "Kanyala BO",
        "officetype": "BO",
        "delivery": "Delivery",
        "divisionname": "Jammu Division",
        "regionname": "JAMMU RN",
        "circlename": "Jammu Kashmir Circle",
        "latitude": "32.5648250",
        "longitude": "74.7526150"
      },
      {
        "officename": "Tahra BO",
        "officetype": "BO",
        "delivery": "Delivery",
        "divisionname": "Jammu Division",
        "regionname": "JAMMU RN",
        "circlename": "Jammu Kashmir Circle",
        "latitude": "32.8363210",
        "longitude": "75.0593790"
      },
      {
        "officename": "Dansal SO",
        "officetype": "PO",
        "delivery": "Delivery",
        "divisionname": "Jammu Division",
        "regionname": "JAMMU RN",
        "circlename": "Jammu Kashmir Circle",
        "latitude": "32.8699560",
        "longitude": "74.9939330"
      },
      {
        "officename": "Bhatyari BO",
        "officetype": "BO",
        "delivery": "Delivery",
        "divisionname": "Jammu Division",
        "regionname": "JAMMU RN",
        "circlename": "Jammu Kashmir Circle",
        "latitude": "32.6253260",
        "longitude": "74.8367940"
      },
      {
        "officename": "Kishanpur BO",
        "officetype": "BO",
        "delivery": "Delivery",
        "divisionname": "Jammu Division",
        "regionname": "JAMMU RN",
        "circlename": "Jammu Kashmir Circle",
        "latitude": "32.6325410",
        "longitude": "75.8521651"
      },
      {
        "officename": "Kothar BO",
        "officetype": "BO",
        "delivery": "Delivery",
        "divisionname": "Jammu Division",
        "regionname": "JAMMU RN",
        "circlename": "Jammu Kashmir Circle",
        "latitude": "32.4624360",
        "longitude": "75.1263210"
      },
      {
        "officename": "Jindrah BO",
        "officetype": "BO",
        "delivery": "Delivery",
        "divisionname": "Jammu Division",
        "regionname": "JAMMU RN",
        "circlename": "Jammu Kashmir Circle",
        "latitude": "32.7613980",
        "longitude": "74.9107200"
      },
      {
        "officename": "Badsu BO",
        "officetype": "BO",
        "delivery": "Delivery",
        "divisionname": "Jammu Division",
        "regionname": "JAMMU RN",
        "circlename": "Jammu Kashmir Circle",
        "latitude": "32.8699560",
        "longitude": "74.9939330"
      }
    ]
  },
  "182101": {
    "state": "JAMMU AND KASHMIR",
    "district": "UDHAMPUR",
    "offices": [
      {
        "officename": "Salmehri BO",
        "officetype": "BO",
        "delivery": "Delivery",
        "divisionname": "Udhampur Division",
        "regionname": "JAMMU RN",
        "circlename": "Jammu Kashmir Circle",
        "latitude": "1.0000000",
        "longitude": "1.0000000"
      },
      {
        "officename": "Jakhani BO",
        "officetype": "BO",
        "delivery": "Non Delivery",
        "divisionname": "Udhampur Division",
        "regionname": "JAMMU RN",
        "circlename": "Jammu Kashmir Circle",
        "latitude": "1.0000000",
        "longitude": "1.0000000"
      },
      {
        "officename": "Mj Road Nd SO",
        "officetype": "PO",
        "delivery": "Non Delivery",
        "divisionname": "Udhampur Division",
        "regionname": "JAMMU RN",
        "circlename": "Jammu Kashmir Circle",
        "latitude": "32.9239722",
        "longitude": "75.1334722"
      },
      {
        "officename": "Omara Morh SO",
        "officetype": "PO",
        "delivery": "Non Delivery",
        "divisionname": "Udhampur Division",
        "regionname": "JAMMU RN",
        "circlename": "Jammu Kashmir Circle",
        "latitude": "32.8122222",
        "longitude": "75.3808055"
      },
      {
        "officename": "Shaktinagar SO Udhampur",
        "officetype": "PO",
        "delivery": "Non Delivery",
        "divisionname": "Udhampur Division",
        "regionname": "JAMMU RN",
        "circlename": "Jammu Kashmir Circle",
        "latitude": "1.0000000",
        "longitude": "1.0000000"
      },
      {
        "officename": "Udhampur District Court SO",
        "officetype": "PO",
        "delivery": "Non Delivery",
        "divisionname": "Udhampur Division",
        "regionname": "JAMMU RN",
        "circlename": "Jammu Kashmir Circle",
        "latitude": "32.9265278",
        "longitude": "75.1569167"
      },
      {
        "officename": "Udhampur HO",
        "officetype": "HO",
        "delivery": "Delivery",
        "divisionname": "Udhampur Division",
        "regionname": "JAMMU RN",
        "circlename": "Jammu Kashmir Circle",
        "latitude": "32.9258889",
        "longitude": "75.1381389"
      },
      {
        "officename": "Kawa BO",
        "officetype": "BO",
        "delivery": "Delivery",
        "divisionname": "Udhampur Division",
        "regionname": "JAMMU RN",
        "circlename": "Jammu Kashmir Circle",
        "latitude": "1.0000000",
        "longitude": "1.0000000"
      },
      {
        "officename": "Krimchi BO",
        "officetype": "BO",
        "delivery": "Delivery",
        "divisionname": "Udhampur Division",
        "regionname": "JAMMU RN",
        "circlename": "Jammu Kashmir Circle",
        "latitude": "1.0000000",
        "longitude": "1.0000000"
      },
      {
        "officename": "Rathian BO",
        "officetype": "BO",
        "delivery": "Delivery",
        "divisionname": "Udhampur Division",
        "regionname": "JAMMU RN",
        "circlename": "Jammu Kashmir Circle",
        "latitude": "1.0000000",
        "longitude": "1.0000000"
      },
      {
        "officename": "KASHIRAH BO",
        "officetype": "BO",
        "delivery": "Delivery",
        "divisionname": "Udhampur Division",
        "regionname": "JAMMU RN",
        "circlename": "Jammu Kashmir Circle",
        "latitude": "32.8678550",
        "longitude": "75.1238900"
      },
      {
        "officename": "Gandala BO",
        "officetype": "BO",
        "delivery": "Delivery",
        "divisionname": "Udhampur Division",
        "regionname": "JAMMU RN",
        "circlename": "Jammu Kashmir Circle",
        "latitude": "1.0000000",
        "longitude": "1.0000000"
      },
      {
        "officename": "PTS Udhampur BO",
        "officetype": "BO",
        "delivery": "Delivery",
        "divisionname": "Udhampur Division",
        "regionname": "JAMMU RN",
        "circlename": "Jammu Kashmir Circle",
        "latitude": "1.0000000",
        "longitude": "1.0000000"
      },
      {
        "officename": "Bali BO",
        "officetype": "BO",
        "delivery": "Delivery",
        "divisionname": "Udhampur Division",
        "regionname": "JAMMU RN",
        "circlename": "Jammu Kashmir Circle",
        "latitude": "1.0000000",
        "longitude": "1.0000000"
      },
      {
        "officename": "Chak Rakhwalan BO",
        "officetype": "BO",
        "delivery": "Delivery",
        "divisionname": "Udhampur Division",
        "regionname": "JAMMU RN",
        "circlename": "Jammu Kashmir Circle",
        "latitude": "1.0000000",
        "longitude": "1.0000000"
      }
    ]
  },
  "182104": {
    "state": "JAMMU AND KASHMIR",
    "district": "UDHAMPUR",
    "offices": [
      {
        "officename": "PTC Udhampur SO",
        "officetype": "PO",
        "delivery": "Delivery",
        "divisionname": "Udhampur Division",
        "regionname": "JAMMU RN",
        "circlename": "Jammu Kashmir Circle",
        "latitude": "32.9095278",
        "longitude": "75.1062222"
      }
    ]
  },
  "182121": {
    "state": "JAMMU AND KASHMIR",
    "district": "UDHAMPUR",
    "offices": [
      {
        "officename": "Barola BO",
        "officetype": "BO",
        "delivery": "Delivery",
        "divisionname": "Udhampur Division",
        "regionname": "JAMMU RN",
        "circlename": "Jammu Kashmir Circle",
        "latitude": "1.0000000",
        "longitude": "1.0000000"
      },
      {
        "officename": "Jangalgali BO",
        "officetype": "BO",
        "delivery": "Delivery",
        "divisionname": "Udhampur Division",
        "regionname": "JAMMU RN",
        "circlename": "Jammu Kashmir Circle",
        "latitude": "1.0000000",
        "longitude": "1.0000000"
      },
      {
        "officename": "Mand BO",
        "officetype": "BO",
        "delivery": "Delivery",
        "divisionname": "Udhampur Division",
        "regionname": "JAMMU RN",
        "circlename": "Jammu Kashmir Circle",
        "latitude": "1.0000000",
        "longitude": "1.0000000"
      },
      {
        "officename": "Charyari BO",
        "officetype": "BO",
        "delivery": "Delivery",
        "divisionname": "Udhampur Division",
        "regionname": "JAMMU RN",
        "circlename": "Jammu Kashmir Circle",
        "latitude": "1.0000000",
        "longitude": "1.0000000"
      },
      {
        "officename": "Jib BO",
        "officetype": "BO",
        "delivery": "Delivery",
        "divisionname": "Udhampur Division",
        "regionname": "JAMMU RN",
        "circlename": "Jammu Kashmir Circle",
        "latitude": "1.0000000",
        "longitude": "1.0000000"
      },
      {
        "officename": "Garhi SO Udhampur",
        "officetype": "PO",
        "delivery": "Delivery",
        "divisionname": "Udhampur Division",
        "regionname": "JAMMU RN",
        "circlename": "Jammu Kashmir Circle",
        "latitude": "33.1105000",
        "longitude": "74.4908000"
      },
      {
        "officename": "Malhar BO",
        "officetype": "BO",
        "delivery": "Delivery",
        "divisionname": "Udhampur Division",
        "regionname": "JAMMU RN",
        "circlename": "Jammu Kashmir Circle",
        "latitude": "1.0000000",
        "longitude": "1.0000000"
      },
      {
        "officename": "Garnai BO",
        "officetype": "BO",
        "delivery": "Delivery",
        "divisionname": "Udhampur Division",
        "regionname": "JAMMU RN",
        "circlename": "Jammu Kashmir Circle",
        "latitude": "1.0000000",
        "longitude": "1.0000000"
      },
      {
        "officename": "Panthal BO",
        "officetype": "BO",
        "delivery": "Delivery",
        "divisionname": "Udhampur Division",
        "regionname": "JAMMU RN",
        "circlename": "Jammu Kashmir Circle",
        "latitude": "1",
        "longitude": "1"
      },
      {
        "officename": "Seen Bhramena BO",
        "officetype": "BO",
        "delivery": "Delivery",
        "divisionname": "Udhampur Division",
        "regionname": "JAMMU RN",
        "circlename": "Jammu Kashmir Circle",
        "latitude": "1.0000000",
        "longitude": "1.0000000"
      },
      {
        "officename": "Tikri BO",
        "officetype": "BO",
        "delivery": "Delivery",
        "divisionname": "Udhampur Division",
        "regionname": "JAMMU RN",
        "circlename": "Jammu Kashmir Circle",
        "latitude": "1.0000000",
        "longitude": "1.0000000"
      },
      {
        "officename": "Hartriyan BO",
        "officetype": "BO",
        "delivery": "Delivery",
        "divisionname": "Udhampur Division",
        "regionname": "JAMMU RN",
        "circlename": "Jammu Kashmir Circle",
        "latitude": "1.0000000",
        "longitude": "1.0000000"
      },
      {
        "officename": "Seen Thakrian BO",
        "officetype": "BO",
        "delivery": "Delivery",
        "divisionname": "Udhampur Division",
        "regionname": "JAMMU RN",
        "circlename": "Jammu Kashmir Circle",
        "latitude": "1.0000000",
        "longitude": "1.0000000"
      }
    ]
  },
  "182122": {
    "state": "JAMMU AND KASHMIR",
    "district": "UDHAMPUR",
    "offices": [
      {
        "officename": "Bland BO",
        "officetype": "BO",
        "delivery": "Delivery",
        "divisionname": "Udhampur Division",
        "regionname": "JAMMU RN",
        "circlename": "Jammu Kashmir Circle",
        "latitude": "1.0000000",
        "longitude": "1.0000000"
      },
      {
        "officename": "Ghorari BO",
        "officetype": "BO",
        "delivery": "Delivery",
        "divisionname": "Udhampur Division",
        "regionname": "JAMMU RN",
        "circlename": "Jammu Kashmir Circle",
        "latitude": "1.0000000",
        "longitude": "1.0000000"
      },
      {
        "officename": "Sonetar BO",
        "officetype": "BO",
        "delivery": "Delivery",
        "divisionname": "Udhampur Division",
        "regionname": "JAMMU RN",
        "circlename": "Jammu Kashmir Circle",
        "latitude": "1.0000000",
        "longitude": "1.0000000"
      },
      {
        "officename": "BADHOLE BO",
        "officetype": "BO",
        "delivery": "Delivery",
        "divisionname": "Udhampur Division",
        "regionname": "JAMMU RN",
        "circlename": "Jammu Kashmir Circle",
        "latitude": "1",
        "longitude": "1"
      },
      {
        "officename": "Amroh BO",
        "officetype": "BO",
        "delivery": "Delivery",
        "divisionname": "Udhampur Division",
        "regionname": "JAMMU RN",
        "circlename": "Jammu Kashmir Circle",
        "latitude": "1.0000000",
        "longitude": "1.0000000"
      },
      {
        "officename": "Kotwalt BO",
        "officetype": "BO",
        "delivery": "Delivery",
        "divisionname": "Udhampur Division",
        "regionname": "JAMMU RN",
        "circlename": "Jammu Kashmir Circle",
        "latitude": "1.0000000",
        "longitude": "1.0000000"
      },
      {
        "officename": "Pattangarh BO",
        "officetype": "BO",
        "delivery": "Delivery",
        "divisionname": "Udhampur Division",
        "regionname": "JAMMU RN",
        "circlename": "Jammu Kashmir Circle",
        "latitude": "1.0000000",
        "longitude": "1.0000000"
      },
      {
        "officename": "Dhiari BO",
        "officetype": "BO",
        "delivery": "Delivery",
        "divisionname": "Udhampur Division",
        "regionname": "JAMMU RN",
        "circlename": "Jammu Kashmir Circle",
        "latitude": "1.0000000",
        "longitude": "1.0000000"
      },
      {
        "officename": "Jandrari BO",
        "officetype": "BO",
        "delivery": "Delivery",
        "divisionname": "Udhampur Division",
        "regionname": "JAMMU RN",
        "circlename": "Jammu Kashmir Circle",
        "latitude": "1.0000000",
        "longitude": "1.0000000"
      },
      {
        "officename": "Marta BO",
        "officetype": "BO",
        "delivery": "Delivery",
        "divisionname": "Udhampur Division",
        "regionname": "JAMMU RN",
        "circlename": "Jammu Kashmir Circle",
        "latitude": "1.0000000",
        "longitude": "1.0000000"
      },
      {
        "officename": "Rang BO",
        "officetype": "BO",
        "delivery": "Delivery",
        "divisionname": "Udhampur Division",
        "regionname": "JAMMU RN",
        "circlename": "Jammu Kashmir Circle",
        "latitude": "1.0000000",
        "longitude": "1.0000000"
      },
      {
        "officename": "Chowki Jandrorh BO",
        "officetype": "BO",
        "delivery": "Delivery",
        "divisionname": "Udhampur Division",
        "regionname": "JAMMU RN",
        "circlename": "Jammu Kashmir Circle",
        "latitude": "1.0000000",
        "longitude": "1.0000000"
      },
      {
        "officename": "Dalsar BO",
        "officetype": "BO",
        "delivery": "Delivery",
        "divisionname": "Udhampur Division",
        "regionname": "JAMMU RN",
        "circlename": "Jammu Kashmir Circle",
        "latitude": "1.0000000",
        "longitude": "1.0000000"
      },
      {
        "officename": "Dhanwalt BO",
        "officetype": "BO",
        "delivery": "Delivery",
        "divisionname": "Udhampur Division",
        "regionname": "JAMMU RN",
        "circlename": "Jammu Kashmir Circle",
        "latitude": "1.0000000",
        "longitude": "1.0000000"
      },
      {
        "officename": "Nagrota Panj Garain BO",
        "officetype": "BO",
        "delivery": "Delivery",
        "divisionname": "Udhampur Division",
        "regionname": "JAMMU RN",
        "circlename": "Jammu Kashmir Circle",
        "latitude": "1.0000000",
        "longitude": "1.0000000"
      },
      {
        "officename": "Bari BO",
        "officetype": "BO",
        "delivery": "Delivery",
        "divisionname": "Udhampur Division",
        "regionname": "JAMMU RN",
        "circlename": "Jammu Kashmir Circle",
        "latitude": "1.0000000",
        "longitude": "1.0000000"
      },
      {
        "officename": "Nala Ghoria BO",
        "officetype": "BO",
        "delivery": "Delivery",
        "divisionname": "Udhampur Division",
        "regionname": "JAMMU RN",
        "circlename": "Jammu Kashmir Circle",
        "latitude": "1.0000000",
        "longitude": "1.0000000"
      },
      {
        "officename": "Sattian BO",
        "officetype": "BO",
        "delivery": "Delivery",
        "divisionname": "Udhampur Division",
        "regionname": "JAMMU RN",
        "circlename": "Jammu Kashmir Circle",
        "latitude": "1.0000000",
        "longitude": "1.0000000"
      },
      {
        "officename": "Ramnagar SO Udhampur",
        "officetype": "PO",
        "delivery": "Delivery",
        "divisionname": "Udhampur Division",
        "regionname": "JAMMU RN",
        "circlename": "Jammu Kashmir Circle",
        "latitude": "33.0882027",
        "longitude": "74.6984888"
      }
    ]
  },
  "182124": {
    "state": "JAMMU AND KASHMIR",
    "district": "UDHAMPUR",
    "offices": [
      {
        "officename": "Hartrian BO",
        "officetype": "BO",
        "delivery": "Delivery",
        "divisionname": "Udhampur Division",
        "regionname": "JAMMU RN",
        "circlename": "Jammu Kashmir Circle",
        "latitude": "1.0000000",
        "longitude": "1.0000000"
      },
      {
        "officename": "Jaganoo SO",
        "officetype": "PO",
        "delivery": "Delivery",
        "divisionname": "Udhampur Division",
        "regionname": "JAMMU RN",
        "circlename": "Jammu Kashmir Circle",
        "latitude": "32.8805555",
        "longitude": "75.1761666"
      },
      {
        "officename": "Johnu BO",
        "officetype": "BO",
        "delivery": "Delivery",
        "divisionname": "Udhampur Division",
        "regionname": "JAMMU RN",
        "circlename": "Jammu Kashmir Circle",
        "latitude": "1.0000000",
        "longitude": "1.0000000"
      },
      {
        "officename": "Sermanjla BO",
        "officetype": "BO",
        "delivery": "Delivery",
        "divisionname": "Udhampur Division",
        "regionname": "JAMMU RN",
        "circlename": "Jammu Kashmir Circle",
        "latitude": "1.0000000",
        "longitude": "1.0000000"
      },
      {
        "officename": "Barmeen BO",
        "officetype": "BO",
        "delivery": "Delivery",
        "divisionname": "Udhampur Division",
        "regionname": "JAMMU RN",
        "circlename": "Jammu Kashmir Circle",
        "latitude": "1.0000000",
        "longitude": "1.0000000"
      },
      {
        "officename": "Chanunta BO",
        "officetype": "BO",
        "delivery": "Delivery",
        "divisionname": "Udhampur Division",
        "regionname": "JAMMU RN",
        "circlename": "Jammu Kashmir Circle",
        "latitude": "1.0000000",
        "longitude": "1.0000000"
      },
      {
        "officename": "Dhandal BO",
        "officetype": "BO",
        "delivery": "Delivery",
        "divisionname": "Udhampur Division",
        "regionname": "JAMMU RN",
        "circlename": "Jammu Kashmir Circle",
        "latitude": "1.0000000",
        "longitude": "1.0000000"
      },
      {
        "officename": "Kaldi BO",
        "officetype": "BO",
        "delivery": "Delivery",
        "divisionname": "Udhampur Division",
        "regionname": "JAMMU RN",
        "circlename": "Jammu Kashmir Circle",
        "latitude": "1.0000000",
        "longitude": "1.0000000"
      }
    ]
  },
  "182125": {
    "state": "JAMMU AND KASHMIR",
    "district": "UDHAMPUR",
    "offices": [
      {
        "officename": "Galiote BO",
        "officetype": "BO",
        "delivery": "Delivery",
        "divisionname": "Udhampur Division",
        "regionname": "JAMMU RN",
        "circlename": "Jammu Kashmir Circle",
        "latitude": "1.0000000",
        "longitude": "1.0000000"
      },
      {
        "officename": "Landhar BO",
        "officetype": "BO",
        "delivery": "Delivery",
        "divisionname": "Udhampur Division",
        "regionname": "JAMMU RN",
        "circlename": "Jammu Kashmir Circle",
        "latitude": "1.0000000",
        "longitude": "1.0000000"
      },
      {
        "officename": "Panjar BO",
        "officetype": "BO",
        "delivery": "Delivery",
        "divisionname": "Udhampur Division",
        "regionname": "JAMMU RN",
        "circlename": "Jammu Kashmir Circle",
        "latitude": "1.0000000",
        "longitude": "1.0000000"
      },
      {
        "officename": "Mir SO",
        "officetype": "PO",
        "delivery": "Delivery",
        "divisionname": "Udhampur Division",
        "regionname": "JAMMU RN",
        "circlename": "Jammu Kashmir Circle",
        "latitude": "33.0444000",
        "longitude": "75.0815000"
      },
      {
        "officename": "Mang BO",
        "officetype": "BO",
        "delivery": "Delivery",
        "divisionname": "Udhampur Division",
        "regionname": "JAMMU RN",
        "circlename": "Jammu Kashmir Circle",
        "latitude": "33.305413000000001",
        "longitude": "75.061222000000001"
      },
      {
        "officename": "Damnote BO",
        "officetype": "BO",
        "delivery": "Delivery",
        "divisionname": "Udhampur Division",
        "regionname": "JAMMU RN",
        "circlename": "Jammu Kashmir Circle",
        "latitude": "1.0000000",
        "longitude": "1.0000000"
      },
      {
        "officename": "Mongri BO",
        "officetype": "BO",
        "delivery": "Delivery",
        "divisionname": "Udhampur Division",
        "regionname": "JAMMU RN",
        "circlename": "Jammu Kashmir Circle",
        "latitude": "1.0000000",
        "longitude": "1.0000000"
      },
      {
        "officename": "Kainthgali BO",
        "officetype": "BO",
        "delivery": "Delivery",
        "divisionname": "Udhampur Division",
        "regionname": "JAMMU RN",
        "circlename": "Jammu Kashmir Circle",
        "latitude": "1.0000000",
        "longitude": "1.0000000"
      },
      {
        "officename": "Kuddal BO",
        "officetype": "BO",
        "delivery": "Delivery",
        "divisionname": "Udhampur Division",
        "regionname": "JAMMU RN",
        "circlename": "Jammu Kashmir Circle",
        "latitude": "1.0000000",
        "longitude": "1.0000000"
      },
      {
        "officename": "Ladha BO",
        "officetype": "BO",
        "delivery": "Delivery",
        "divisionname": "Udhampur Division",
        "regionname": "JAMMU RN",
        "circlename": "Jammu Kashmir Circle",
        "latitude": "1.0000000",
        "longitude": "1.0000000"
      },
      {
        "officename": "Kalsote BO",
        "officetype": "BO",
        "delivery": "Delivery",
        "divisionname": "Udhampur Division",
        "regionname": "JAMMU RN",
        "circlename": "Jammu Kashmir Circle",
        "latitude": "1.0000000",
        "longitude": "1.0000000"
      }
    ]
  },
  "182126": {
    "state": "JAMMU AND KASHMIR",
    "district": "UDHAMPUR",
    "offices": [
      {
        "officename": "Bhatiari BO",
        "officetype": "BO",
        "delivery": "Delivery",
        "divisionname": "Udhampur Division",
        "regionname": "JAMMU RN",
        "circlename": "Jammu Kashmir Circle",
        "latitude": "1.0000000",
        "longitude": "1.0000000"
      },
      {
        "officename": "Kuhritti BO",
        "officetype": "BO",
        "delivery": "Delivery",
        "divisionname": "Udhampur Division",
        "regionname": "JAMMU RN",
        "circlename": "Jammu Kashmir Circle",
        "latitude": "1.0000000",
        "longitude": "1.0000000"
      },
      {
        "officename": "Chhatriari BO",
        "officetype": "BO",
        "delivery": "Delivery",
        "divisionname": "Udhampur Division",
        "regionname": "JAMMU RN",
        "circlename": "Jammu Kashmir Circle",
        "latitude": "33.305413000000001",
        "longitude": "75.061222000000001"
      },
      {
        "officename": "Bainsta BO",
        "officetype": "BO",
        "delivery": "Delivery",
        "divisionname": "Udhampur Division",
        "regionname": "JAMMU RN",
        "circlename": "Jammu Kashmir Circle",
        "latitude": "1.0000000",
        "longitude": "1.0000000"
      },
      {
        "officename": "Kaghote BO",
        "officetype": "BO",
        "delivery": "Delivery",
        "divisionname": "Udhampur Division",
        "regionname": "JAMMU RN",
        "circlename": "Jammu Kashmir Circle",
        "latitude": "1.0000000",
        "longitude": "1.0000000"
      },
      {
        "officename": "Barerian BO",
        "officetype": "BO",
        "delivery": "Delivery",
        "divisionname": "Udhampur Division",
        "regionname": "JAMMU RN",
        "circlename": "Jammu Kashmir Circle",
        "latitude": "1.0000000",
        "longitude": "1.0000000"
      },
      {
        "officename": "Roan SO",
        "officetype": "PO",
        "delivery": "Delivery",
        "divisionname": "Udhampur Division",
        "regionname": "JAMMU RN",
        "circlename": "Jammu Kashmir Circle",
        "latitude": "32.7241944",
        "longitude": "75.1791111"
      }
    ]
  },
  "182127": {
    "state": "JAMMU AND KASHMIR",
    "district": "UDHAMPUR",
    "offices": [
      {
        "officename": "Khoon BO",
        "officetype": "BO",
        "delivery": "Delivery",
        "divisionname": "Udhampur Division",
        "regionname": "JAMMU RN",
        "circlename": "Jammu Kashmir Circle",
        "latitude": "1.0000000",
        "longitude": "1.0000000"
      },
      {
        "officename": "Saldhar BO",
        "officetype": "BO",
        "delivery": "Delivery",
        "divisionname": "Udhampur Division",
        "regionname": "JAMMU RN",
        "circlename": "Jammu Kashmir Circle",
        "latitude": "33.305413000000001",
        "longitude": "75.061222000000001"
      },
      {
        "officename": "Majalta SO",
        "officetype": "PO",
        "delivery": "Delivery",
        "divisionname": "Udhampur Division",
        "regionname": "JAMMU RN",
        "circlename": "Jammu Kashmir Circle",
        "latitude": "32.7241944",
        "longitude": "75.1791111"
      },
      {
        "officename": "Battal BO",
        "officetype": "BO",
        "delivery": "Delivery",
        "divisionname": "Udhampur Division",
        "regionname": "JAMMU RN",
        "circlename": "Jammu Kashmir Circle",
        "latitude": "1.0000000",
        "longitude": "1.0000000"
      },
      {
        "officename": "Peoni BO",
        "officetype": "BO",
        "delivery": "Delivery",
        "divisionname": "Udhampur Division",
        "regionname": "JAMMU RN",
        "circlename": "Jammu Kashmir Circle",
        "latitude": "1.0000000",
        "longitude": "1.0000000"
      },
      {
        "officename": "Thalora BO",
        "officetype": "BO",
        "delivery": "Delivery",
        "divisionname": "Udhampur Division",
        "regionname": "JAMMU RN",
        "circlename": "Jammu Kashmir Circle",
        "latitude": "1.0000000",
        "longitude": "1.0000000"
      }
    ]
  },
  "182128": {
    "state": "JAMMU AND KASHMIR",
    "district": "UDHAMPUR",
    "offices": [
      {
        "officename": "Jakhed BO",
        "officetype": "BO",
        "delivery": "Delivery",
        "divisionname": "Udhampur Division",
        "regionname": "JAMMU RN",
        "circlename": "Jammu Kashmir Circle",
        "latitude": "1.0000000",
        "longitude": "1.0000000"
      },
      {
        "officename": "Siamehri BO",
        "officetype": "BO",
        "delivery": "Delivery",
        "divisionname": "Udhampur Division",
        "regionname": "JAMMU RN",
        "circlename": "Jammu Kashmir Circle",
        "latitude": "1.0000000",
        "longitude": "1.0000000"
      },
      {
        "officename": "Joffar BO",
        "officetype": "BO",
        "delivery": "Delivery",
        "divisionname": "Udhampur Division",
        "regionname": "JAMMU RN",
        "circlename": "Jammu Kashmir Circle",
        "latitude": "1.0000000",
        "longitude": "1.0000000"
      },
      {
        "officename": "Pachound BO",
        "officetype": "BO",
        "delivery": "Delivery",
        "divisionname": "Udhampur Division",
        "regionname": "JAMMU RN",
        "circlename": "Jammu Kashmir Circle",
        "latitude": "1.0000000",
        "longitude": "1.0000000"
      },
      {
        "officename": "Majouri SO",
        "officetype": "PO",
        "delivery": "Delivery",
        "divisionname": "Udhampur Division",
        "regionname": "JAMMU RN",
        "circlename": "Jammu Kashmir Circle",
        "latitude": "32.4852000",
        "longitude": "75.2911000"
      },
      {
        "officename": "Dudoo BO",
        "officetype": "BO",
        "delivery": "Delivery",
        "divisionname": "Udhampur Division",
        "regionname": "JAMMU RN",
        "circlename": "Jammu Kashmir Circle",
        "latitude": "1.0000000",
        "longitude": "1.0000000"
      },
      {
        "officename": "Khaned BO",
        "officetype": "BO",
        "delivery": "Delivery",
        "divisionname": "Udhampur Division",
        "regionname": "JAMMU RN",
        "circlename": "Jammu Kashmir Circle",
        "latitude": "1.0000000",
        "longitude": "1.0000000"
      },
      {
        "officename": "Basantgarh BO",
        "officetype": "BO",
        "delivery": "Delivery",
        "divisionname": "Udhampur Division",
        "regionname": "JAMMU RN",
        "circlename": "Jammu Kashmir Circle",
        "latitude": "1.0000000",
        "longitude": "1.0000000"
      },
      {
        "officename": "Keya BO",
        "officetype": "BO",
        "delivery": "Delivery",
        "divisionname": "Udhampur Division",
        "regionname": "JAMMU RN",
        "circlename": "Jammu Kashmir Circle",
        "latitude": "1.0000000",
        "longitude": "1.0000000"
      },
      {
        "officename": "Sangar BO",
        "officetype": "BO",
        "delivery": "Delivery",
        "divisionname": "Udhampur Division",
        "regionname": "JAMMU RN",
        "circlename": "Jammu Kashmir Circle",
        "latitude": "33.305413000000001",
        "longitude": "75.061222000000001"
      }
    ]
  },
  "182129": {
    "state": "JAMMU AND KASHMIR",
    "district": "DODA",
    "offices": [
      {
        "officename": "Bhart BO",
        "officetype": "BO",
        "delivery": "Delivery",
        "divisionname": "Udhampur Division",
        "regionname": "JAMMU RN",
        "circlename": "Jammu Kashmir Circle",
        "latitude": "33.305413000000001",
        "longitude": "75.061222000000001"
      }
    ]
  },
  "182130": {
    "state": "JAMMU AND KASHMIR",
    "district": "UDHAMPUR",
    "offices": [
      {
        "officename": "Sharanwan BO",
        "officetype": "BO",
        "delivery": "Delivery",
        "divisionname": "Udhampur Division",
        "regionname": "JAMMU RN",
        "circlename": "Jammu Kashmir Circle",
        "latitude": "33.305413000000001",
        "longitude": "75.061222000000001"
      }
    ]
  },
  "182131": {
    "state": "JAMMU AND KASHMIR",
    "district": "DODA",
    "offices": [
      {
        "officename": "Tipri BO",
        "officetype": "BO",
        "delivery": "Delivery",
        "divisionname": "Udhampur Division",
        "regionname": "JAMMU RN",
        "circlename": "Jammu Kashmir Circle",
        "latitude": "33.305413000000001",
        "longitude": "75.061222000000001"
      }
    ]
  },
  "182132": {
    "state": "JAMMU AND KASHMIR",
    "district": "KISHTWAR",
    "offices": [
      {
        "officename": "Kither BO",
        "officetype": "BO",
        "delivery": "Delivery",
        "divisionname": "Udhampur Division",
        "regionname": "JAMMU RN",
        "circlename": "Jammu Kashmir Circle",
        "latitude": "33.305413000000001",
        "longitude": "75.061222000000001"
      }
    ]
  },
  "182133": {
    "state": "JAMMU AND KASHMIR",
    "district": "KISHTWAR",
    "offices": [
      {
        "officename": "Sukhnai BO",
        "officetype": "BO",
        "delivery": "Delivery",
        "divisionname": "Udhampur Division",
        "regionname": "JAMMU RN",
        "circlename": "Jammu Kashmir Circle",
        "latitude": "33.305413000000001",
        "longitude": "75.061222000000001"
      }
    ]
  },
  "182134": {
    "state": "JAMMU AND KASHMIR",
    "district": "KISHTWAR",
    "offices": [
      {
        "officename": "Gumri BO",
        "officetype": "BO",
        "delivery": "Delivery",
        "divisionname": "Udhampur Division",
        "regionname": "JAMMU RN",
        "circlename": "Jammu Kashmir Circle",
        "latitude": "33.305413000000001",
        "longitude": "75.061222000000001"
      }
    ]
  },