{
  "612906": {
    "state": "KERALA",
    "district": "KOZHIKODE",
    "offices": [
      {
        "officename": "Melanikuzhi SO",
        "officetype": "PO",
        "delivery": "Delivery",
        "divisionname": "Tiruchirapalli Division",
        "regionname": "Central Region Trichirapalli",
        "circlename": "Tamilnadu Circle",
        "latitude": "11.24",
        "longitude": "79.46"
      }
    ]
  },
  "670001": {
    "state": "KERALA",
    "district": "KANNUR",
    "offices": [
      {
        "officename": "Kannur HO",
        "officetype": "HO",
        "delivery": "Delivery",
        "divisionname": "Cannanore Division",
        "regionname": "Calicut Region",
        "circlename": "Kerala Circle",
        "latitude": "11.8745350",
        "longitude": "75.3701900"
      },
      {
        "officename": "Kannur Railway Station SO",
        "officetype": "PO",
        "delivery": "Non Delivery",
        "divisionname": "Cannanore Division",
        "regionname": "Calicut Region",
        "circlename": "Kerala Circle",
        "latitude": "11.8733284",
        "longitude": "75.3654249"
      },
      {
        "officename": "Payyambalam SO",
        "officetype": "PO",
        "delivery": "Non Delivery",
        "divisionname": "Cannanore Division",
        "regionname": "Calicut Region",
        "circlename": "Kerala Circle",
        "latitude": "11.8675834",
        "longitude": "75.3583201"
      }
    ]
  },
  "670002": {
    "state": "KERALA",
    "district": "KANNUR",
    "offices": [
      {
        "officename": "Civil Station Kannur SO",
        "officetype": "PO",
        "delivery": "Delivery",
        "divisionname": "Cannanore Division",
        "regionname": "Calicut Region",
        "circlename": "Kerala Circle",
        "latitude": "11.8745350",
        "longitude": "75.3701900"
      }
    ]
  },
  "670003": {
    "state": "KERALA",
    "district": "KANNUR",
    "offices": [
      {
        "officename": "Katalayi BO",
        "officetype": "BO",
        "delivery": "Delivery",
        "divisionname": "Cannanore Division",
        "regionname": "Calicut Region",
        "circlename": "Kerala Circle",
        "latitude": "11.8503761",
        "longitude": "75.3980884"
      },
      {
        "officename": "Kannur City SO",
        "officetype": "PO",
        "delivery": "Delivery",
        "divisionname": "Cannanore Division",
        "regionname": "Calicut Region",
        "circlename": "Kerala Circle",
        "latitude": "11.8745350",
        "longitude": "75.3701900"
      }
    ]
  },
  "670004": {
    "state": "KERALA",
    "district": "KANNUR",
    "offices": [
      {
        "officename": "Pallikunnu SO",
        "officetype": "PO",
        "delivery": "Delivery",
        "divisionname": "Cannanore Division",
        "regionname": "Calicut Region",
        "circlename": "Kerala Circle",
        "latitude": "11.8745350",
        "longitude": "75.3701900"
      }
    ]
  },
  "670005": {
    "state": "KERALA",
    "district": "KANNUR",
    "offices": [
      {
        "officename": "Kottali BO",
        "officetype": "BO",
        "delivery": "Delivery",
        "divisionname": "Cannanore Division",
        "regionname": "Calicut Region",
        "circlename": "Kerala Circle",
        "latitude": "11.9069137",
        "longitude": "75.3811457"
      },
      {
        "officename": "Kakkat SO",
        "officetype": "PO",
        "delivery": "Delivery",
        "divisionname": "Cannanore Division",
        "regionname": "Calicut Region",
        "circlename": "Kerala Circle",
        "latitude": "11.8745350",
        "longitude": "75.3701900"
      }
    ]
  },
  "670006": {
    "state": "KERALA",
    "district": "KANNUR",
    "offices": [
      {
        "officename": "Kappad BO",
        "officetype": "BO",
        "delivery": "Delivery",
        "divisionname": "Cannanore Division",
        "regionname": "Calicut Region",
        "circlename": "Kerala Circle",
        "latitude": "11.8820184",
        "longitude": "75.4282772"
      },
      {
        "officename": "Chovva SO",
        "officetype": "PO",
        "delivery": "Delivery",
        "divisionname": "Cannanore Division",
        "regionname": "Calicut Region",
        "circlename": "Kerala Circle",
        "latitude": "11.8745350",
        "longitude": "75.3701900"
      },
      {
        "officename": "Attadappa BO",
        "officetype": "BO",
        "delivery": "Delivery",
        "divisionname": "Cannanore Division",
        "regionname": "Calicut Region",
        "circlename": "Kerala Circle",
        "latitude": "11.8677078",
        "longitude": "75.4323434"
      }
    ]
  },
  "670007": {
    "state": "KERALA",
    "district": "KANNUR",
    "offices": [
      {
        "officename": "Thottada SO",
        "officetype": "PO",
        "delivery": "Delivery",
        "divisionname": "Cannanore Division",
        "regionname": "Calicut Region",
        "circlename": "Kerala Circle",
        "latitude": "11.8745350",
        "longitude": "75.3701900"
      },
      {
        "officename": "Kizhunna BO",
        "officetype": "BO",
        "delivery": "Delivery",
        "divisionname": "Cannanore Division",
        "regionname": "Calicut Region",
        "circlename": "Kerala Circle",
        "latitude": "11.8269037",
        "longitude": "75.4188036"
      }
    ]
  },
  "670008": {
    "state": "KERALA",
    "district": "KANNUR",
    "offices": [
      {
        "officename": "Alavil SO",
        "officetype": "PO",
        "delivery": "Delivery",
        "divisionname": "Cannanore Division",
        "regionname": "Calicut Region",
        "circlename": "Kerala Circle",
        "latitude": "11.8745350",
        "longitude": "75.3701900"
      }
    ]
  },
  "670009": {
    "state": "KERALA",
    "district": "KANNUR",
    "offices": [
      {
        "officename": "Azhikode South BO",
        "officetype": "BO",
        "delivery": "Delivery",
        "divisionname": "Cannanore Division",
        "regionname": "Calicut Region",
        "circlename": "Kerala Circle",
        "latitude": "11.8776330",
        "longitude": "75.3721399"
      },
      {
        "officename": "Azhikkal BO",
        "officetype": "BO",
        "delivery": "Delivery",
        "divisionname": "Cannanore Division",
        "regionname": "Calicut Region",
        "circlename": "Kerala Circle",
        "latitude": "11.9458753",
        "longitude": "75.3041367"
      },
      {
        "officename": "Azhikode SO",
        "officetype": "PO",
        "delivery": "Delivery",
        "divisionname": "Cannanore Division",
        "regionname": "Calicut Region",
        "circlename": "Kerala Circle",
        "latitude": "11.8745350",
        "longitude": "75.3701900"
      }
    ]
  },
  "670010": {
    "state": "KERALA",
    "district": "KANNUR",
    "offices": [
      {
        "officename": "Valapattanam SO",
        "officetype": "PO",
        "delivery": "Delivery",
        "divisionname": "Cannanore Division",
        "regionname": "Calicut Region",
        "circlename": "Kerala Circle",
        "latitude": "11.8745350",
        "longitude": "75.3701900"
      }
    ]
  },
  "670011": {
    "state": "KERALA",
    "district": "KANNUR",
    "offices": [
      {
        "officename": "Kattampally BO",
        "officetype": "BO",
        "delivery": "Delivery",
        "divisionname": "Cannanore Division",
        "regionname": "Calicut Region",
        "circlename": "Kerala Circle",
        "latitude": "11.9156629",
        "longitude": "75.3606755"
      },
      {
        "officename": "Chirakkal SO",
        "officetype": "PO",
        "delivery": "Delivery",
        "divisionname": "Cannanore Division",
        "regionname": "Calicut Region",
        "circlename": "Kerala Circle",
        "latitude": "11.8745350",
        "longitude": "75.3701900"
      },
      {
        "officename": "Chirakkal RS BO",
        "officetype": "BO",
        "delivery": "Non Delivery",
        "divisionname": "Cannanore Division",
        "regionname": "Calicut Region",
        "circlename": "Kerala Circle",
        "latitude": "11.9156629",
        "longitude": "75.3606755"
      }
    ]
  },
  "670012": {
    "state": "KERALA",
    "district": "KANNUR",
    "offices": [
      {
        "officename": "Kannookara BO",
        "officetype": "BO",
        "delivery": "Non Delivery",
        "divisionname": "Cannanore Division",
        "regionname": "Calicut Region",
        "circlename": "Kerala Circle",
        "latitude": "11.6533081",
        "longitude": "75.5619692"
      },
      {
        "officename": "Kannur Thana SO",
        "officetype": "PO",
        "delivery": "Delivery",
        "divisionname": "Cannanore Division",
        "regionname": "Calicut Region",
        "circlename": "Kerala Circle",
        "latitude": "11.8745350",
        "longitude": "75.3701900"
      }
    ]
  },
  "670013": {
    "state": "KERALA",
    "district": "KANNUR",
    "offices": [
      {
        "officename": "Burnacherry SO",
        "officetype": "PO",
        "delivery": "Delivery",
        "divisionname": "Cannanore Division",
        "regionname": "Calicut Region",
        "circlename": "Kerala Circle",
        "latitude": "11.8745350",
        "longitude": "75.3701900"
      }
    ]
  },
  "670014": {
    "state": "KERALA",
    "district": "KANNUR",
    "offices": [
      {
        "officename": "Chalad SO",
        "officetype": "PO",
        "delivery": "Delivery",
        "divisionname": "Cannanore Division",
        "regionname": "Calicut Region",
        "circlename": "Kerala Circle",
        "latitude": "11.8745350",
        "longitude": "75.3701900"
      }
    ]
  },
  "670017": {
    "state": "KERALA",
    "district": "KANNUR",
    "offices": [
      {
        "officename": "Kannur District Hospital SO",
        "officetype": "PO",
        "delivery": "Delivery",
        "divisionname": "Cannanore Division",
        "regionname": "Calicut Region",
        "circlename": "Kerala Circle",
        "latitude": "11.8745350",
        "longitude": "75.3701900"
      }
    ]
  },
  "670018": {
    "state": "KERALA",
    "district": "KANNUR",
    "offices": [
      {
        "officename": "Thazhe Chovva SO",
        "officetype": "PO",
        "delivery": "Delivery",
        "divisionname": "Cannanore Division",
        "regionname": "Calicut Region",
        "circlename": "Kerala Circle",
        "latitude": "11.8745350",
        "longitude": "75.3701900"
      }
    ]
  },
  "670051": {
    "state": "KERALA",
    "district": "KANNUR",
    "offices": [
      {
        "officename": "Kannur NDC",
        "officetype": "PO",
        "delivery": "Delivery",
        "divisionname": "Cannanore Division",
        "regionname": "Calicut Region",
        "circlename": "Kerala Circle",
        "latitude": "11.874535",
        "longitude": "75.37019"
      }
    ]
  },
  "670101": {
    "state": "KERALA",
    "district": "KANNUR",
    "offices": [
      {
        "officename": "Thalassery Bazar SO",
        "officetype": "PO",
        "delivery": "Non Delivery",
        "divisionname": "Thalassery Division",
        "regionname": "Calicut Region",
        "circlename": "Kerala Circle",
        "latitude": "11.7500000",
        "longitude": "75.4900000"
      },
      {
        "officename": "Thalassery Courts SO",
        "officetype": "PO",
        "delivery": "Non Delivery",
        "divisionname": "Thalassery Division",
        "regionname": "Calicut Region",
        "circlename": "Kerala Circle",
        "latitude": "11.7600000",
        "longitude": "75.4800000"
      },
      {
        "officename": "Thalassery HO",
        "officetype": "HO",
        "delivery": "Delivery",
        "divisionname": "Thalassery Division",
        "regionname": "Calicut Region",
        "circlename": "Kerala Circle",
        "latitude": "11.7533680",
        "longitude": "75.4909120"
      }
    ]
  },
  "670102": {
    "state": "KERALA",
    "district": "KANNUR",
    "offices": [
      {
        "officename": "Kurichiyil BO",
        "officetype": "BO",
        "delivery": "Delivery",
        "divisionname": "Thalassery Division",
        "regionname": "Calicut Region",
        "circlename": "Kerala Circle",
        "latitude": "11.7200000",
        "longitude": "75.5200000"
      },
      {
        "officename": "Punnol BO",
        "officetype": "BO",
        "delivery": "Delivery",
        "divisionname": "Thalassery Division",
        "regionname": "Calicut Region",
        "circlename": "Kerala Circle",
        "latitude": "11.7300000",
        "longitude": "75.5100000"
      },
      {
        "officename": "Temple Gate SO",
        "officetype": "PO",
        "delivery": "Delivery",
        "divisionname": "Thalassery Division",
        "regionname": "Calicut Region",
        "circlename": "Kerala Circle",
        "latitude": "11.7533680",
        "longitude": "75.4909120"
      }
    ]
  },
  "670103": {
    "state": "KERALA",
    "district": "KANNUR",
    "offices": [
      {
        "officename": "Tiruvangad SO",
        "officetype": "PO",
        "delivery": "Delivery",
        "divisionname": "Thalassery Division",
        "regionname": "Calicut Region",
        "circlename": "Kerala Circle",
        "latitude": "11.7533680",
        "longitude": "75.4909120"
      },
      {
        "officename": "Moozhikkara BO",
        "officetype": "BO",
        "delivery": "Delivery",
        "divisionname": "Thalassery Division",
        "regionname": "Calicut Region",
        "circlename": "Kerala Circle",
        "latitude": "11.7600000",
        "longitude": "75.5200000"
      }
    ]
  },
  "670104": {
    "state": "KERALA",
    "district": "KANNUR",
    "offices": [
      {
        "officename": "Cherakkara SO",
        "officetype": "PO",
        "delivery": "Delivery",
        "divisionname": "Thalassery Division",
        "regionname": "Calicut Region",
        "circlename": "Kerala Circle",
        "latitude": "11.7533680",
        "longitude": "75.4909120"
      }
    ]
  },
  "670105": {
    "state": "KERALA",
    "district": "KANNUR",
    "offices": [
      {
        "officename": "Vadakkumbad BO",
        "officetype": "BO",
        "delivery": "Delivery",
        "divisionname": "Thalassery Division",
        "regionname": "Calicut Region",
        "circlename": "Kerala Circle",
        "latitude": "11.7800000",
        "longitude": "75.5200000"
      },
      {
        "officename": "Nettur SO Kannur",
        "officetype": "PO",
        "delivery": "Delivery",
        "divisionname": "Thalassery Division",
        "regionname": "Calicut Region",
        "circlename": "Kerala Circle",
        "latitude": "11.7533680",
        "longitude": "75.4909120"
      }
    ]
  },
  "670106": {
    "state": "KERALA",
    "district": "KANNUR",
    "offices": [
      {
        "officename": "Dharmadam SO",
        "officetype": "PO",
        "delivery": "Delivery",
        "divisionname": "Thalassery Division",
        "regionname": "Calicut Region",
        "circlename": "Kerala Circle",
        "latitude": "11.7533680",
        "longitude": "75.4909120"
      }
    ]
  },
  "670107": {
    "state": "KERALA",
    "district": "KANNUR",
    "offices": [
      {
        "officename": "Perundattil BO",
        "officetype": "BO",
        "delivery": "Delivery",
        "divisionname": "Thalassery Division",
        "regionname": "Calicut Region",
        "circlename": "Kerala Circle",
        "latitude": "11.7700000",
        "longitude": "75.5300000"
      },
      {
        "officename": "Eranholi SO",
        "officetype": "PO",
        "delivery": "Delivery",
        "divisionname": "Thalassery Division",
        "regionname": "Calicut Region",
        "circlename": "Kerala Circle",
        "latitude": "11.7533680",
        "longitude": "75.4909120"
      }
    ]
  },
  "670141": {
    "state": "KERALA",
    "district": "KANNUR",
    "offices": [
      {
        "officename": "Taliparamba HO",
        "officetype": "HO",
        "delivery": "Delivery",
        "divisionname": "Cannanore Division",
        "regionname": "Calicut Region",
        "circlename": "Kerala Circle",
        "latitude": "12.0417670",
        "longitude": "75.3568610"
      }
    ]
  },
  "670142": {
    "state": "KERALA",
    "district": "KANNUR",
    "offices": [
      {
        "officename": "Koyyam BO",
        "officetype": "BO",
        "delivery": "Delivery",
        "divisionname": "Cannanore Division",
        "regionname": "Calicut Region",
        "circlename": "Kerala Circle",
        "latitude": "12.0222493",
        "longitude": "75.4600465"
      },
      {
        "officename": "Kurumathur BO",
        "officetype": "BO",
        "delivery": "Delivery",
        "divisionname": "Cannanore Division",
        "regionname": "Calicut Region",
        "circlename": "Kerala Circle",
        "latitude": "12.0326464",
        "longitude": "75.4160905"
      },
      {
        "officename": "Kuttiyeri BO",
        "officetype": "BO",
        "delivery": "Delivery",
        "divisionname": "Cannanore Division",
        "regionname": "Calicut Region",
        "circlename": "Kerala Circle",
        "latitude": "12.0804703",
        "longitude": "75.3761887"
      },
      {
        "officename": "Chuzhali BO",
        "officetype": "BO",
        "delivery": "Delivery",
        "divisionname": "Cannanore Division",
        "regionname": "Calicut Region",
        "circlename": "Kerala Circle",
        "latitude": "12.0815487",
        "longitude": "75.4646385"
      },
      {
        "officename": "Panniyur BO",
        "officetype": "BO",
        "delivery": "Delivery",
        "divisionname": "Cannanore Division",
        "regionname": "Calicut Region",
        "circlename": "Kerala Circle",
        "latitude": "12.0863034",
        "longitude": "75.4132246"
      },
      {
        "officename": "Muyyam BO",
        "officetype": "BO",
        "delivery": "Delivery",
        "divisionname": "Cannanore Division",
        "regionname": "Calicut Region",
        "circlename": "Kerala Circle",
        "latitude": "12.0266658",
        "longitude": "75.3895354"
      },
      {
        "officename": "Karimbam SO",
        "officetype": "PO",
        "delivery": "Delivery",
        "divisionname": "Cannanore Division",
        "regionname": "Calicut Region",
        "circlename": "Kerala Circle",
        "latitude": "12.0417670",
        "longitude": "75.3568610"
      },
      {
        "officename": "Pallivayal BO",
        "officetype": "BO",
        "delivery": "Delivery",
        "divisionname": "Cannanore Division",
        "regionname": "Calicut Region",
        "circlename": "Kerala Circle",
        "latitude": "12.0210623",
        "longitude": "75.3999853"
      },
      {
        "officename": "Kanhirangad BO",
        "officetype": "BO",
        "delivery": "Delivery",
        "divisionname": "Cannanore Division",
        "regionname": "Calicut Region",
        "circlename": "Kerala Circle",
        "latitude": "12.0719947",
        "longitude": "75.3861827"
      }
    ]
  },
  "670143": {
    "state": "KERALA",
    "district": "KANNUR",
    "offices": [
      {
        "officename": "Aril BO",
        "officetype": "BO",
        "delivery": "Delivery",
        "divisionname": "Cannanore Division",
        "regionname": "Calicut Region",
        "circlename": "Kerala Circle",
        "latitude": "12.0277501",
        "longitude": "75.3199067"
      },
      {
        "officename": "Pattuvam SO",
        "officetype": "PO",
        "delivery": "Delivery",
        "divisionname": "Cannanore Division",
        "regionname": "Calicut Region",
        "circlename": "Kerala Circle",
        "latitude": "12.0417670",
        "longitude": "75.3568610"
      }
    ]
  },
  "670301": {
    "state": "KERALA",
    "district": "KANNUR",
    "offices": [
      {
        "officename": "Keezhara BO",
        "officetype": "BO",
        "delivery": "Delivery",
        "divisionname": "Cannanore Division",
        "regionname": "Calicut Region",
        "circlename": "Kerala Circle",
        "latitude": "11.9994447",
        "longitude": "75.3275442"
      },
      {
        "officename": "Thekkumbad BO",
        "officetype": "BO",
        "delivery": "Delivery",
        "divisionname": "Cannanore Division",
        "regionname": "Calicut Region",
        "circlename": "Kerala Circle",
        "latitude": "11.9765134",
        "longitude": "75.2909240"
      },
      {
        "officename": "Madakkara B.O",
        "officetype": "BO",
        "delivery": "Delivery",
        "divisionname": "Cannanore Division",
        "regionname": "Calicut Region",
        "circlename": "Kerala Circle",
        "latitude": "11.961070599999999",
        "longitude": "75.297667200000006"
      },
      {
        "officename": "Thavam BO",
        "officetype": "BO",
        "delivery": "Delivery",
        "divisionname": "Cannanore Division",
        "regionname": "Calicut Region",
        "circlename": "Kerala Circle",
        "latitude": "44.0667072",
        "longitude": "103.2008900"
      },
      {
        "officename": "Cherukunnu RS BO",
        "officetype": "BO",
        "delivery": "Delivery",
        "divisionname": "Cannanore Division",
        "regionname": "Calicut Region",
        "circlename": "Kerala Circle",
        "latitude": "11.9865390",
        "longitude": "75.3108260"
      },
      {
        "officename": "Irinavu BO",
        "officetype": "BO",
        "delivery": "Delivery",
        "divisionname": "Cannanore Division",
        "regionname": "Calicut Region",
        "circlename": "Kerala Circle",
        "latitude": "11.9601648",
        "longitude": "75.3186392"
      },
      {
        "officename": "Cherukunnu SO",
        "officetype": "PO",
        "delivery": "Delivery",
        "divisionname": "Cannanore Division",
        "regionname": "Calicut Region",
        "circlename": "Kerala Circle",
        "latitude": "11.8745350",
        "longitude": "75.3701900"
      }
    ]
  },
  "670302": {
    "state": "KERALA",
    "district": "KANNUR",
    "offices": [
      {
        "officename": "Mattul SO",
        "officetype": "PO",
        "delivery": "Delivery",
        "divisionname": "Cannanore Division",
        "regionname": "Calicut Region",
        "circlename": "Kerala Circle",
        "latitude": "11.8745350",
        "longitude": "75.3701900"
      }
    ]
  },
  "670303": {
    "state": "KERALA",
    "district": "KANNUR",
    "offices": [
      {
        "officename": "Sreestha BO",
        "officetype": "BO",
        "delivery": "Delivery",
        "divisionname": "Cannanore Division",
        "regionname": "Calicut Region",
        "circlename": "Kerala Circle",
        "latitude": "12.0535484",
        "longitude": "75.2865600"
      },
      {
        "officename": "Payangadi SO",
        "officetype": "PO",
        "delivery": "Delivery",
        "divisionname": "Cannanore Division",
        "regionname": "Calicut Region",
        "circlename": "Kerala Circle",
        "latitude": "11.8745350",
        "longitude": "75.3701900"
      }
    ]
  },
  "670304": {
    "state": "KERALA",
    "district": "KANNUR",
    "offices": [
      {
        "officename": "Madayi SO",
        "officetype": "PO",
        "delivery": "Delivery",
        "divisionname": "Cannanore Division",
        "regionname": "Calicut Region",
        "circlename": "Kerala Circle",
        "latitude": "11.8745350",
        "longitude": "75.3701900"
      }
    ]
  },
  "670305": {
    "state": "KERALA",
    "district": "KANNUR",
    "offices": [
      {
        "officename": "Vengarakannur SO",
        "officetype": "PO",
        "delivery": "Delivery",
        "divisionname": "Cannanore Division",
        "regionname": "Calicut Region",
        "circlename": "Kerala Circle",
        "latitude": "11.8745350",
        "longitude": "75.3701900"
      },
      {
        "officename": "Palakode BO",
        "officetype": "BO",
        "delivery": "Delivery",
        "divisionname": "Cannanore Division",
        "regionname": "Calicut Region",
        "circlename": "Kerala Circle",
        "latitude": "12.0544155",
        "longitude": "75.2181289"
      }
    ]
  },
  "670306": {
    "state": "KERALA",
    "district": "KANNUR",
    "offices": [
      {
        "officename": "Panapuzha BO",
        "officetype": "BO",
        "delivery": "Delivery",
        "divisionname": "Cannanore Division",
        "regionname": "Calicut Region",
        "circlename": "Kerala Circle",
        "latitude": "12.1270684",
        "longitude": "75.3149056"
      },
      {
        "officename": "Mathamangalam BO",
        "officetype": "BO",
        "delivery": "Delivery",
        "divisionname": "Cannanore Division",
        "regionname": "Calicut Region",
        "circlename": "Kerala Circle",
        "latitude": "12.1368233",
        "longitude": "75.2909240"
      },
      {
        "officename": "Olayampadi BO",
        "officetype": "BO",
        "delivery": "Delivery",
        "divisionname": "Cannanore Division",
        "regionname": "Calicut Region",
        "circlename": "Kerala Circle",
        "latitude": "12.1847165",
        "longitude": "75.3222685"
      },
      {
        "officename": "Mathamangalam Bazar SO",
        "officetype": "PO",
        "delivery": "Delivery",
        "divisionname": "Cannanore Division",
        "regionname": "Calicut Region",
        "circlename": "Kerala Circle",
        "latitude": "12.0417670",
        "longitude": "75.3568610"
      },
      {
        "officename": "Kakkara BO",
        "officetype": "BO",
        "delivery": "Delivery",
        "divisionname": "Cannanore Division",
        "regionname": "Calicut Region",
        "circlename": "Kerala Circle",
        "latitude": "12.2099850",
        "longitude": "75.3568770"
      },
      {
        "officename": "Kuttur BO",
        "officetype": "BO",
        "delivery": "Delivery",
        "divisionname": "Cannanore Division",
        "regionname": "Calicut Region",
        "circlename": "Kerala Circle",
        "latitude": "12.1525145",
        "longitude": "75.3077173"
      },
      {
        "officename": "Vellora BO",
        "officetype": "BO",
        "delivery": "Delivery",
        "divisionname": "Cannanore Division",
        "regionname": "Calicut Region",
        "circlename": "Kerala Circle",
        "latitude": "12.1744763",
        "longitude": "75.3604388"
      },
      {
        "officename": "Eriam BO",
        "officetype": "BO",
        "delivery": "Delivery",
        "divisionname": "Cannanore Division",
        "regionname": "Calicut Region",
        "circlename": "Kerala Circle",
        "latitude": "12.1390680",
        "longitude": "75.3791069"
      },
      {
        "officename": "Porakunnu BO",
        "officetype": "BO",
        "delivery": "Delivery",
        "divisionname": "Cannanore Division",
        "regionname": "Calicut Region",
        "circlename": "Kerala Circle",
        "latitude": "12.1824520",
        "longitude": "75.2885931"
      }
    ]
  },
  "670307": {
    "state": "KERALA",
    "district": "KANNUR",
    "offices": [
      {
        "officename": "Annur BO",
        "officetype": "BO",
        "delivery": "Delivery",
        "divisionname": "Cannanore Division",
        "regionname": "Calicut Region",
        "circlename": "Kerala Circle",
        "latitude": "12.1329769",
        "longitude": "75.2024324"
      },
      {
        "officename": "Payyanur RS BO",
        "officetype": "BO",
        "delivery": "Non Delivery",
        "divisionname": "Cannanore Division",
        "regionname": "Calicut Region",
        "circlename": "Kerala Circle",
        "latitude": "12.0914230",
        "longitude": "75.1955580"
      },
      {
        "officename": "Vellur BO",
        "officetype": "BO",
        "delivery": "Delivery",
        "divisionname": "Cannanore Division",
        "regionname": "Calicut Region",
        "circlename": "Kerala Circle",
        "latitude": "12.1534584",
        "longitude": "75.2113080"
      },
      {
        "officename": "Kanayi BO",
        "officetype": "BO",
        "delivery": "Delivery",
        "divisionname": "Cannanore Division",
        "regionname": "Calicut Region",
        "circlename": "Kerala Circle",
        "latitude": "12.1274040",
        "longitude": "75.2602529"
      },
      {
        "officename": "Kandankali BO",
        "officetype": "BO",
        "delivery": "Delivery",
        "divisionname": "Cannanore Division",
        "regionname": "Calicut Region",
        "circlename": "Kerala Circle",
        "latitude": "12.0897654",
        "longitude": "75.2092695"
      },
      {
        "officename": "Kavvayi BO",
        "officetype": "BO",
        "delivery": "Delivery",
        "divisionname": "Cannanore Division",
        "regionname": "Calicut Region",
        "circlename": "Kerala Circle",
        "latitude": "12.0879480",
        "longitude": "75.1793443"
      },
      {
        "officename": "Korom BO",
        "officetype": "BO",
        "delivery": "Delivery",
        "divisionname": "Cannanore Division",
        "regionname": "Calicut Region",
        "circlename": "Kerala Circle",
        "latitude": "12.1235870",
        "longitude": "75.2403727"
      },
      {
        "officename": "Payyanur SO",
        "officetype": "PO",
        "delivery": "Delivery",
        "divisionname": "Cannanore Division",
        "regionname": "Calicut Region",
        "circlename": "Kerala Circle",
        "latitude": "12.0417670",
        "longitude": "75.3568610"
      },
      {
        "officename": "Chalakkod BO",
        "officetype": "BO",
        "delivery": "Delivery",
        "divisionname": "Cannanore Division",
        "regionname": "Calicut Region",
        "circlename": "Kerala Circle",
        "latitude": "12.1271313",
        "longitude": "75.2255558"
      },
      {
        "officename": "Kandoth BO",
        "officetype": "BO",
        "delivery": "Delivery",
        "divisionname": "Cannanore Division",
        "regionname": "Calicut Region",
        "circlename": "Kerala Circle",
        "latitude": "12.1297694",
        "longitude": "75.2165221"
      },
      {
        "officename": "Kokkanisseri SO",
        "officetype": "PO",
        "delivery": "Non Delivery",
        "divisionname": "Cannanore Division",
        "regionname": "Calicut Region",
        "circlename": "Kerala Circle",
        "latitude": "12.1108628",
        "longitude": "75.2133758"
      },
      {
        "officename": "Eramam Desom BO",
        "officetype": "BO",
        "delivery": "Delivery",
        "divisionname": "Cannanore Division",
        "regionname": "Calicut Region",
        "circlename": "Kerala Circle",
        "latitude": "12.159289899999999",
        "longitude": "75.264394199999998"
      },
      {
        "officename": "Kankol BO",
        "officetype": "BO",
        "delivery": "Delivery",
        "divisionname": "Cannanore Division",
        "regionname": "Calicut Region",
        "circlename": "Kerala Circle",
        "latitude": "12.1583892",
        "longitude": "75.2216519"
      },
      {
        "officename": "Mathil BO",
        "officetype": "BO",
        "delivery": "Delivery",
        "divisionname": "Cannanore Division",
        "regionname": "Calicut Region",
        "circlename": "Kerala Circle",
        "latitude": "12.1771267",
        "longitude": "75.2462579"
      }
    ]
  },
  "670308": {
    "state": "KERALA",
    "district": "KANNUR",
    "offices": [
      {
        "officename": "Ettikulam BO",
        "officetype": "BO",
        "delivery": "Delivery",
        "divisionname": "Cannanore Division",
        "regionname": "Calicut Region",
        "circlename": "Kerala Circle",
        "latitude": "12.0143194",
        "longitude": "75.2056056"
      },
      {
        "officename": "Vadakkumbadramanthali BO",
        "officetype": "BO",
        "delivery": "Delivery",
        "divisionname": "Cannanore Division",
        "regionname": "Calicut Region",
        "circlename": "Kerala Circle",
        "latitude": "12.0735612",
        "longitude": "75.183206400000003"
      },
      {
        "officename": "Ramanthali SO",
        "officetype": "PO",
        "delivery": "Delivery",
        "divisionname": "Cannanore Division",
        "regionname": "Calicut Region",
        "circlename": "Kerala Circle",
        "latitude": "12.0417670",
        "longitude": "75.3568610"
      },
      {
        "officename": "Karanthat BO",
        "officetype": "BO",
        "delivery": "Delivery",
        "divisionname": "Cannanore Division",
        "regionname": "Calicut Region",
        "circlename": "Kerala Circle",
        "latitude": "12.0571997",
        "longitude": "75.2159428"
      }
    ]
  },
  "670309": {
    "state": "KERALA",
    "district": "KANNUR",
    "offices": [
      {
        "officename": "Kunhimangalam SO",
        "officetype": "PO",
        "delivery": "Delivery",
        "divisionname": "Cannanore Division",
        "regionname": "Calicut Region",
        "circlename": "Kerala Circle",
        "latitude": "12.0417670",
        "longitude": "75.3568610"
      },
      {
        "officename": "Ezhilode BO",
        "officetype": "BO",
        "delivery": "Delivery",
        "divisionname": "Cannanore Division",
        "regionname": "Calicut Region",
        "circlename": "Kerala Circle",
        "latitude": "12.0915908",
        "longitude": "75.2486658"
      },
      {
        "officename": "Kovvapuram BO",
        "officetype": "BO",
        "delivery": "Delivery",
        "divisionname": "Cannanore Division",
        "regionname": "Calicut Region",
        "circlename": "Kerala Circle",
        "latitude": "12.0715235",
        "longitude": "75.2403727"
      }
    ]
  },
  "670310": {
    "state": "KERALA",
    "district": "KANNUR",
    "offices": [
      {
        "officename": "Ezhimala Naval Academy SO",
        "officetype": "PO",
        "delivery": "Delivery",
        "divisionname": "Cannanore Division",
        "regionname": "Calicut Region",
        "circlename": "Kerala Circle",
        "latitude": "12.0417670",
        "longitude": "75.3568610"
      }
    ]
  },
  "670325": {
    "state": "KERALA",
    "district": "KANNUR",
    "offices": [
      {
        "officename": "Mattul North SO",
        "officetype": "PO",
        "delivery": "Delivery",
        "divisionname": "Cannanore Division",
        "regionname": "Calicut Region",
        "circlename": "Kerala Circle",
        "latitude": "11.8745350",
        "longitude": "75.3701900"
      }
    ]
  },
  "670327": {
    "state": "KERALA",
    "district": "KANNUR",
    "offices": [
      {
        "officename": "Edat SO",
        "officetype": "PO",
        "delivery": "Delivery",
        "divisionname": "Cannanore Division",
        "regionname": "Calicut Region",
        "circlename": "Kerala Circle",
        "latitude": "12.0417670",
        "longitude": "75.3568610"
      }
    ]
  },
  "670331": {
    "state": "KERALA",
    "district": "KANNUR",
    "offices": [
      {
        "officename": "Morazha BO",
        "officetype": "BO",
        "delivery": "Delivery",
        "divisionname": "Cannanore Division",
        "regionname": "Calicut Region",
        "circlename": "Kerala Circle",
        "latitude": "11.9872963",
        "longitude": "75.3499629"
      },
      {
        "officename": "Mottammal SO",
        "officetype": "PO",
        "delivery": "Delivery",
        "divisionname": "Cannanore Division",
        "regionname": "Calicut Region",
        "circlename": "Kerala Circle",
        "latitude": "11.8745350",
        "longitude": "75.3701900"
      },
      {
        "officename": "Anchampeedika BO",
        "officetype": "BO",
        "delivery": "Delivery",
        "divisionname": "Cannanore Division",
        "regionname": "Calicut Region",
        "circlename": "Kerala Circle",
        "latitude": "11.8687528",
        "longitude": "75.4033117"
      }
    ]
  },
  "670334": {
    "state": "KERALA",
    "district": "KANNUR",
    "offices": [
      {
        "officename": "Kottila BO",
        "officetype": "BO",
        "delivery": "Delivery",
        "divisionname": "Cannanore Division",
        "regionname": "Calicut Region",
        "circlename": "Kerala Circle",
        "latitude": "12.0521587",
        "longitude": "75.3158204"
      },
      {
        "officename": "Ezhome SO",
        "officetype": "PO",
        "delivery": "Delivery",
        "divisionname": "Cannanore Division",
        "regionname": "Calicut Region",
        "circlename": "Kerala Circle",
        "latitude": "12.0417670",
        "longitude": "75.3568610"
      }
    ]
  },
  "670353": {
    "state": "KERALA",
    "district": "KANNUR",
    "offices": [
      {
        "officename": "Padiotchal BO",
        "officetype": "BO",
        "delivery": "Delivery",
        "divisionname": "Cannanore Division",
        "regionname": "Calicut Region",
        "circlename": "Kerala Circle",
        "latitude": "12.2506920",
        "longitude": "75.3351744"
      },
      {
        "officename": "Nhekly BO",
        "officetype": "BO",
        "delivery": "Delivery",
        "divisionname": "Cannanore Division",
        "regionname": "Calicut Region",
        "circlename": "Kerala Circle",
        "latitude": "12.2300000",
        "longitude": "75.3314709"
      },
      {
        "officename": "Peringome BO",
        "officetype": "BO",
        "delivery": "Delivery",
        "divisionname": "Cannanore Division",
        "regionname": "Calicut Region",
        "circlename": "Kerala Circle",
        "latitude": "12.2240691",
        "longitude": "75.3033167"
      },
      {
        "officename": "CRPF Camp Aravanchal SO",
        "officetype": "PO",
        "delivery": "Delivery",
        "divisionname": "Cannanore Division",
        "regionname": "Calicut Region",
        "circlename": "Kerala Circle",
        "latitude": "12.2113060",
        "longitude": "75.2927184"
      }
    ]
  },
  "670358": {
    "state": "KERALA",
    "district": "KANNUR",
    "offices": [
      {
        "officename": "Payangadi R S SO",
        "officetype": "PO",
        "delivery": "Delivery",
        "divisionname": "Cannanore Division",
        "regionname": "Calicut Region",
        "circlename": "Kerala Circle",
        "latitude": "11.8745350",
        "longitude": "75.3701900"
      }
    ]
  },
  "670501": {
    "state": "KERALA",
    "district": "KANNUR",
    "offices": [
      {
        "officename": "Mandurkannur SO",
        "officetype": "PO",
        "delivery": "Delivery",
        "divisionname": "Cannanore Division",
        "regionname": "Calicut Region",
        "circlename": "Kerala Circle",
        "latitude": "11.8745350",
        "longitude": "75.3701900"
      }
    ]
  },
  "670502": {
    "state": "KERALA",
    "district": "KANNUR",
    "offices": [
      {
        "officename": "Kuppamtaliparamba BO",
        "officetype": "BO",
        "delivery": "Delivery",
        "divisionname": "Cannanore Division",
        "regionname": "Calicut Region",
        "circlename": "Kerala Circle",
        "latitude": "12.0344938",
        "longitude": "75.362713299999996"
      },
      {
        "officename": "Pariyaramkannur SO",
        "officetype": "PO",
        "delivery": "Delivery",
        "divisionname": "Cannanore Division",
        "regionname": "Calicut Region",
        "circlename": "Kerala Circle",
        "latitude": "12.0417670",
        "longitude": "75.3568610"
      },
      {
        "officename": "Chithappilapoyil BO",
        "officetype": "BO",
        "delivery": "Delivery",
        "divisionname": "Cannanore Division",
        "regionname": "Calicut Region",
        "circlename": "Kerala Circle",
        "latitude": "12.0689087",
        "longitude": "75.3314709"
      },
      {
        "officename": "Thiruvattoor BO",
        "officetype": "BO",
        "delivery": "Delivery",
        "divisionname": "Cannanore Division",
        "regionname": "Calicut Region",
        "circlename": "Kerala Circle",
        "latitude": "10.7713187",
        "longitude": "79.6369973"
      }
    ]
  },
  "670503": {
    "state": "KERALA",
    "district": "KANNUR",
    "offices": [
      {
        "officename": "Kannur Government Medical College SO",
        "officetype": "PO",
        "delivery": "Delivery",
        "divisionname": "Cannanore Division",
        "regionname": "Calicut Region",
        "circlename": "Kerala Circle",
        "latitude": "12.070681",
        "longitude": "75.293461"
      }
    ]
  },
  "670504": {
    "state": "KERALA",
    "district": "KANNUR",
    "offices": [
      {
        "officename": "Pilathara SO",
        "officetype": "PO",
        "delivery": "Delivery",
        "divisionname": "Cannanore Division",
        "regionname": "Calicut Region",
        "circlename": "Kerala Circle",
        "latitude": "11.8745350",
        "longitude": "75.3701900"
      },
      {
        "officename": "Vilayancode BO",
        "officetype": "BO",
        "delivery": "Delivery",
        "divisionname": "Cannanore Division",
        "regionname": "Calicut Region",
        "circlename": "Kerala Circle",
        "latitude": "10.8505159",
        "longitude": "76.2710832"
      },
      {
        "officename": "Kadannapally BO",
        "officetype": "BO",
        "delivery": "Delivery",
        "divisionname": "Cannanore Division",
        "regionname": "Calicut Region",
        "circlename": "Kerala Circle",
        "latitude": "12.0970879",
        "longitude": "75.2802300"
      },
      {
        "officename": "Nareekamvally BO",
        "officetype": "BO",
        "delivery": "Delivery",
        "divisionname": "Cannanore Division",
        "regionname": "Calicut Region",
        "circlename": "Kerala Circle",
        "latitude": "12.0837016",
        "longitude": "75.2661538"
      }
    ]
  },
  "670511": {
    "state": "KERALA",
    "district": "KANNUR",
    "offices": [
      {
        "officename": "Kozhichal BO",
        "officetype": "BO",
        "delivery": "Delivery",
        "divisionname": "Cannanore Division",
        "regionname": "Calicut Region",
        "circlename": "Kerala Circle",
        "latitude": "12.2925583",
        "longitude": "75.4371285"
      },
      {
        "officename": "Thirumeni BO",
        "officetype": "BO",
        "delivery": "Delivery",
        "divisionname": "Cannanore Division",
        "regionname": "Calicut Region",
        "circlename": "Kerala Circle",
        "latitude": "12.2526669",
        "longitude": "75.4199054"
      },
      {
        "officename": "Edavaramba BO",
        "officetype": "BO",
        "delivery": "Delivery",
        "divisionname": "Cannanore Division",
        "regionname": "Calicut Region",
        "circlename": "Kerala Circle",
        "latitude": "12.2880740",
        "longitude": "75.4235887"
      },
      {
        "officename": "Kadumeni BO",
        "officetype": "BO",
        "delivery": "Delivery",
        "divisionname": "Cannanore Division",
        "regionname": "Calicut Region",
        "circlename": "Kerala Circle",
        "latitude": "12.2934759",
        "longitude": "75.3438324"
      },
      {
        "officename": "Thabore BO",
        "officetype": "BO",
        "delivery": "Delivery",
        "divisionname": "Cannanore Division",
        "regionname": "Calicut Region",
        "circlename": "Kerala Circle",
        "latitude": "12.2598119",
        "longitude": "75.4490386"
      },
      {
        "officename": "Thattummal BO",
        "officetype": "BO",
        "delivery": "Delivery",
        "divisionname": "Cannanore Division",
        "regionname": "Calicut Region",
        "circlename": "Kerala Circle",
        "latitude": "12.2474176",
        "longitude": "75.3577566"
      },
      {
        "officename": "Thayyeni BO",
        "officetype": "BO",
        "delivery": "Delivery",
        "divisionname": "Cannanore Division",
        "regionname": "Calicut Region",
        "circlename": "Kerala Circle",
        "latitude": "12.3500000",
        "longitude": "75.4101964"
      },
      {
        "officename": "Chunda BO",
        "officetype": "BO",
        "delivery": "Delivery",
        "divisionname": "Cannanore Division",
        "regionname": "Calicut Region",
        "circlename": "Kerala Circle",
        "latitude": "12.2871095",
        "longitude": "75.3971099"
      },
      {
        "officename": "Josegiri BO",
        "officetype": "BO",
        "delivery": "Delivery",
        "divisionname": "Cannanore Division",
        "regionname": "Calicut Region",
        "circlename": "Kerala Circle",
        "latitude": "12.2730674",
        "longitude": "75.4710032"
      },
      {
        "officename": "Kannivayal BO",
        "officetype": "BO",
        "delivery": "Delivery",
        "divisionname": "Cannanore Division",
        "regionname": "Calicut Region",
        "circlename": "Kerala Circle",
        "latitude": "12.3023305",
        "longitude": "75.3650951"
      },
      {
        "officename": "Palavayal BO",
        "officetype": "BO",
        "delivery": "Delivery",
        "divisionname": "Cannanore Division",
        "regionname": "Calicut Region",
        "circlename": "Kerala Circle",
        "latitude": "12.2979539",
        "longitude": "75.4067936"
      },
      {
        "officename": "Kamballur BO",
        "officetype": "BO",
        "delivery": "Delivery",
        "divisionname": "Cannanore Division",
        "regionname": "Calicut Region",
        "circlename": "Kerala Circle",
        "latitude": "12.2797950",
        "longitude": "75.3452786"
      },
      {
        "officename": "Kanamvayal BO",
        "officetype": "BO",
        "delivery": "Delivery",
        "divisionname": "Cannanore Division",
        "regionname": "Calicut Region",
        "circlename": "Kerala Circle",
        "latitude": "12.2943847",
        "longitude": "75.4774260"
      },
      {
        "officename": "Cherupuzha SO",
        "officetype": "PO",
        "delivery": "Delivery",
        "divisionname": "Cannanore Division",
        "regionname": "Calicut Region",
        "circlename": "Kerala Circle",
        "latitude": "12.0417670",
        "longitude": "75.3568610"
      },
      {
        "officename": "Prapoil BO",
        "officetype": "BO",
        "delivery": "Delivery",
        "divisionname": "Cannanore Division",
        "regionname": "Calicut Region",
        "circlename": "Kerala Circle",
        "latitude": "12.2566439",
        "longitude": "75.3909945"
      }
    ]
  },
  "670521": {
    "state": "KERALA",
    "district": "KANNUR",
    "offices": [
      {
        "officename": "Kozhummal BO",
        "officetype": "BO",
        "delivery": "Delivery",
        "divisionname": "Cannanore Division",
        "regionname": "Calicut Region",
        "circlename": "Kerala Circle",
        "latitude": "12.1828872",
        "longitude": "75.2196335"
      },
      {
        "officename": "Ettukudukka BO",
        "officetype": "BO",
        "delivery": "Delivery",
        "divisionname": "Cannanore Division",
        "regionname": "Calicut Region",
        "circlename": "Kerala Circle",
        "latitude": "12.2039998",
        "longitude": "75.2332484"
      },
      {
        "officename": "Karivellur SO",
        "officetype": "PO",
        "delivery": "Delivery",
        "divisionname": "Cannanore Division",
        "regionname": "Calicut Region",
        "circlename": "Kerala Circle",
        "latitude": "12.0417670",
        "longitude": "75.3568610"
      },
      {
        "officename": "Kuniyan BO",
        "officetype": "BO",
        "delivery": "Delivery",
        "divisionname": "Cannanore Division",
        "regionname": "Calicut Region",
        "circlename": "Kerala Circle",
        "latitude": "12.1602974",
        "longitude": "75.1924228"
      }
    ]
  },
  "670561": {
    "state": "KERALA",
    "district": "KANNUR",
    "offices": [
      {
        "officename": "Aroli BO",
        "officetype": "BO",
        "delivery": "Delivery",
        "divisionname": "Cannanore Division",
        "regionname": "Calicut Region",
        "circlename": "Kerala Circle",
        "latitude": "11.9629007",
        "longitude": "75.3671336"
      },
      {
        "officename": "Pappinisseri West BO",
        "officetype": "BO",
        "delivery": "Delivery",
        "divisionname": "Cannanore Division",
        "regionname": "Calicut Region",
        "circlename": "Kerala Circle",
        "latitude": "11.9428357",
        "longitude": "75.3499629"
      },
      {
        "officename": "Pappinisseri SO",
        "officetype": "PO",
        "delivery": "Delivery",
        "divisionname": "Cannanore Division",
        "regionname": "Calicut Region",
        "circlename": "Kerala Circle",
        "latitude": "11.8745350",
        "longitude": "75.3701900"
      }
    ]
  },
  "670562": {
    "state": "KERALA",
    "district": "KANNUR",
    "offices": [
      {
        "officename": "Kalliasseri SO",
        "officetype": "PO",
        "delivery": "Delivery",
        "divisionname": "Cannanore Division",
        "regionname": "Calicut Region",
        "circlename": "Kerala Circle",
        "latitude": "12.0417670",
        "longitude": "75.3568610"
      },
      {
        "officename": "Kuttikol BO",
        "officetype": "BO",
        "delivery": "Delivery",
        "divisionname": "Cannanore Division",
        "regionname": "Calicut Region",
        "circlename": "Kerala Circle",
        "latitude": "12.4810112",
        "longitude": "75.2099820"
      },
      {
        "officename": "Kanul BO",
        "officetype": "BO",
        "delivery": "Delivery",
        "divisionname": "Cannanore Division",
        "regionname": "Calicut Region",
        "circlename": "Kerala Circle",
        "latitude": "12.0031748",
        "longitude": "75.3645345"
      }
    ]
  },
  "670563": {
    "state": "KERALA",
    "district": "KANNUR",
    "offices": [
      {
        "officename": "Trichambaram BO",
        "officetype": "BO",
        "delivery": "Non Delivery",
        "divisionname": "Cannanore Division",
        "regionname": "Calicut Region",
        "circlename": "Kerala Circle",
        "latitude": "12.0312396",
        "longitude": "75.3659943"
      },
      {
        "officename": "Parassinikadavu SO",
        "officetype": "PO",
        "delivery": "Delivery",
        "divisionname": "Cannanore Division",
        "regionname": "Calicut Region",
        "circlename": "Kerala Circle",
        "latitude": "12.0417670",
        "longitude": "75.3568610"
      },
      {
        "officename": "Nanicherry BO",
        "officetype": "BO",
        "delivery": "Delivery",
        "divisionname": "Cannanore Division",
        "regionname": "Calicut Region",
        "circlename": "Kerala Circle",
        "latitude": "12.0132446",
        "longitude": "75.4056126"
      }
    ]
  },
  "670567": {
    "state": "KERALA",
    "district": "KANNUR",
    "offices": [
      {
        "officename": "Kannur University Campus SO",
        "officetype": "PO",
        "delivery": "Delivery",
        "divisionname": "Cannanore Division",
        "regionname": "Calicut Region",
        "circlename": "Kerala Circle",
        "latitude": "11.98364",
        "longitude": "75.3628974"
      }
    ]
  },
  "670571": {
    "state": "KERALA",
    "district": "KANNUR",
    "offices": [
      {
        "officename": "Nellipara BO",
        "officetype": "BO",
        "delivery": "Delivery",
        "divisionname": "Cannanore Division",
        "regionname": "Calicut Region",
        "circlename": "Kerala Circle",
        "latitude": "12.1946483",
        "longitude": "75.4455260"
      },
      {
        "officename": "Therthally BO",
        "officetype": "BO",
        "delivery": "Delivery",
        "divisionname": "Cannanore Division",
        "regionname": "Calicut Region",
        "circlename": "Kerala Circle",
        "latitude": "12.208516700000001",
        "longitude": "75.4111647"
      },
      {
        "officename": "Vellad BO",
        "officetype": "BO",
        "delivery": "Delivery",
        "divisionname": "Cannanore Division",
        "regionname": "Calicut Region",
        "circlename": "Kerala Circle",
        "latitude": "12.1619927",
        "longitude": "75.4956399"
      },
      {
        "officename": "Ottathai BO",
        "officetype": "BO",
        "delivery": "Delivery",
        "divisionname": "Cannanore Division",
        "regionname": "Calicut Region",
        "circlename": "Kerala Circle",
        "latitude": "12.2039998",
        "longitude": "75.4927278"
      },
      {
        "officename": "Pathampara BO",
        "officetype": "BO",
        "delivery": "Delivery",
        "divisionname": "Cannanore Division",
        "regionname": "Calicut Region",
        "circlename": "Kerala Circle",
        "latitude": "12.5800000",
        "longitude": "75.5140218"
      },
      {
        "officename": "Chittodi BO",
        "officetype": "BO",
        "delivery": "Delivery",
        "divisionname": "Cannanore Division",
        "regionname": "Calicut Region",
        "circlename": "Kerala Circle",
        "latitude": "12.2500000",
        "longitude": "75.4100000"
      },
      {
        "officename": "Karthikapuram BO",
        "officetype": "BO",
        "delivery": "Delivery",
        "divisionname": "Cannanore Division",
        "regionname": "Calicut Region",
        "circlename": "Kerala Circle",
        "latitude": "12.2295571",
        "longitude": "75.4825347"
      },
      {
        "officename": "Karuvanchal BO",
        "officetype": "BO",
        "delivery": "Delivery",
        "divisionname": "Cannanore Division",
        "regionname": "Calicut Region",
        "circlename": "Kerala Circle",
        "latitude": "12.1684210",
        "longitude": "75.4627798"
      },
      {
        "officename": "Manakadavu BO",
        "officetype": "BO",
        "delivery": "Delivery",
        "divisionname": "Cannanore Division",
        "regionname": "Calicut Region",
        "circlename": "Kerala Circle",
        "latitude": "12.2197576",
        "longitude": "75.5072522"
      },
      {
        "officename": "Udayagiri BO",
        "officetype": "BO",
        "delivery": "Delivery",
        "divisionname": "Cannanore Division",
        "regionname": "Calicut Region",
        "circlename": "Kerala Circle",
        "latitude": "12.2407912",
        "longitude": "75.4824686"
      },
      {
        "officename": "Alakodekuttaramba BO",
        "officetype": "BO",
        "delivery": "Delivery",
        "divisionname": "Cannanore Division",
        "regionname": "Calicut Region",
        "circlename": "Kerala Circle",
        "latitude": "12.189658700000001",
        "longitude": "75.469443699999999"
      },
      {
        "officename": "Arivilanjapoyil BO",
        "officetype": "BO",
        "delivery": "Delivery",
        "divisionname": "Cannanore Division",
        "regionname": "Calicut Region",
        "circlename": "Kerala Circle",
        "latitude": "12.2594118",
        "longitude": "75.4811167"
      },
      {
        "officename": "Vijayagiri BO",
        "officetype": "BO",
        "delivery": "Delivery",
        "divisionname": "Cannanore Division",
        "regionname": "Calicut Region",
        "circlename": "Kerala Circle",
        "latitude": "12.1983678",
        "longitude": "75.5140218"
      },
      {
        "officename": "Kottayad BO",
        "officetype": "BO",
        "delivery": "Delivery",
        "divisionname": "Cannanore Division",
        "regionname": "Calicut Region",
        "circlename": "Kerala Circle",
        "latitude": "12.1886978",
        "longitude": "75.4428345"
      },
      {
        "officename": "Rayarom BO",
        "officetype": "BO",
        "delivery": "Delivery",
        "divisionname": "Cannanore Division",
        "regionname": "Calicut Region",
        "circlename": "Kerala Circle",
        "latitude": "12.2087087",
        "longitude": "75.4315593"
      },
      {
        "officename": "Alakode SO",
        "officetype": "PO",
        "delivery": "Delivery",
        "divisionname": "Cannanore Division",
        "regionname": "Calicut Region",
        "circlename": "Kerala Circle",
        "latitude": "12.0417670",
        "longitude": "75.3568610"
      }
    ]
  },
  "670581": {
    "state": "KERALA",
    "district": "KANNUR",
    "offices": [
      {
        "officename": "Thimirichepparapadava BO",
        "officetype": "BO",
        "delivery": "Delivery",
        "divisionname": "Cannanore Division",
        "regionname": "Calicut Region",
        "circlename": "Kerala Circle",
        "latitude": "12.201352699999999",
        "longitude": "75.385942600000007"
      },
      {
        "officename": "Eruvattychapparapadava BO",
        "officetype": "BO",
        "delivery": "Delivery",
        "divisionname": "Cannanore Division",
        "regionname": "Calicut Region",
        "circlename": "Kerala Circle",
        "latitude": "12.174343800000001",
        "longitude": "75.414078000000003"
      },
      {
        "officename": "Karippal BO",
        "officetype": "BO",
        "delivery": "Delivery",
        "divisionname": "Cannanore Division",
        "regionname": "Calicut Region",
        "circlename": "Kerala Circle",
        "latitude": "12.1589478",
        "longitude": "75.3884424"
      },
      {
        "officename": "Padappangad BO",
        "officetype": "BO",
        "delivery": "Delivery",
        "divisionname": "Cannanore Division",
        "regionname": "Calicut Region",
        "circlename": "Kerala Circle",
        "latitude": "12.1192807",
        "longitude": "75.4257324"
      },
      {
        "officename": "Thadikadavu BO",
        "officetype": "BO",
        "delivery": "Delivery",
        "divisionname": "Cannanore Division",
        "regionname": "Calicut Region",
        "circlename": "Kerala Circle",
        "latitude": "12.1642193",
        "longitude": "75.4301548"
      },
      {
        "officename": "Kooveri BO",
        "officetype": "BO",
        "delivery": "Delivery",
        "divisionname": "Cannanore Division",
        "regionname": "Calicut Region",
        "circlename": "Kerala Circle",
        "latitude": "12.1297547",
        "longitude": "75.4139708"
      },
      {
        "officename": "Edakkom BO",
        "officetype": "BO",
        "delivery": "Delivery",
        "divisionname": "Cannanore Division",
        "regionname": "Calicut Region",
        "circlename": "Kerala Circle",
        "latitude": "12.1458734",
        "longitude": "75.4024228"
      },
      {
        "officename": "Chepparapadava SO",
        "officetype": "PO",
        "delivery": "Delivery",
        "divisionname": "Cannanore Division",
        "regionname": "Calicut Region",
        "circlename": "Kerala Circle",
        "latitude": "12.0417670",
        "longitude": "75.3568610"
      }
    ]
  },
  "670582": {
    "state": "KERALA",
    "district": "KANNUR",
    "offices": [
      {
        "officename": "Mandalam BO",
        "officetype": "BO",
        "delivery": "Delivery",
        "divisionname": "Cannanore Division",
        "regionname": "Calicut Region",
        "circlename": "Kerala Circle",
        "latitude": "12.1221518",
        "longitude": "75.5058321"
      },
      {
        "officename": "Vayattuparamba BO",
        "officetype": "BO",
        "delivery": "Delivery",
        "divisionname": "Cannanore Division",
        "regionname": "Calicut Region",
        "circlename": "Kerala Circle",
        "latitude": "12.1524515",
        "longitude": "75.4637789"
      },
      {
        "officename": "Areekamala BO",
        "officetype": "BO",
        "delivery": "Delivery",
        "divisionname": "Cannanore Division",
        "regionname": "Calicut Region",
        "circlename": "Kerala Circle",
        "latitude": "12.1170682",
        "longitude": "75.5807953"
      },
      {
        "officename": "Arang BO",
        "officetype": "BO",
        "delivery": "Delivery",
        "divisionname": "Cannanore Division",
        "regionname": "Calicut Region",
        "circlename": "Kerala Circle",
        "latitude": "12.1602974",
        "longitude": "75.5798435"
      },
      {
        "officename": "Naduvil SO",
        "officetype": "PO",
        "delivery": "Delivery",
        "divisionname": "Cannanore Division",
        "regionname": "Calicut Region",
        "circlename": "Kerala Circle",
        "latitude": "12.0417670",
        "longitude": "75.3568610"
      },
      {
        "officename": "Pulkurumba BO",
        "officetype": "BO",
        "delivery": "Delivery",
        "divisionname": "Cannanore Division",
        "regionname": "Calicut Region",
        "circlename": "Kerala Circle",
        "latitude": "12.1186700",
        "longitude": "75.5189351"
      },
      {
        "officename": "Kudiyanmala BO",
        "officetype": "BO",
        "delivery": "Delivery",
        "divisionname": "Cannanore Division",
        "regionname": "Calicut Region",
        "circlename": "Kerala Circle",
        "latitude": "12.1247040",
        "longitude": "75.4752540"
      },
      {
        "officename": "Pottampilavu BO",
        "officetype": "BO",
        "delivery": "Delivery",
        "divisionname": "Cannanore Division",
        "regionname": "Calicut Region",
        "circlename": "Kerala Circle",
        "latitude": "10.8505159",
        "longitude": "76.2710832"
      }
    ]
  },
  "670591": {
    "state": "KERALA",
    "district": "KANNUR",
    "offices": [
      {
        "officename": "Munderi BO",
        "officetype": "BO",
        "delivery": "Delivery",
        "divisionname": "Cannanore Division",
        "regionname": "Calicut Region",
        "circlename": "Kerala Circle",
        "latitude": "11.9327130",
        "longitude": "75.4378581"
      },
      {
        "officename": "Eachur SO",
        "officetype": "PO",
        "delivery": "Delivery",
        "divisionname": "Cannanore Division",
        "regionname": "Calicut Region",
        "circlename": "Kerala Circle",
        "latitude": "11.8745350",
        "longitude": "75.3701900"
      },
      {
        "officename": "Munderi BO",
        "officetype": "BO",
        "delivery": "Delivery",
        "divisionname": "Manjeri Division",
        "regionname": "Calicut Region",
        "circlename": "Kerala Circle",
        "latitude": "11.44327650",
        "longitude": "76.25907590"
      }
    ]
  },
  "670592": {
    "state": "KERALA",
    "district": "KANNUR",
    "offices": [
      {
        "officename": "Chattuvapara BO",
        "officetype": "BO",
        "delivery": "Delivery",
        "divisionname": "Cannanore Division",
        "regionname": "Calicut Region",
        "circlename": "Kerala Circle",
        "latitude": "11.9589123",
        "longitude": "75.4701519"
      },
      {
        "officename": "Chekkikulam BO",
        "officetype": "BO",
        "delivery": "Delivery",
        "divisionname": "Cannanore Division",
        "regionname": "Calicut Region",
        "circlename": "Kerala Circle",
        "latitude": "11.9493749",
        "longitude": "75.4475820"
      },
      {
        "officename": "Koodali SO",
        "officetype": "PO",
        "delivery": "Delivery",
        "divisionname": "Cannanore Division",
        "regionname": "Calicut Region",
        "circlename": "Kerala Circle",
        "latitude": "11.8745350",
        "longitude": "75.3701900"
      },
      {
        "officename": "Kanhirode BO",
        "officetype": "BO",
        "delivery": "Non Delivery",
        "divisionname": "Cannanore Division",
        "regionname": "Calicut Region",
        "circlename": "Kerala Circle",
        "latitude": "11.9217986",
        "longitude": "75.4781662"
      }
    ]
  },
  "670593": {
    "state": "KERALA",
    "district": "KANNUR",
    "offices": [
      {
        "officename": "Kalliad BO",
        "officetype": "BO",
        "delivery": "Delivery",
        "divisionname": "Cannanore Division",
        "regionname": "Calicut Region",
        "circlename": "Kerala Circle",
        "latitude": "12.0050312",
        "longitude": "75.5830623"
      },
      {
        "officename": "Irukkur SO",
        "officetype": "PO",
        "delivery": "Delivery",
        "divisionname": "Cannanore Division",
        "regionname": "Calicut Region",
        "circlename": "Kerala Circle",
        "latitude": "11.8745350",
        "longitude": "75.3701900"
      },
      {
        "officename": "Kusavanvayal BO",
        "officetype": "BO",
        "delivery": "Delivery",
        "divisionname": "Cannanore Division",
        "regionname": "Calicut Region",
        "circlename": "Kerala Circle",
        "latitude": "12.0280514",
        "longitude": "75.6062048"
      },
      {
        "officename": "Peruvalathuparamba BO",
        "officetype": "BO",
        "delivery": "Delivery",
        "divisionname": "Cannanore Division",
        "regionname": "Calicut Region",
        "circlename": "Kerala Circle",
        "latitude": "12.0047968",
        "longitude": "75.5404901"
      }
    ]
  },
  "670594": {
    "state": "KERALA",
    "district": "KANNUR",
    "offices": [
      {
        "officename": "Mundayad BO",
        "officetype": "BO",
        "delivery": "Delivery",
        "divisionname": "Cannanore Division",
        "regionname": "Calicut Region",
        "circlename": "Kerala Circle",
        "latitude": "11.8929226",
        "longitude": "75.4079289"
      },
      {
        "officename": "Varam SO",
        "officetype": "PO",
        "delivery": "Delivery",
        "divisionname": "Cannanore Division",
        "regionname": "Calicut Region",
        "circlename": "Kerala Circle",
        "latitude": "11.8745350",
        "longitude": "75.3701900"
      }
    ]
  },
  "670595": {
    "state": "KERALA",
    "district": "KANNUR",
    "offices": [
      {
        "officename": "Elampara BO",
        "officetype": "BO",
        "delivery": "Delivery",
        "divisionname": "Cannanore Division",
        "regionname": "Calicut Region",
        "circlename": "Kerala Circle",
        "latitude": "11.9285562",
        "longitude": "75.5119729"
      },
      {
        "officename": "Pattanur BO",
        "officetype": "BO",
        "delivery": "Delivery",
        "divisionname": "Cannanore Division",
        "regionname": "Calicut Region",
        "circlename": "Kerala Circle",
        "latitude": "11.9613893",
        "longitude": "75.5179381"
      },
      {
        "officename": "Edayannur SO",
        "officetype": "PO",
        "delivery": "Delivery",
        "divisionname": "Cannanore Division",
        "regionname": "Calicut Region",
        "circlename": "Kerala Circle",
        "latitude": "11.8745350",
        "longitude": "75.3701900"
      }
    ]
  },
  "670601": {
    "state": "KERALA",
    "district": "KANNUR",
    "offices": [
      {
        "officename": "Narath BO",
        "officetype": "BO",
        "delivery": "Delivery",
        "divisionname": "Cannanore Division",
        "regionname": "Calicut Region",
        "circlename": "Kerala Circle",
        "latitude": "11.9565822",
        "longitude": "75.3876042"
      },
      {
        "officename": "Cherupazhassi BO",
        "officetype": "BO",
        "delivery": "Delivery",
        "divisionname": "Cannanore Division",
        "regionname": "Calicut Region",
        "circlename": "Kerala Circle",
        "latitude": "11.9629658",
        "longitude": "75.4417558"
      },
      {
        "officename": "Kolacherry SO",
        "officetype": "PO",
        "delivery": "Delivery",
        "divisionname": "Cannanore Division",
        "regionname": "Calicut Region",
        "circlename": "Kerala Circle",
        "latitude": "11.8745350",
        "longitude": "75.3701900"
      }
    ]
  },
  "670602": {
    "state": "KERALA",
    "district": "KANNUR",
    "offices": [
      {
        "officename": "Mullakodi BO",
        "officetype": "BO",
        "delivery": "Delivery",
        "divisionname": "Cannanore Division",
        "regionname": "Calicut Region",
        "circlename": "Kerala Circle",
        "latitude": "12.0101278",
        "longitude": "75.4086756"
      },
      {
        "officename": "Pavanoormotta BO",
        "officetype": "BO",
        "delivery": "Delivery",
        "divisionname": "Cannanore Division",
        "regionname": "Calicut Region",
        "circlename": "Kerala Circle",
        "latitude": "11.9882077",
        "longitude": "75.4723411"
      },
      {
        "officename": "Kandakai BO",
        "officetype": "BO",
        "delivery": "Delivery",
        "divisionname": "Cannanore Division",
        "regionname": "Calicut Region",
        "circlename": "Kerala Circle",
        "latitude": "12.0168859",
        "longitude": "75.4449176"
      },
      {
        "officename": "Kayaralam BO",
        "officetype": "BO",
        "delivery": "Delivery",
        "divisionname": "Cannanore Division",
        "regionname": "Calicut Region",
        "circlename": "Kerala Circle",
        "latitude": "11.9998054",
        "longitude": "75.4286460"
      },
      {
        "officename": "Kuttiattur BO",
        "officetype": "BO",
        "delivery": "Delivery",
        "divisionname": "Cannanore Division",
        "regionname": "Calicut Region",
        "circlename": "Kerala Circle",
        "latitude": "11.9753768",
        "longitude": "75.4927278"
      },
      {
        "officename": "Mayyil SO",
        "officetype": "PO",
        "delivery": "Delivery",
        "divisionname": "Cannanore Division",
        "regionname": "Calicut Region",
        "circlename": "Kerala Circle",
        "latitude": "11.8745350",
        "longitude": "75.3701900"
      }
    ]
  },
  "670604": {
    "state": "KERALA",
    "district": "KANNUR",
    "offices": [
      {
        "officename": "Cheleri BO",
        "officetype": "BO",
        "delivery": "Delivery",
        "divisionname": "Cannanore Division",
        "regionname": "Calicut Region",
        "circlename": "Kerala Circle",
        "latitude": "11.9397459",
        "longitude": "75.4159498"
      },
      {
        "officename": "Kannadiparamba SO",
        "officetype": "PO",
        "delivery": "Delivery",
        "divisionname": "Cannanore Division",
        "regionname": "Calicut Region",
        "circlename": "Kerala Circle",
        "latitude": "11.8745350",
        "longitude": "75.3701900"
      }
    ]
  },
  "670611": {
    "state": "KERALA",
    "district": "KANNUR",
    "offices": [
      {
        "officename": "Mamba SO",
        "officetype": "PO",
        "delivery": "Delivery",
        "divisionname": "Cannanore Division",
        "regionname": "Calicut Region",
        "circlename": "Kerala Circle",
        "latitude": "11.8745350",
        "longitude": "75.3701900"
      },
      {
        "officename": "Muzhappala BO",
        "officetype": "BO",
        "delivery": "Delivery",
        "divisionname": "Cannanore Division",
        "regionname": "Calicut Region",
        "circlename": "Kerala Circle",
        "latitude": "11.9042437",
        "longitude": "75.4841423"
      }
    ]
  },
  "670612": {
    "state": "KERALA",
    "district": "KANNUR",
    "offices": [
      {
        "officename": "Muringeri BO",
        "officetype": "BO",
        "delivery": "Delivery",
        "divisionname": "Cannanore Division",
        "regionname": "Calicut Region",
        "circlename": "Kerala Circle",
        "latitude": "11.9024730",
        "longitude": "75.5110502"
      },
      {
        "officename": "Vengad BO",
        "officetype": "BO",
        "delivery": "Delivery",
        "divisionname": "Manjeri Division",
        "regionname": "Calicut Region",
        "circlename": "Kerala Circle",
        "latitude": "11.8803780",
        "longitude": "75.5364040"
      },
      {
        "officename": "Keezhallur BO",
        "officetype": "BO",
        "delivery": "Delivery",
        "divisionname": "Cannanore Division",
        "regionname": "Calicut Region",
        "circlename": "Kerala Circle",
        "latitude": "11.8958937",
        "longitude": "75.5290760"
      },
      {
        "officename": "Vengad BO",
        "officetype": "BO",
        "delivery": "Delivery",
        "divisionname": "Cannanore Division",
        "regionname": "Calicut Region",
        "circlename": "Kerala Circle",
        "latitude": "11.8761493",
        "longitude": "75.5386018"
      },
      {
        "officename": "Anjarakandy SO",
        "officetype": "PO",
        "delivery": "Delivery",
        "divisionname": "Cannanore Division",
        "regionname": "Calicut Region",
        "circlename": "Kerala Circle",
        "latitude": "11.8745350",
        "longitude": "75.3701900"
      }
    ]
  },
  "670613": {
    "state": "KERALA",
    "district": "KANNUR",
    "offices": [
      {
        "officename": "Mowancheri SO",
        "officetype": "PO",
        "delivery": "Delivery",
        "divisionname": "Cannanore Division",
        "regionname": "Calicut Region",
        "circlename": "Kerala Circle",
        "latitude": "11.8745350",
        "longitude": "75.3701900"
      },
      {
        "officename": "Iriveri BO",
        "officetype": "BO",
        "delivery": "Delivery",
        "divisionname": "Cannanore Division",
        "regionname": "Calicut Region",
        "circlename": "Kerala Circle",
        "latitude": "11.8707352",
        "longitude": "75.4813530"
      }
    ]
  },
  "670621": {
    "state": "KERALA",
    "district": "KANNUR",
    "offices": [
      {
        "officename": "Poduvachery BO",
        "officetype": "BO",
        "delivery": "Delivery",
        "divisionname": "Cannanore Division",
        "regionname": "Calicut Region",
        "circlename": "Kerala Circle",
        "latitude": "11.871886699999999",
        "longitude": "75.453407999999996"
      },
      {
        "officename": "Kadachira SO",
        "officetype": "PO",
        "delivery": "Delivery",
        "divisionname": "Cannanore Division",
        "regionname": "Calicut Region",
        "circlename": "Kerala Circle",
        "latitude": "11.8745350",
        "longitude": "75.3701900"
      },
      {
        "officename": "Chala East BO",
        "officetype": "BO",
        "delivery": "Delivery",
        "divisionname": "Cannanore Division",
        "regionname": "Calicut Region",
        "circlename": "Kerala Circle",
        "latitude": "11.8676159",
        "longitude": "75.4381143"
      },
      {
        "officename": "Koyyode BO",
        "officetype": "BO",
        "delivery": "Delivery",
        "divisionname": "Cannanore Division",
        "regionname": "Calicut Region",
        "circlename": "Kerala Circle",
        "latitude": "11.8598917",
        "longitude": "75.4415308"
      }
    ]
  },
  "670622": {
    "state": "KERALA",
    "district": "KANNUR",
    "offices": [
      {
        "officename": "Bavode BO",
        "officetype": "BO",
        "delivery": "Delivery",
        "divisionname": "Cannanore Division",
        "regionname": "Calicut Region",
        "circlename": "Kerala Circle",
        "latitude": "11.8623964",
        "longitude": "75.4949567"
      },
      {
        "officename": "Mavilayi BO",
        "officetype": "BO",
        "delivery": "Delivery",
        "divisionname": "Cannanore Division",
        "regionname": "Calicut Region",
        "circlename": "Kerala Circle",
        "latitude": "11.8332701",
        "longitude": "75.4686217"
      },
      {
        "officename": "Mundalur SO",
        "officetype": "PO",
        "delivery": "Delivery",
        "divisionname": "Cannanore Division",
        "regionname": "Calicut Region",
        "circlename": "Kerala Circle",
        "latitude": "11.8745350",
        "longitude": "75.3701900"
      },
      {
        "officename": "Makreri BO",
        "officetype": "BO",
        "delivery": "Delivery",
        "divisionname": "Cannanore Division",
        "regionname": "Calicut Region",
        "circlename": "Kerala Circle",
        "latitude": "11.8550906",
        "longitude": "75.4803442"
      }
    ]
  },
  "670631": {
    "state": "KERALA",
    "district": "KANNUR",
    "offices": [
      {
        "officename": "Kootumugham BO",
        "officetype": "BO",
        "delivery": "Delivery",
        "divisionname": "Cannanore Division",
        "regionname": "Calicut Region",
        "circlename": "Kerala Circle",
        "latitude": "12.0518697",
        "longitude": "75.5296111"
      },
      {
        "officename": "Nediyanga BO",
        "officetype": "BO",
        "delivery": "Delivery",
        "divisionname": "Cannanore Division",
        "regionname": "Calicut Region",
        "circlename": "Kerala Circle",
        "latitude": "12.0717415",
        "longitude": "75.5001068"
      },
      {
        "officename": "Nedungome BO",
        "officetype": "BO",
        "delivery": "Delivery",
        "divisionname": "Cannanore Division",
        "regionname": "Calicut Region",
        "circlename": "Kerala Circle",
        "latitude": "12.0559197",
        "longitude": "75.5546092"
      },
      {
        "officename": "Kaithapram BO",
        "officetype": "BO",
        "delivery": "Delivery",
        "divisionname": "Cannanore Division",
        "regionname": "Calicut Region",
        "circlename": "Kerala Circle",
        "latitude": "12.0456267",
        "longitude": "75.5339324"
      },
      {
        "officename": "Chempanthotty BO",
        "officetype": "BO",
        "delivery": "Delivery",
        "divisionname": "Cannanore Division",
        "regionname": "Calicut Region",
        "circlename": "Kerala Circle",
        "latitude": "12.0895975",
        "longitude": "75.4956221"
      },
      {
        "officename": "Sreekandapuram SO",
        "officetype": "PO",
        "delivery": "Delivery",
        "divisionname": "Cannanore Division",
        "regionname": "Calicut Region",
        "circlename": "Kerala Circle",
        "latitude": "12.0417670",
        "longitude": "75.3568610"
      },
      {
        "officename": "Chengalayi BO",
        "officetype": "BO",
        "delivery": "Delivery",
        "divisionname": "Cannanore Division",
        "regionname": "Calicut Region",
        "circlename": "Kerala Circle",
        "latitude": "12.0446786",
        "longitude": "75.4897512"
      },
      {
        "officename": "Cherikode BO",
        "officetype": "BO",
        "delivery": "Delivery",
        "divisionname": "Cannanore Division",
        "regionname": "Calicut Region",
        "circlename": "Kerala Circle",
        "latitude": "12.0437982",
        "longitude": "75.5534430"
      },
      {
        "officename": "Malappattam BO",
        "officetype": "BO",
        "delivery": "Delivery",
        "divisionname": "Cannanore Division",
        "regionname": "Calicut Region",
        "circlename": "Kerala Circle",
        "latitude": "12.0145375",
        "longitude": "75.4990456"
      }
    ]
  },
  "670632": {
    "state": "KERALA",
    "district": "KANNUR",
    "offices": [
      {
        "officename": "Chundakunnu BO",
        "officetype": "BO",
        "delivery": "Delivery",
        "divisionname": "Cannanore Division",
        "regionname": "Calicut Region",
        "circlename": "Kerala Circle",
        "latitude": "12.0746409",
        "longitude": "75.5449161"
      },
      {
        "officename": "Nellikutty BO",
        "officetype": "BO",
        "delivery": "Delivery",
        "divisionname": "Cannanore Division",
        "regionname": "Calicut Region",
        "circlename": "Kerala Circle",
        "latitude": "12.1002051",
        "longitude": "75.5778849"
      },
      {
        "officename": "Pooparamba BO",
        "officetype": "BO",
        "delivery": "Delivery",
        "divisionname": "Cannanore Division",
        "regionname": "Calicut Region",
        "circlename": "Kerala Circle",
        "latitude": "12.0847297",
        "longitude": "75.5632138"
      },
      {
        "officename": "Eruvassi BO",
        "officetype": "BO",
        "delivery": "Delivery",
        "divisionname": "Cannanore Division",
        "regionname": "Calicut Region",
        "circlename": "Kerala Circle",
        "latitude": "12.0762761",
        "longitude": "75.5596929"
      },
      {
        "officename": "Kuniyampuzha BO",
        "officetype": "BO",
        "delivery": "Delivery",
        "divisionname": "Cannanore Division",
        "regionname": "Calicut Region",
        "circlename": "Kerala Circle",
        "latitude": "12.1221518",
        "longitude": "75.5827190"
      },
      {
        "officename": "Kayalampara BO",
        "officetype": "BO",
        "delivery": "Delivery",
        "divisionname": "Cannanore Division",
        "regionname": "Calicut Region",
        "circlename": "Kerala Circle",
        "latitude": "12.1190090",
        "longitude": "75.5621234"
      },
      {
        "officename": "Chemperi SO",
        "officetype": "PO",
        "delivery": "Delivery",
        "divisionname": "Cannanore Division",
        "regionname": "Calicut Region",
        "circlename": "Kerala Circle",
        "latitude": "12.0417670",
        "longitude": "75.3568610"
      }
    ]
  },
  "670633": {
    "state": "KERALA",
    "district": "KANNUR",
    "offices": [
      {
        "officename": "Chamathachal BO",
        "officetype": "BO",
        "delivery": "Delivery",
        "divisionname": "Cannanore Division",
        "regionname": "Calicut Region",
        "circlename": "Kerala Circle",
        "latitude": "12.0373304",
        "longitude": "75.6063437"
      },
      {
        "officename": "Kanhirakolly BO",
        "officetype": "BO",
        "delivery": "Delivery",
        "divisionname": "Cannanore Division",
        "regionname": "Calicut Region",
        "circlename": "Kerala Circle",
        "latitude": "12.1468087",
        "longitude": "75.6207203"
      },
      {
        "officename": "Pazhassikari BO",
        "officetype": "BO",
        "delivery": "Delivery",
        "divisionname": "Cannanore Division",
        "regionname": "Calicut Region",
        "circlename": "Kerala Circle",
        "latitude": "12.0940239",
        "longitude": "75.6324469"
      },
      {
        "officename": "Payyavur SO",
        "officetype": "PO",
        "delivery": "Delivery",
        "divisionname": "Cannanore Division",
        "regionname": "Calicut Region",
        "circlename": "Kerala Circle",
        "latitude": "12.0417670",
        "longitude": "75.3568610"
      },
      {
        "officename": "Chandanakampara BO",
        "officetype": "BO",
        "delivery": "Delivery",
        "divisionname": "Cannanore Division",
        "regionname": "Calicut Region",
        "circlename": "Kerala Circle",
        "latitude": "12.1103267",
        "longitude": "75.6086397"
      }
    ]
  },
  "670641": {
    "state": "KERALA",
    "district": "KANNUR",
    "offices": [
      {
        "officename": "Ponniam West SO",
        "officetype": "PO",
        "delivery": "Delivery",
        "divisionname": "Thalassery Division",
        "regionname": "Calicut Region",
        "circlename": "Kerala Circle",
        "latitude": "11.7533680",
        "longitude": "75.4909120"
      },
      {
        "officename": "Ponniam BO",
        "officetype": "BO",
        "delivery": "Delivery",
        "divisionname": "Thalassery Division",
        "regionname": "Calicut Region",
        "circlename": "Kerala Circle",
        "latitude": "11.7700000",
        "longitude": "75.5400000"
      }
    ]
  },
  "670642": {
    "state": "KERALA",
    "district": "KANNUR",
    "offices": [
      {
        "officename": "Kizhakke Kadirur BO",
        "officetype": "BO",
        "delivery": "Delivery",
        "divisionname": "Thalassery Division",
        "regionname": "Calicut Region",
        "circlename": "Kerala Circle",
        "latitude": "11.7700000",
        "longitude": "75.5800000"
      },
      {
        "officename": "Eruvatty BO",
        "officetype": "BO",
        "delivery": "Delivery",
        "divisionname": "Thalassery Division",
        "regionname": "Calicut Region",
        "circlename": "Kerala Circle",
        "latitude": "11.8100000",
        "longitude": "75.5200000"
      },
      {
        "officename": "Kadirurtly SO",
        "officetype": "PO",
        "delivery": "Delivery",
        "divisionname": "Thalassery Division",
        "regionname": "Calicut Region",
        "circlename": "Kerala Circle",
        "latitude": "11.7533680",
        "longitude": "75.4909120"
      }
    ]
  },
  "670643": {
    "state": "KERALA",
    "district": "KANNUR",
    "offices": [
      {
        "officename": "Kottayam Malabar BO",
        "officetype": "BO",
        "delivery": "Delivery",
        "divisionname": "Thalassery Division",
        "regionname": "Calicut Region",
        "circlename": "Kerala Circle",
        "latitude": "11.8200000",
        "longitude": "75.5700000"
      },
      {
        "officename": "VALIYAVELICHAM B.O",
        "officetype": "BO",
        "delivery": "Delivery",
        "divisionname": "Thalassery Division",
        "regionname": "Calicut Region",
        "circlename": "Kerala Circle",
        "latitude": "11.822882999999999",
        "longitude": "75.608940000000004"
      },
      {
        "officename": "Sankaranellur BO",
        "officetype": "BO",
        "delivery": "Delivery",
        "divisionname": "Thalassery Division",
        "regionname": "Calicut Region",
        "circlename": "Kerala Circle",
        "latitude": "11.8300000",
        "longitude": "75.5100000"
      },
      {
        "officename": "Mangattidam BO",
        "officetype": "BO",
        "delivery": "Delivery",
        "divisionname": "Thalassery Division",
        "regionname": "Calicut Region",
        "circlename": "Kerala Circle",
        "latitude": "11.8600000",
        "longitude": "75.5300000"
      },
      {
        "officename": "Pachapoika BO",
        "officetype": "BO",
        "delivery": "Delivery",
        "divisionname": "Thalassery Division",
        "regionname": "Calicut Region",
        "circlename": "Kerala Circle",
        "latitude": "11.8200000",
        "longitude": "75.5300000"
      },
      {
        "officename": "Ayithara Mambram BO",
        "officetype": "BO",
        "delivery": "Delivery",
        "divisionname": "Thalassery Division",
        "regionname": "Calicut Region",
        "circlename": "Kerala Circle",
        "latitude": "11.8600000",
        "longitude": "75.6000000"
      },
      {
        "officename": "Manantheri BO",
        "officetype": "BO",
        "delivery": "Delivery",
        "divisionname": "Thalassery Division",
        "regionname": "Calicut Region",
        "circlename": "Kerala Circle",
        "latitude": "11.8500000",
        "longitude": "75.6100000"
      },
      {
        "officename": "Mooriyad BO",
        "officetype": "BO",
        "delivery": "Delivery",
        "divisionname": "Thalassery Division",
        "regionname": "Calicut Region",
        "circlename": "Kerala Circle",
        "latitude": "11.8200000",
        "longitude": "75.5800000"
      },
      {
        "officename": "Kuthuparamba SO",
        "officetype": "PO",
        "delivery": "Delivery",
        "divisionname": "Thalassery Division",
        "regionname": "Calicut Region",
        "circlename": "Kerala Circle",
        "latitude": "11.7533680",
        "longitude": "75.4909120"
      }
    ]
  },
  "670644": {
    "state": "KERALA",
    "district": "WAYANAD",
    "offices": [
      {
        "officename": "Tavinhal BO",
        "officetype": "BO",
        "delivery": "Delivery",
        "divisionname": "Thalassery Division",
        "regionname": "Calicut Region",
        "circlename": "Kerala Circle",
        "latitude": "11.8000000",
        "longitude": "75.9400000"
      },
      {
        "officename": "Varayal BO",
        "officetype": "BO",
        "delivery": "Delivery",
        "divisionname": "Thalassery Division",
        "regionname": "Calicut Region",
        "circlename": "Kerala Circle",
        "latitude": "11.8400000",
        "longitude": "75.9000000"
      },
      {
        "officename": "Alattil BO",
        "officetype": "BO",
        "delivery": "Delivery",
        "divisionname": "Thalassery Division",
        "regionname": "Calicut Region",
        "circlename": "Kerala Circle",
        "latitude": "11.8100000",
        "longitude": "75.8700000"
      },
      {
        "officename": "Kampatti BO",
        "officetype": "BO",
        "delivery": "Delivery",
        "divisionname": "Thalassery Division",
        "regionname": "Calicut Region",
        "circlename": "Kerala Circle",
        "latitude": "11.8200000",
        "longitude": "75.9300000"
      },
      {
        "officename": "Vallat BO",
        "officetype": "BO",
        "delivery": "Delivery",
        "divisionname": "Thalassery Division",
        "regionname": "Calicut Region",
        "circlename": "Kerala Circle",
        "latitude": "11.7900000",
        "longitude": "75.9000000"
      },
      {
        "officename": "CherakkaraWynad BO",
        "officetype": "BO",
        "delivery": "Delivery",
        "divisionname": "Thalassery Division",
        "regionname": "Calicut Region",
        "circlename": "Kerala Circle",
        "latitude": "11.8500000",
        "longitude": "75.9700000"
      },
      {
        "officename": "Kappattumala BO",
        "officetype": "BO",
        "delivery": "Delivery",
        "divisionname": "Thalassery Division",
        "regionname": "Calicut Region",
        "circlename": "Kerala Circle",
        "latitude": "11.8300000",
        "longitude": "75.8800000"
      },
      {
        "officename": "Periya BO",
        "officetype": "BO",
        "delivery": "Delivery",
        "divisionname": "Thalassery Division",
        "regionname": "Calicut Region",
        "circlename": "Kerala Circle",
        "latitude": "11.8300000",
        "longitude": "11.8300000"
      },
      {
        "officename": "Thalappuzha SO",
        "officetype": "PO",
        "delivery": "Delivery",
        "divisionname": "Thalassery Division",
        "regionname": "Calicut Region",
        "circlename": "Kerala Circle",
        "latitude": "11.8400000",
        "longitude": "75.9500000"
      },
      {
        "officename": "PorurWynad BO",
        "officetype": "BO",
        "delivery": "Delivery",
        "divisionname": "Thalassery Division",
        "regionname": "Calicut Region",
        "circlename": "Kerala Circle",
        "latitude": "11.7800000",
        "longitude": "75.9300000"
      }
    ]
  },
  "670645": {
    "state": "KERALA",
    "district": "WAYANAD",
    "offices": [
      {
        "officename": "Kellur BO",
        "officetype": "BO",
        "delivery": "Delivery",
        "divisionname": "Thalassery Division",
        "regionname": "Calicut Region",
        "circlename": "Kerala Circle",
        "latitude": "11.7500000",
        "longitude": "76.0200000"
      },
      {
        "officename": "Pilakavu BO",
        "officetype": "BO",
        "delivery": "Delivery",
        "divisionname": "Thalassery Division",
        "regionname": "Calicut Region",
        "circlename": "Kerala Circle",
        "latitude": "11.8400000",
        "longitude": "75.9900000"
      },
      {
        "officename": "Pudusserikadavu BO",
        "officetype": "BO",
        "delivery": "Delivery",
        "divisionname": "Thalassery Division",
        "regionname": "Calicut Region",
        "circlename": "Kerala Circle",
        "latitude": "11.7600000",
        "longitude": "75.9000000"
      },
      {
        "officename": "Vemom BO",
        "officetype": "BO",
        "delivery": "Delivery",
        "divisionname": "Thalassery Division",
        "regionname": "Calicut Region",
        "circlename": "Kerala Circle",
        "latitude": "11.8200000",
        "longitude": "76.0200000"
      },
      {
        "officename": "Mundakutty BO",
        "officetype": "BO",
        "delivery": "Delivery",
        "divisionname": "Thalassery Division",
        "regionname": "Calicut Region",
        "circlename": "Kerala Circle",
        "latitude": "11.7100000",
        "longitude": "76.0100000"
      },
      {
        "officename": "Tharuvana BO",
        "officetype": "BO",
        "delivery": "Delivery",
        "divisionname": "Thalassery Division",
        "regionname": "Calicut Region",
        "circlename": "Kerala Circle",
        "latitude": "11.7300000",
        "longitude": "75.9800000"
      },
      {
        "officename": "Arattuthara BO",
        "officetype": "BO",
        "delivery": "Delivery",
        "divisionname": "Thalassery Division",
        "regionname": "Calicut Region",
        "circlename": "Kerala Circle",
        "latitude": "11.7600000",
        "longitude": "76.0300000"
      },
      {
        "officename": "Kammana BO",
        "officetype": "BO",
        "delivery": "Delivery",
        "divisionname": "Thalassery Division",
        "regionname": "Calicut Region",
        "circlename": "Kerala Circle",
        "latitude": "11.8000000",
        "longitude": "75.9600000"
      },
      {
        "officename": "Kunnamangalam Wayanad BO",
        "officetype": "BO",
        "delivery": "Delivery",
        "divisionname": "Thalassery Division",
        "regionname": "Calicut Region",
        "circlename": "Kerala Circle",
        "latitude": "11.7500000",
        "longitude": "75.9900000"
      },
      {
        "officename": "Nallurnad BO",
        "officetype": "BO",
        "delivery": "Delivery",
        "divisionname": "Thalassery Division",
        "regionname": "Calicut Region",
        "circlename": "Kerala Circle",
        "latitude": "11.7700000",
        "longitude": "76.0000000"
      },
      {
        "officename": "Pudusseri BO",
        "officetype": "BO",
        "delivery": "Delivery",
        "divisionname": "Thalassery Division",
        "regionname": "Calicut Region",
        "circlename": "Kerala Circle",
        "latitude": "11.7700000",
        "longitude": "75.9200000"
      },
      {
        "officename": "Anjukunnu BO",
        "officetype": "BO",
        "delivery": "Delivery",
        "divisionname": "Thalassery Division",
        "regionname": "Calicut Region",
        "circlename": "Kerala Circle",
        "latitude": "11.9200000",
        "longitude": "75.9900000"
      },
      {
        "officename": "Karakkamala BO",
        "officetype": "BO",
        "delivery": "Delivery",
        "divisionname": "Thalassery Division",
        "regionname": "Calicut Region",
        "circlename": "Kerala Circle",
        "latitude": "11.7900000",
        "longitude": "76.0200000"
      },
      {
        "officename": "Edavaka BO",
        "officetype": "BO",
        "delivery": "Delivery",
        "divisionname": "Thalassery Division",
        "regionname": "Calicut Region",
        "circlename": "Kerala Circle",
        "latitude": "11.8000000",
        "longitude": "76.0300000"
      },
      {
        "officename": "Ellumannam BO",
        "officetype": "BO",
        "delivery": "Delivery",
        "divisionname": "Thalassery Division",
        "regionname": "Calicut Region",
        "circlename": "Kerala Circle",
        "latitude": "11.7900000",
        "longitude": "75.9500000"
      },
      {
        "officename": "Valery BO",
        "officetype": "BO",
        "delivery": "Delivery",
        "divisionname": "Thalassery Division",
        "regionname": "Calicut Region",
        "circlename": "Kerala Circle",
        "latitude": "11.7600000",
        "longitude": "75.9400000"
      },
      {
        "officename": "Vimalanagar BO",
        "officetype": "BO",
        "delivery": "Delivery",
        "divisionname": "Thalassery Division",
        "regionname": "Calicut Region",
        "circlename": "Kerala Circle",
        "latitude": "11.8100000",
        "longitude": "75.9600000"
      },
      {
        "officename": "Mananthavady SO",
        "officetype": "PO",
        "delivery": "Delivery",
        "divisionname": "Thalassery Division",
        "regionname": "Calicut Region",
        "circlename": "Kerala Circle",
        "latitude": "11.4210935",
        "longitude": "76.0142675"
      }
    ]
  },
  "670646": {
    "state": "KERALA",
    "district": "WAYANAD",
    "offices": [
      {
        "officename": "Panavally BO",
        "officetype": "BO",
        "delivery": "Delivery",
        "divisionname": "Thalassery Division",
        "regionname": "Calicut Region",
        "circlename": "Kerala Circle",
        "latitude": "11.8900000",
        "longitude": "76.0400000"
      },
      {
        "officename": "Payyampalli BO",
        "officetype": "BO",
        "delivery": "Delivery",
        "divisionname": "Thalassery Division",
        "regionname": "Calicut Region",
        "circlename": "Kerala Circle",
        "latitude": "11.8100000",
        "longitude": "76.0500000"
      },
      {
        "officename": "Thrissileri BO",
        "officetype": "BO",
        "delivery": "Delivery",
        "divisionname": "Thalassery Division",
        "regionname": "Calicut Region",
        "circlename": "Kerala Circle",
        "latitude": "11.9500000",
        "longitude": "76.0400000"
      },
      {
        "officename": "Bavali BO",
        "officetype": "BO",
        "delivery": "Delivery",
        "divisionname": "Thalassery Division",
        "regionname": "Calicut Region",
        "circlename": "Kerala Circle",
        "latitude": "11.8800000",
        "longitude": "76.1200000"
      },
      {
        "officename": "Tholpetty BO",
        "officetype": "BO",
        "delivery": "Delivery",
        "divisionname": "Thalassery Division",
        "regionname": "Calicut Region",
        "circlename": "Kerala Circle",
        "latitude": "11.9500000",
        "longitude": "76.0600000"
      },
      {
        "officename": "Tirunelli BO",
        "officetype": "BO",
        "delivery": "Delivery",
        "divisionname": "Thalassery Division",
        "regionname": "Calicut Region",
        "circlename": "Kerala Circle",
        "latitude": "11.8500000",
        "longitude": "76.0200000"
      },
      {
        "officename": "Tirunelli Temple BO",
        "officetype": "BO",
        "delivery": "Delivery",
        "divisionname": "Thalassery Division",
        "regionname": "Calicut Region",
        "circlename": "Kerala Circle",
        "latitude": "11.9200000",
        "longitude": "76.0200000"
      },
      {
        "officename": "Kartikulam SO",
        "officetype": "PO",
        "delivery": "Delivery",
        "divisionname": "Thalassery Division",
        "regionname": "Calicut Region",
        "circlename": "Kerala Circle",
        "latitude": "11.7700000",
        "longitude": "75.9000000"
      }
    ]
  },
  "670649": {
    "state": "KERALA",
    "district": "KANNUR",
    "offices": [
      {
        "officename": "Ummenchira SO",
        "officetype": "PO",
        "delivery": "Delivery",
        "divisionname": "Thalassery Division",
        "regionname": "Calicut Region",
        "circlename": "Kerala Circle",
        "latitude": "11.7533680",
        "longitude": "75.4909120"
      },