{
  "795001": {
    "state": "MANIPUR",
    "district": "IMPHAL WEST",
    "offices": [
      {
        "officename": "Imphal H.O",
        "officetype": "HO",
        "delivery": "Delivery",
        "divisionname": "Manipur Division",
        "regionname": "North East - II Region",
        "circlename": "North Eastern Circle",
        "latitude": "24.80197222",
        "longitude": "93.94052778"
      },
      {
        "officename": "D.M College S.O",
        "officetype": "PO",
        "delivery": "Non Delivery",
        "divisionname": "Manipur Division",
        "regionname": "North East - II Region",
        "circlename": "North Eastern Circle",
        "latitude": "NA",
        "longitude": "NA"
      },
      {
        "officename": "Imphal Bazar S.O",
        "officetype": "PO",
        "delivery": "Non Delivery",
        "divisionname": "Manipur Division",
        "regionname": "North East - II Region",
        "circlename": "North Eastern Circle",
        "latitude": "24.81416667",
        "longitude": "93.93752778"
      },
      {
        "officename": "Manipur High Court S.O",
        "officetype": "PO",
        "delivery": "Non Delivery",
        "divisionname": "Manipur Division",
        "regionname": "North East - II Region",
        "circlename": "North Eastern Circle",
        "latitude": "24.8019722",
        "longitude": "93.9405278"
      }
    ]
  },
  "795002": {
    "state": "MANIPUR",
    "district": "KANGPOKPI",
    "offices": [
      {
        "officename": "Karakhul B.O",
        "officetype": "BO",
        "delivery": "Delivery",
        "divisionname": "Manipur Division",
        "regionname": "North East - II Region",
        "circlename": "North Eastern Circle",
        "latitude": "24.840769000000002",
        "longitude": "93.807295999999994"
      },
      {
        "officename": "Khurukhul B.O",
        "officetype": "BO",
        "delivery": "Delivery",
        "divisionname": "Manipur Division",
        "regionname": "North East - II Region",
        "circlename": "North Eastern Circle",
        "latitude": "24.914977",
        "longitude": "93.840118000000004"
      },
      {
        "officename": "Luwangsangbam B.O",
        "officetype": "BO",
        "delivery": "Delivery",
        "divisionname": "Manipur Division",
        "regionname": "North East - II Region",
        "circlename": "North Eastern Circle",
        "latitude": "24.89189",
        "longitude": "93.902590000000004"
      },
      {
        "officename": "Tendongyang (P) B.O",
        "officetype": "BO",
        "delivery": "Delivery",
        "divisionname": "Manipur Division",
        "regionname": "North East - II Region",
        "circlename": "North Eastern Circle",
        "latitude": "24.849485000000001",
        "longitude": "93.921625000000006"
      },
      {
        "officename": "Ahallup B.O",
        "officetype": "BO",
        "delivery": "Delivery",
        "divisionname": "Manipur Division",
        "regionname": "North East - II Region",
        "circlename": "North Eastern Circle",
        "latitude": "24.820015000000001",
        "longitude": "93.944540000000003"
      },
      {
        "officename": "Heingang B.O",
        "officetype": "BO",
        "delivery": "Delivery",
        "divisionname": "Manipur Division",
        "regionname": "North East - II Region",
        "circlename": "North Eastern Circle",
        "latitude": "24.840834000000001",
        "longitude": "93.938630000000003"
      },
      {
        "officename": "Konthakhabam B.O",
        "officetype": "BO",
        "delivery": "Delivery",
        "divisionname": "Manipur Division",
        "regionname": "North East - II Region",
        "circlename": "North Eastern Circle",
        "latitude": "24.870967",
        "longitude": "93.934127000000004"
      },
      {
        "officename": "Loitang Leikinthabi B.O",
        "officetype": "BO",
        "delivery": "Delivery",
        "divisionname": "Manipur Division",
        "regionname": "North East - II Region",
        "circlename": "North Eastern Circle",
        "latitude": "24.894390000000001",
        "longitude": "93.868229999999997"
      },
      {
        "officename": "Mantripukhri S.O",
        "officetype": "PO",
        "delivery": "Delivery",
        "divisionname": "Manipur Division",
        "regionname": "North East - II Region",
        "circlename": "North Eastern Circle",
        "latitude": "24.5102",
        "longitude": "93.5604"
      },
      {
        "officename": "Awangpotshangbam B.O",
        "officetype": "BO",
        "delivery": "Delivery",
        "divisionname": "Manipur Division",
        "regionname": "North East - II Region",
        "circlename": "North Eastern Circle",
        "latitude": "24.909680000000002",
        "longitude": "93.894161999999994"
      },
      {
        "officename": "Khonghampat B.O",
        "officetype": "BO",
        "delivery": "Delivery",
        "divisionname": "Manipur Division",
        "regionname": "North East - II Region",
        "circlename": "North Eastern Circle",
        "latitude": "24.888294999999999",
        "longitude": "93.889964000000006"
      }
    ]
  },
  "795003": {
    "state": "MANIPUR",
    "district": "IMPHAL WEST",
    "offices": [
      {
        "officename": "Kunja (P) B.O",
        "officetype": "BO",
        "delivery": "Delivery",
        "divisionname": "Manipur Division",
        "regionname": "North East - II Region",
        "circlename": "North Eastern Circle",
        "latitude": "24.714009000000001",
        "longitude": "93.903419999999997"
      },
      {
        "officename": "Kyamgei B.O",
        "officetype": "BO",
        "delivery": "Delivery",
        "divisionname": "Manipur Division",
        "regionname": "North East - II Region",
        "circlename": "North Eastern Circle",
        "latitude": "24.805900999999999",
        "longitude": "93.945353999999995"
      },
      {
        "officename": "Mongsangei B.O",
        "officetype": "BO",
        "delivery": "Delivery",
        "divisionname": "Manipur Division",
        "regionname": "North East - II Region",
        "circlename": "North Eastern Circle",
        "latitude": "24.760750999999999",
        "longitude": "93.906334999999999"
      },
      {
        "officename": "Canchipur (TCD) B.O",
        "officetype": "BO",
        "delivery": "Delivery",
        "divisionname": "Manipur Division",
        "regionname": "North East - II Region",
        "circlename": "North Eastern Circle",
        "latitude": "24.794751999999999",
        "longitude": "93.857890999999995"
      },
      {
        "officename": "Langthabal B.O",
        "officetype": "BO",
        "delivery": "Delivery",
        "divisionname": "Manipur Division",
        "regionname": "North East - II Region",
        "circlename": "North Eastern Circle",
        "latitude": "24.751874999999998",
        "longitude": "93.915869000000001"
      },
      {
        "officename": "Ningombam B.O",
        "officetype": "BO",
        "delivery": "Delivery",
        "divisionname": "Manipur Division",
        "regionname": "North East - II Region",
        "circlename": "North Eastern Circle",
        "latitude": "24.743288",
        "longitude": "93.894226000000003"
      },
      {
        "officename": "Manipur University S.O",
        "officetype": "PO",
        "delivery": "Delivery",
        "divisionname": "Manipur Division",
        "regionname": "North East - II Region",
        "circlename": "North Eastern Circle",
        "latitude": "24.750941",
        "longitude": "93.928189"
      }
    ]
  },
  "795004": {
    "state": "MANIPUR",
    "district": "IMPHAL WEST",
    "offices": [
      {
        "officename": "Central Agriculture University B.O",
        "officetype": "BO",
        "delivery": "Delivery",
        "divisionname": "Manipur Division",
        "regionname": "North East - II Region",
        "circlename": "North Eastern Circle",
        "latitude": "24.814330000000002",
        "longitude": "93.888140000000007"
      },
      {
        "officename": "Lamboi Khongnagkhong B.O",
        "officetype": "BO",
        "delivery": "Delivery",
        "divisionname": "Manipur Division",
        "regionname": "North East - II Region",
        "circlename": "North Eastern Circle",
        "latitude": "24.810742000000001",
        "longitude": "93.899586999999997"
      },
      {
        "officename": "Sayang Kuraomakhong B.O",
        "officetype": "BO",
        "delivery": "Delivery",
        "divisionname": "Manipur Division",
        "regionname": "North East - II Region",
        "circlename": "North Eastern Circle",
        "latitude": "24.794540999999999",
        "longitude": "93.919162999999998"
      },
      {
        "officename": "Iroisemaba B.O",
        "officetype": "BO",
        "delivery": "Delivery",
        "divisionname": "Manipur Division",
        "regionname": "North East - II Region",
        "circlename": "North Eastern Circle",
        "latitude": "24.809950000000001",
        "longitude": "93.891090000000005"
      },
      {
        "officename": "Lamphelpat S.O",
        "officetype": "PO",
        "delivery": "Delivery",
        "divisionname": "Manipur Division",
        "regionname": "North East - II Region",
        "circlename": "North Eastern Circle",
        "latitude": "24.81855556",
        "longitude": "93.92566667"
      },
      {
        "officename": "Langol Housing Complex B.O",
        "officetype": "BO",
        "delivery": "Delivery",
        "divisionname": "Manipur Division",
        "regionname": "North East - II Region",
        "circlename": "North Eastern Circle",
        "latitude": "24.824480000000001",
        "longitude": "93.90249"
      },
      {
        "officename": "Noremthong Bazar B.O",
        "officetype": "BO",
        "delivery": "Delivery",
        "divisionname": "Manipur Division",
        "regionname": "North East - II Region",
        "circlename": "North Eastern Circle",
        "latitude": "24.807580000000002",
        "longitude": "93.913210000000007"
      },
      {
        "officename": "Sagolband Thingom Leikai B.O",
        "officetype": "BO",
        "delivery": "Delivery",
        "divisionname": "Manipur Division",
        "regionname": "North East - II Region",
        "circlename": "North Eastern Circle",
        "latitude": "24.794529000000001",
        "longitude": "93.921892999999997"
      },
      {
        "officename": "Tera Bazar B.O",
        "officetype": "BO",
        "delivery": "Delivery",
        "divisionname": "Manipur Division",
        "regionname": "North East - II Region",
        "circlename": "North Eastern Circle",
        "latitude": "24.803567000000001",
        "longitude": "93.914868999999996"
      }
    ]
  },
  "795005": {
    "state": "MANIPUR",
    "district": "IMPHAL EAST",
    "offices": [
      {
        "officename": "Moirang Kampu B.O",
        "officetype": "BO",
        "delivery": "Delivery",
        "divisionname": "Manipur Division",
        "regionname": "North East - II Region",
        "circlename": "North Eastern Circle",
        "latitude": "24.795853999999999",
        "longitude": "93.980827000000005"
      },
      {
        "officename": "Kshetribangoon B.O",
        "officetype": "BO",
        "delivery": "Delivery",
        "divisionname": "Manipur Division",
        "regionname": "North East - II Region",
        "circlename": "North Eastern Circle",
        "latitude": "24.772459999999999",
        "longitude": "93.970029999999994"
      },
      {
        "officename": "Awang Kongpal B.O",
        "officetype": "BO",
        "delivery": "Delivery",
        "divisionname": "Manipur Division",
        "regionname": "North East - II Region",
        "circlename": "North Eastern Circle",
        "latitude": "24.781276999999999",
        "longitude": "93.971900000000005"
      },
      {
        "officename": "Khurai Khongnang Makhong B.O",
        "officetype": "BO",
        "delivery": "Delivery",
        "divisionname": "Manipur Division",
        "regionname": "North East - II Region",
        "circlename": "North Eastern Circle",
        "latitude": "24.804939000000001",
        "longitude": "93.964684000000005"
      },
      {
        "officename": "Takhel B.O",
        "officetype": "BO",
        "delivery": "Delivery",
        "divisionname": "Manipur Division",
        "regionname": "North East - II Region",
        "circlename": "North Eastern Circle",
        "latitude": "24.822690000000001",
        "longitude": "94.042180000000002"
      },
      {
        "officename": "Kshetrigao B.O",
        "officetype": "BO",
        "delivery": "Delivery",
        "divisionname": "Manipur Division",
        "regionname": "North East - II Region",
        "circlename": "North Eastern Circle",
        "latitude": "24.768630000000002",
        "longitude": "93.956289999999996"
      },
      {
        "officename": "Porompat S.O",
        "officetype": "PO",
        "delivery": "Delivery",
        "divisionname": "Manipur Division",
        "regionname": "North East - II Region",
        "circlename": "North Eastern Circle",
        "latitude": "24.8165320",
        "longitude": "93.9528270"
      }
    ]
  },
  "795006": {
    "state": "MANIPUR",
    "district": "PHERZAWL",
    "offices": [
      {
        "officename": "Bungmual B.O",
        "officetype": "BO",
        "delivery": "Delivery",
        "divisionname": "Manipur Division",
        "regionname": "North East - II Region",
        "circlename": "North Eastern Circle",
        "latitude": "24.33737",
        "longitude": "93.678445999999994"
      },
      {
        "officename": "Lingshiphai B.O",
        "officetype": "BO",
        "delivery": "Delivery",
        "divisionname": "Manipur Division",
        "regionname": "North East - II Region",
        "circlename": "North Eastern Circle",
        "latitude": "24.303899999999999",
        "longitude": "93.680269999999993"
      },
      {
        "officename": "Mission Compound B.O",
        "officetype": "BO",
        "delivery": "Delivery",
        "divisionname": "Manipur Division",
        "regionname": "North East - II Region",
        "circlename": "North Eastern Circle",
        "latitude": "24.328455000000002",
        "longitude": "93.653769999999994"
      },
      {
        "officename": "Senvon B.O",
        "officetype": "BO",
        "delivery": "Delivery",
        "divisionname": "Manipur Division",
        "regionname": "North East - II Region",
        "circlename": "North Eastern Circle",
        "latitude": "24.142022999999998",
        "longitude": "93.047514000000007"
      },
      {
        "officename": "Kwanpui B.O",
        "officetype": "BO",
        "delivery": "Delivery",
        "divisionname": "Manipur Division",
        "regionname": "North East - II Region",
        "circlename": "North Eastern Circle",
        "latitude": "24.043559999999999",
        "longitude": "92.672439999999995"
      },
      {
        "officename": "Aibulon B.O",
        "officetype": "BO",
        "delivery": "Delivery",
        "divisionname": "Manipur Division",
        "regionname": "North East - II Region",
        "circlename": "North Eastern Circle",
        "latitude": "24.116223000000002",
        "longitude": "93.239506000000006"
      },
      {
        "officename": "Leison B.O",
        "officetype": "BO",
        "delivery": "Delivery",
        "divisionname": "Manipur Division",
        "regionname": "North East - II Region",
        "circlename": "North Eastern Circle",
        "latitude": "25.168683999999999",
        "longitude": "94.208732999999995"
      },
      {
        "officename": "THANLON BO",
        "officetype": "BO",
        "delivery": "Delivery",
        "divisionname": "Manipur Division",
        "regionname": "North East - II Region",
        "circlename": "North Eastern Circle",
        "latitude": "24.267871",
        "longitude": "93.284080000000003"
      },
      {
        "officename": "Mualkoi B.O",
        "officetype": "BO",
        "delivery": "Delivery",
        "divisionname": "Manipur Division",
        "regionname": "North East - II Region",
        "circlename": "North Eastern Circle",
        "latitude": "24.402018000000002",
        "longitude": "93.608641000000006"
      },
      {
        "officename": "Takvam B.O",
        "officetype": "BO",
        "delivery": "Delivery",
        "divisionname": "Manipur Division",
        "regionname": "North East - II Region",
        "circlename": "North Eastern Circle",
        "latitude": "24.255161000000001",
        "longitude": "93.658308000000005"
      },
      {
        "officename": "Geljang B.O",
        "officetype": "BO",
        "delivery": "Delivery",
        "divisionname": "Manipur Division",
        "regionname": "North East - II Region",
        "circlename": "North Eastern Circle",
        "latitude": "24.258040000000001",
        "longitude": "93.670704999999998"
      },
      {
        "officename": "Bukpi B.O",
        "officetype": "BO",
        "delivery": "Delivery",
        "divisionname": "Manipur Division",
        "regionname": "North East - II Region",
        "circlename": "North Eastern Circle",
        "latitude": "24.508552000000002",
        "longitude": "93.377939999999995"
      },
      {
        "officename": "Bungpilon B.O",
        "officetype": "BO",
        "delivery": "Delivery",
        "divisionname": "Manipur Division",
        "regionname": "North East - II Region",
        "circlename": "North Eastern Circle",
        "latitude": "24.090409000000001",
        "longitude": "93.187571000000005"
      },
      {
        "officename": "Leijangphai B.O",
        "officetype": "BO",
        "delivery": "Delivery",
        "divisionname": "Manipur Division",
        "regionname": "North East - II Region",
        "circlename": "North Eastern Circle",
        "latitude": "24.266214999999999",
        "longitude": "93.282380000000003"
      },
      {
        "officename": "Singjawl B.O",
        "officetype": "BO",
        "delivery": "Delivery",
        "divisionname": "Manipur Division",
        "regionname": "North East - II Region",
        "circlename": "North Eastern Circle",
        "latitude": "24.092248999999999",
        "longitude": "93.299266000000003"
      },
      {
        "officename": "Taithu B.O",
        "officetype": "BO",
        "delivery": "Delivery",
        "divisionname": "Manipur Division",
        "regionname": "North East - II Region",
        "circlename": "North Eastern Circle",
        "latitude": "24.255161000000001",
        "longitude": "93.124579999999995"
      },
      {
        "officename": "Tipaimukh (P) B.O",
        "officetype": "BO",
        "delivery": "Delivery",
        "divisionname": "Manipur Division",
        "regionname": "North East - II Region",
        "circlename": "North Eastern Circle",
        "latitude": "24.623774999999998",
        "longitude": "93.131490999999997"
      },
      {
        "officename": "Panglian B.O",
        "officetype": "BO",
        "delivery": "Delivery",
        "divisionname": "Manipur Division",
        "regionname": "North East - II Region",
        "circlename": "North Eastern Circle",
        "latitude": "24.351319",
        "longitude": "93.541083999999998"
      },
      {
        "officename": "Pearsonmun B.O",
        "officetype": "BO",
        "delivery": "Delivery",
        "divisionname": "Manipur Division",
        "regionname": "North East - II Region",
        "circlename": "North Eastern Circle",
        "latitude": "24.344785999999999",
        "longitude": "93.573599000000002"
      },
      {
        "officename": "Khajang B.O",
        "officetype": "BO",
        "delivery": "Delivery",
        "divisionname": "Manipur Division",
        "regionname": "North East - II Region",
        "circlename": "North Eastern Circle",
        "latitude": "24.268796999999999",
        "longitude": "93.404024000000007"
      },
      {
        "officename": "Millongmun B.O",
        "officetype": "BO",
        "delivery": "Delivery",
        "divisionname": "Manipur Division",
        "regionname": "North East - II Region",
        "circlename": "North Eastern Circle",
        "latitude": "24.385978999999999",
        "longitude": "93.287706999999997"
      },
      {
        "officename": "Parbung B.O",
        "officetype": "BO",
        "delivery": "Delivery",
        "divisionname": "Manipur Division",
        "regionname": "North East - II Region",
        "circlename": "North Eastern Circle",
        "latitude": "24.248709999999999",
        "longitude": "93.106809999999996"
      },
      {
        "officename": "Phaijang B.O",
        "officetype": "BO",
        "delivery": "Delivery",
        "divisionname": "Manipur Division",
        "regionname": "North East - II Region",
        "circlename": "North Eastern Circle",
        "latitude": "24.521612999999999",
        "longitude": "93.321573000000001"
      },
      {
        "officename": "Tingsong B.O",
        "officetype": "BO",
        "delivery": "Delivery",
        "divisionname": "Manipur Division",
        "regionname": "North East - II Region",
        "circlename": "North Eastern Circle",
        "latitude": "24.289517",
        "longitude": "93.196607999999998"
      },
      {
        "officename": "New Lamka S.O",
        "officetype": "PO",
        "delivery": "Delivery",
        "divisionname": "Manipur Division",
        "regionname": "North East - II Region",
        "circlename": "North Eastern Circle",
        "latitude": "24.8019722",
        "longitude": "93.9405278"
      }
    ]
  },
  "795007": {
    "state": "MANIPUR",
    "district": "SENAPATI",
    "offices": [
      {
        "officename": "Thingba Khullen B.O",
        "officetype": "BO",
        "delivery": "Delivery",
        "divisionname": "Manipur Division",
        "regionname": "North East - II Region",
        "circlename": "North Eastern Circle",
        "latitude": "25.341311000000001",
        "longitude": "94.169425000000004"
      },
      {
        "officename": "Thingba Khunou B.O",
        "officetype": "BO",
        "delivery": "Delivery",
        "divisionname": "Manipur Division",
        "regionname": "North East - II Region",
        "circlename": "North Eastern Circle",
        "latitude": "25.319351999999999",
        "longitude": "94.160510000000002"
      },
      {
        "officename": "Willong B.O",
        "officetype": "BO",
        "delivery": "Delivery",
        "divisionname": "Manipur Division",
        "regionname": "North East - II Region",
        "circlename": "North Eastern Circle",
        "latitude": "25.470977000000001",
        "longitude": "93.971300999999997"
      },
      {
        "officename": "Lairouching B.O",
        "officetype": "BO",
        "delivery": "Delivery",
        "divisionname": "Manipur Division",
        "regionname": "North East - II Region",
        "circlename": "North Eastern Circle",
        "latitude": "25.387125999999999",
        "longitude": "94.090967000000006"
      },
      {
        "officename": "Yangkhullen B.O",
        "officetype": "BO",
        "delivery": "Delivery",
        "divisionname": "Manipur Division",
        "regionname": "North East - II Region",
        "circlename": "North Eastern Circle",
        "latitude": "25.352312000000001",
        "longitude": "94.195655000000002"
      },
      {
        "officename": "Karong S.O",
        "officetype": "PO",
        "delivery": "Delivery",
        "divisionname": "Manipur Division",
        "regionname": "North East - II Region",
        "circlename": "North Eastern Circle",
        "latitude": "25.3258550",
        "longitude": "94.1246500"
      },
      {
        "officename": "Oinam Hill B.O",
        "officetype": "BO",
        "delivery": "Delivery",
        "divisionname": "Manipur Division",
        "regionname": "North East - II Region",
        "circlename": "North Eastern Circle",
        "latitude": "25.351120999999999",
        "longitude": "93.971892999999994"
      },
      {
        "officename": "Rajamei B.O",
        "officetype": "BO",
        "delivery": "Delivery",
        "divisionname": "Manipur Division",
        "regionname": "North East - II Region",
        "circlename": "North Eastern Circle",
        "latitude": "25.386277",
        "longitude": "93.946162999999999"
      }
    ]
  },
  "795008": {
    "state": "MANIPUR",
    "district": "IMPHAL WEST",
    "offices": [
      {
        "officename": "Khongnangpheidekpi B.O",
        "officetype": "BO",
        "delivery": "Delivery",
        "divisionname": "Manipur Division",
        "regionname": "North East - II Region",
        "circlename": "North Eastern Circle",
        "latitude": "24.769797000000001",
        "longitude": "93.943337999999997"
      },
      {
        "officename": "Mongkhang Lambi B.O",
        "officetype": "BO",
        "delivery": "Delivery",
        "divisionname": "Manipur Division",
        "regionname": "North East - II Region",
        "circlename": "North Eastern Circle",
        "latitude": "24.4619",
        "longitude": "93.564400000000006"
      },
      {
        "officename": "Irilbung B.O",
        "officetype": "BO",
        "delivery": "Delivery",
        "divisionname": "Manipur Division",
        "regionname": "North East - II Region",
        "circlename": "North Eastern Circle",
        "latitude": "24.768004900000001",
        "longitude": "93.978803499999998"
      },
      {
        "officename": "Kongba Bazar B.O",
        "officetype": "BO",
        "delivery": "Delivery",
        "divisionname": "Manipur Division",
        "regionname": "North East - II Region",
        "circlename": "North Eastern Circle",
        "latitude": "24.785304",
        "longitude": "93.962513000000001"
      },
      {
        "officename": "Oinam Thingel B.O",
        "officetype": "BO",
        "delivery": "Delivery",
        "divisionname": "Manipur Division",
        "regionname": "North East - II Region",
        "circlename": "North Eastern Circle",
        "latitude": "24.775005",
        "longitude": "93.940242999999995"
      },
      {
        "officename": "Singjamei S.O",
        "officetype": "PO",
        "delivery": "Delivery",
        "divisionname": "Manipur Division",
        "regionname": "North East - II Region",
        "circlename": "North Eastern Circle",
        "latitude": "24.7757012",
        "longitude": "93.9385504"
      },
      {
        "officename": "Keirao Makting B.O",
        "officetype": "BO",
        "delivery": "Delivery",
        "divisionname": "Manipur Division",
        "regionname": "North East - II Region",
        "circlename": "North Eastern Circle",
        "latitude": "24.732526",
        "longitude": "93.973653999999996"
      },
      {
        "officename": "Uchekon B.O",
        "officetype": "BO",
        "delivery": "Delivery",
        "divisionname": "Manipur Division",
        "regionname": "North East - II Region",
        "circlename": "North Eastern Circle",
        "latitude": "24.802150999999999",
        "longitude": "93.938621999999995"
      },
      {
        "officename": "Keirao Bitra Salam B.O",
        "officetype": "BO",
        "delivery": "Delivery",
        "divisionname": "Manipur Division",
        "regionname": "North East - II Region",
        "circlename": "North Eastern Circle",
        "latitude": "24.744696000000001",
        "longitude": "93.983232000000001"
      },
      {
        "officename": "Laiphrok Maring B.O",
        "officetype": "BO",
        "delivery": "Delivery",
        "divisionname": "Manipur Division",
        "regionname": "North East - II Region",
        "circlename": "North Eastern Circle",
        "latitude": "24.738052",
        "longitude": "93.999532000000002"
      },
      {
        "officename": "Keirao Wangkhem B.O",
        "officetype": "BO",
        "delivery": "Delivery",
        "divisionname": "Manipur Division",
        "regionname": "North East - II Region",
        "circlename": "North Eastern Circle",
        "latitude": "24.706807000000001",
        "longitude": "93.988377"
      },
      {
        "officename": "Kitnapanung B.O",
        "officetype": "BO",
        "delivery": "Delivery",
        "divisionname": "Manipur Division",
        "regionname": "North East - II Region",
        "circlename": "North Eastern Circle",
        "latitude": "24.763224000000001",
        "longitude": "93.945621000000003"
      }
    ]
  },
  "795009": {
    "state": "MANIPUR",
    "district": "IMPHAL WEST",
    "offices": [
      {
        "officename": "Bitrarakhong B.O",
        "officetype": "BO",
        "delivery": "Delivery",
        "divisionname": "Manipur Division",
        "regionname": "North East - II Region",
        "circlename": "North Eastern Circle",
        "latitude": "24.66207",
        "longitude": "93.925819000000004"
      },
      {
        "officename": "Samurou B.O",
        "officetype": "BO",
        "delivery": "Delivery",
        "divisionname": "Manipur Division",
        "regionname": "North East - II Region",
        "circlename": "North Eastern Circle",
        "latitude": "24.702207999999999",
        "longitude": "93.904470000000003"
      },
      {
        "officename": "Haoreibi B.O",
        "officetype": "BO",
        "delivery": "Delivery",
        "divisionname": "Manipur Division",
        "regionname": "North East - II Region",
        "circlename": "North Eastern Circle",
        "latitude": "24.703810000000001",
        "longitude": "93.913794999999993"
      },
      {
        "officename": "Irom Meijrao B.O",
        "officetype": "BO",
        "delivery": "Delivery",
        "divisionname": "Manipur Division",
        "regionname": "North East - II Region",
        "circlename": "North Eastern Circle",
        "latitude": "24.708483000000001",
        "longitude": "93.887540000000001"
      },
      {
        "officename": "Yumnam Huidrom B.O.",
        "officetype": "BO",
        "delivery": "Delivery",
        "divisionname": "Manipur Division",
        "regionname": "North East - II Region",
        "circlename": "North Eastern Circle",
        "latitude": "24.651465000000002",
        "longitude": "93.898139999999998"
      },
      {
        "officename": "Hiyangthang B.O",
        "officetype": "BO",
        "delivery": "Delivery",
        "divisionname": "Manipur Division",
        "regionname": "North East - II Region",
        "circlename": "North Eastern Circle",
        "latitude": "24.726699",
        "longitude": "93.904489999999996"
      },
      {
        "officename": "Kodompokpi B.O",
        "officetype": "BO",
        "delivery": "Delivery",
        "divisionname": "Manipur Division",
        "regionname": "North East - II Region",
        "circlename": "North Eastern Circle",
        "latitude": "24.733360000000001",
        "longitude": "93.884781000000004"
      },
      {
        "officename": "Paobitek B.O",
        "officetype": "BO",
        "delivery": "Delivery",
        "divisionname": "Manipur Division",
        "regionname": "North East - II Region",
        "circlename": "North Eastern Circle",
        "latitude": "24.6433",
        "longitude": "93.890929999999997"
      },
      {
        "officename": "Langathel BO",
        "officetype": "BO",
        "delivery": "Delivery",
        "divisionname": "Manipur Division",
        "regionname": "North East - II Region",
        "circlename": "North Eastern Circle",
        "latitude": "24.545324000000001",
        "longitude": "94.045688999999996"
      },
      {
        "officename": "Wangoi S.O",
        "officetype": "PO",
        "delivery": "Delivery",
        "divisionname": "Manipur Division",
        "regionname": "North East - II Region",
        "circlename": "North Eastern Circle",
        "latitude": "24.8019722",
        "longitude": "93.9405278"
      }
    ]
  },
  "795010": {
    "state": "MANIPUR",
    "district": "KANGPOKPI",
    "offices": [
      {
        "officename": "Moirang Purel B.O",
        "officetype": "BO",
        "delivery": "Delivery",
        "divisionname": "Manipur Division",
        "regionname": "North East - II Region",
        "circlename": "North Eastern Circle",
        "latitude": "24.79879",
        "longitude": "94.114639999999994"
      },
      {
        "officename": "Ningthemchakhul B.O",
        "officetype": "BO",
        "delivery": "Delivery",
        "divisionname": "Manipur Division",
        "regionname": "North East - II Region",
        "circlename": "North Eastern Circle",
        "latitude": "24.787759999999999",
        "longitude": "94.126602000000005"
      },
      {
        "officename": "Nongdam Tangkhul B.O",
        "officetype": "BO",
        "delivery": "Delivery",
        "divisionname": "Manipur Division",
        "regionname": "North East - II Region",
        "circlename": "North Eastern Circle",
        "latitude": "24.834499999999998",
        "longitude": "94.076549999999997"
      },
      {
        "officename": "Chingmang B.O",
        "officetype": "BO",
        "delivery": "Delivery",
        "divisionname": "Manipur Division",
        "regionname": "North East - II Region",
        "circlename": "North Eastern Circle",
        "latitude": "24.943712999999999",
        "longitude": "94.085903000000002"
      },
      {
        "officename": "Laikoiching B.O",
        "officetype": "BO",
        "delivery": "Delivery",
        "divisionname": "Manipur Division",
        "regionname": "North East - II Region",
        "circlename": "North Eastern Circle",
        "latitude": "24.835051",
        "longitude": "94.079138999999998"
      },
      {
        "officename": "Phaknung B.O",
        "officetype": "BO",
        "delivery": "Delivery",
        "divisionname": "Manipur Division",
        "regionname": "North East - II Region",
        "circlename": "North Eastern Circle",
        "latitude": "24.863150000000001",
        "longitude": "93.998310000000004"
      },
      {
        "officename": "Heinoumakhong B.O",
        "officetype": "BO",
        "delivery": "Delivery",
        "divisionname": "Manipur Division",
        "regionname": "North East - II Region",
        "circlename": "North Eastern Circle",
        "latitude": "24.835062000000001",
        "longitude": "93.970956999999999"
      },
      {
        "officename": "Sawombung B.O",
        "officetype": "BO",
        "delivery": "Delivery",
        "divisionname": "Manipur Division",
        "regionname": "North East - II Region",
        "circlename": "North Eastern Circle",
        "latitude": "24.870699999999999",
        "longitude": "94.039699999999996"
      },
      {
        "officename": "Tangkhul Hungdung B.O",
        "officetype": "BO",
        "delivery": "Delivery",
        "divisionname": "Manipur Division",
        "regionname": "North East - II Region",
        "circlename": "North Eastern Circle",
        "latitude": "24.76192",
        "longitude": "94.122290000000007"
      },
      {
        "officename": "Huidrom B.O",
        "officetype": "BO",
        "delivery": "Delivery",
        "divisionname": "Manipur Division",
        "regionname": "North East - II Region",
        "circlename": "North Eastern Circle",
        "latitude": "24.823672999999999",
        "longitude": "93.957639"
      },
      {
        "officename": "Kameng Kakching B.O",
        "officetype": "BO",
        "delivery": "Delivery",
        "divisionname": "Manipur Division",
        "regionname": "North East - II Region",
        "circlename": "North Eastern Circle",
        "latitude": "24.848634000000001",
        "longitude": "94.057294999999996"
      },
      {
        "officename": "Nongada B.O",
        "officetype": "BO",
        "delivery": "Delivery",
        "divisionname": "Manipur Division",
        "regionname": "North East - II Region",
        "circlename": "North Eastern Circle",
        "latitude": "23.246490000000001",
        "longitude": "86.110609999999994"
      },
      {
        "officename": "Lamlai B.O",
        "officetype": "BO",
        "delivery": "Delivery",
        "divisionname": "Manipur Division",
        "regionname": "North East - II Region",
        "circlename": "North Eastern Circle",
        "latitude": "24.865089999999999",
        "longitude": "94.045159999999996"
      },
      {
        "officename": "Taretkhul B.O",
        "officetype": "BO",
        "delivery": "Delivery",
        "divisionname": "Manipur Division",
        "regionname": "North East - II Region",
        "circlename": "North Eastern Circle",
        "latitude": "24.904409999999999",
        "longitude": "94.03295"
      },
      {
        "officename": "Yourbung B.O",
        "officetype": "BO",
        "delivery": "Delivery",
        "divisionname": "Manipur Division",
        "regionname": "North East - II Region",
        "circlename": "North Eastern Circle",
        "latitude": "24.868831",
        "longitude": "94.033300999999994"
      },
      {
        "officename": "Lamlong S.O",
        "officetype": "PO",
        "delivery": "Delivery",
        "divisionname": "Manipur Division",
        "regionname": "North East - II Region",
        "circlename": "North Eastern Circle",
        "latitude": "24.82205",
        "longitude": "93.960775"
      }
    ]
  },
  "795011": {
    "state": "MANIPUR",
    "district": "BISHNUPUR",
    "offices": [
      {
        "officename": "Potsangbam B.O",
        "officetype": "BO",
        "delivery": "Delivery",
        "divisionname": "Manipur Division",
        "regionname": "North East - II Region",
        "circlename": "North Eastern Circle",
        "latitude": "24.593450700000002",
        "longitude": "93.765633600000001"
      },
      {
        "officename": "Ningthoukhong SO",
        "officetype": "PO",
        "delivery": "Delivery",
        "divisionname": "Manipur Division",
        "regionname": "North East - II Region",
        "circlename": "North Eastern Circle",
        "latitude": "24.571347",
        "longitude": "93.763833"
      },
      {
        "officename": "Haotak Khullen B.O",
        "officetype": "BO",
        "delivery": "Delivery",
        "divisionname": "Manipur Division",
        "regionname": "North East - II Region",
        "circlename": "North Eastern Circle",
        "latitude": "24.351505700000001",
        "longitude": "93.804760900000005"
      },
      {
        "officename": "Phubala B.O",
        "officetype": "BO",
        "delivery": "Delivery",
        "divisionname": "Manipur Division",
        "regionname": "North East - II Region",
        "circlename": "North Eastern Circle",
        "latitude": "24.535118400000002",
        "longitude": "93.755194599999996"
      },
      {
        "officename": "Thinungei B.O",
        "officetype": "BO",
        "delivery": "Delivery",
        "divisionname": "Manipur Division",
        "regionname": "North East - II Region",
        "circlename": "North Eastern Circle",
        "latitude": "24.551309499999999",
        "longitude": "93.758295000000004"
      },
      {
        "officename": "Naransena B.O",
        "officetype": "BO",
        "delivery": "Delivery",
        "divisionname": "Manipur Division",
        "regionname": "North East - II Region",
        "circlename": "North Eastern Circle",
        "latitude": "24.517022099999998",
        "longitude": "93.745758600000002"
      }
    ]
  },
  "795015": {
    "state": "MANIPUR",
    "district": "SENAPATI",
    "offices": [
      {
        "officename": "Koide B.O",
        "officetype": "BO",
        "delivery": "Delivery",
        "divisionname": "Manipur Division",
        "regionname": "North East - II Region",
        "circlename": "North Eastern Circle",
        "latitude": "25.385580999999998",
        "longitude": "94.183710000000005"
      },
      {
        "officename": "Purul B.O",
        "officetype": "BO",
        "delivery": "Delivery",
        "divisionname": "Manipur Division",
        "regionname": "North East - II Region",
        "circlename": "North Eastern Circle",
        "latitude": "25.375070999999998",
        "longitude": "94.227119999999999"
      },
      {
        "officename": "Lakhamei B.O",
        "officetype": "BO",
        "delivery": "Delivery",
        "divisionname": "Manipur Division",
        "regionname": "North East - II Region",
        "circlename": "North Eastern Circle",
        "latitude": "25.391757999999999",
        "longitude": "94.303298999999996"
      },
      {
        "officename": "Phuba B.O",
        "officetype": "BO",
        "delivery": "Delivery",
        "divisionname": "Manipur Division",
        "regionname": "North East - II Region",
        "circlename": "North Eastern Circle",
        "latitude": "25.427047000000002",
        "longitude": "94.254885000000002"
      },
      {
        "officename": "Maiba B.O",
        "officetype": "BO",
        "delivery": "Delivery",
        "divisionname": "Manipur Division",
        "regionname": "North East - II Region",
        "circlename": "North Eastern Circle",
        "latitude": "25.415236",
        "longitude": "94.211915000000005"
      },
      {
        "officename": "Makhan Bazar B.O",
        "officetype": "BO",
        "delivery": "Delivery",
        "divisionname": "Manipur Division",
        "regionname": "North East - II Region",
        "circlename": "North Eastern Circle",
        "latitude": "25.432850999999999",
        "longitude": "94.122545000000002"
      }
    ]
  },
  "795101": {
    "state": "MANIPUR",
    "district": "KAKCHING",
    "offices": [
      {
        "officename": "Chairen B.O",
        "officetype": "BO",
        "delivery": "Delivery",
        "divisionname": "Manipur Division",
        "regionname": "North East - II Region",
        "circlename": "North Eastern Circle",
        "latitude": "24.353807",
        "longitude": "93.852870999999993"
      },
      {
        "officename": "Jul Bangching B.O",
        "officetype": "BO",
        "delivery": "Delivery",
        "divisionname": "Manipur Division",
        "regionname": "North East - II Region",
        "circlename": "North Eastern Circle",
        "latitude": "24.357302000000001",
        "longitude": "93.863067999999998"
      },
      {
        "officename": "K. Molnom B.O",
        "officetype": "BO",
        "delivery": "Delivery",
        "divisionname": "Manipur Division",
        "regionname": "North East - II Region",
        "circlename": "North Eastern Circle",
        "latitude": "24.193290000000001",
        "longitude": "93.386210000000005"
      },
      {
        "officename": "Khongnangpheisabi B.O",
        "officetype": "BO",
        "delivery": "Delivery",
        "divisionname": "Manipur Division",
        "regionname": "North East - II Region",
        "circlename": "North Eastern Circle",
        "latitude": "24.229185999999999",
        "longitude": "93.927205999999998"
      },
      {
        "officename": "M Bongmol B.O",
        "officetype": "BO",
        "delivery": "Delivery",
        "divisionname": "Manipur Division",
        "regionname": "North East - II Region",
        "circlename": "North Eastern Circle",
        "latitude": "24.309014999999999",
        "longitude": "93.855652000000006"
      },
      {
        "officename": "Sangaikot B.O",
        "officetype": "BO",
        "delivery": "Delivery",
        "divisionname": "Manipur Division",
        "regionname": "North East - II Region",
        "circlename": "North Eastern Circle",
        "latitude": "24.294450999999999",
        "longitude": "93.836590999999999"
      },
      {
        "officename": "Khambathel B.O",
        "officetype": "BO",
        "delivery": "Delivery",
        "divisionname": "Manipur Division",
        "regionname": "North East - II Region",
        "circlename": "North Eastern Circle",
        "latitude": "24.302410999999999",
        "longitude": "93.924481"
      },
      {
        "officename": "Mahou Tera B.O",
        "officetype": "BO",
        "delivery": "Delivery",
        "divisionname": "Manipur Division",
        "regionname": "North East - II Region",
        "circlename": "North Eastern Circle",
        "latitude": "24.360686999999999",
        "longitude": "93.900541000000004"
      },
      {
        "officename": "Aigejang B.O",
        "officetype": "BO",
        "delivery": "Delivery",
        "divisionname": "Manipur Division",
        "regionname": "North East - II Region",
        "circlename": "North Eastern Circle",
        "latitude": "24.019262999999999",
        "longitude": "93.853855999999993"
      },
      {
        "officename": "Shahumphai B.O",
        "officetype": "BO",
        "delivery": "Delivery",
        "divisionname": "Manipur Division",
        "regionname": "North East - II Region",
        "circlename": "North Eastern Circle",
        "latitude": "24.292465",
        "longitude": "93.893119999999996"
      },
      {
        "officename": "Sehao B.O",
        "officetype": "BO",
        "delivery": "Delivery",
        "divisionname": "Manipur Division",
        "regionname": "North East - II Region",
        "circlename": "North Eastern Circle",
        "latitude": "24.036432999999999",
        "longitude": "94.105733999999998"
      },
      {
        "officename": "Semol B.O",
        "officetype": "BO",
        "delivery": "Delivery",
        "divisionname": "Manipur Division",
        "regionname": "North East - II Region",
        "circlename": "North Eastern Circle",
        "latitude": "24.0473",
        "longitude": "94.129400000000004"
      },
      {
        "officename": "Zoupi B.O",
        "officetype": "BO",
        "delivery": "Delivery",
        "divisionname": "Manipur Division",
        "regionname": "North East - II Region",
        "circlename": "North Eastern Circle",
        "latitude": "24.2973",
        "longitude": "93.874802000000003"
      },
      {
        "officename": "Longja B.O",
        "officetype": "BO",
        "delivery": "Delivery",
        "divisionname": "Manipur Division",
        "regionname": "North East - II Region",
        "circlename": "North Eastern Circle",
        "latitude": "24.137305999999999",
        "longitude": "93.811160999999998"
      },
      {
        "officename": "Sugnu S.O",
        "officetype": "PO",
        "delivery": "Delivery",
        "divisionname": "Manipur Division",
        "regionname": "North East - II Region",
        "circlename": "North Eastern Circle",
        "latitude": "24.0784680",
        "longitude": "93.9990990"
      },
      {
        "officename": "Serou B.O",
        "officetype": "BO",
        "delivery": "Delivery",
        "divisionname": "Manipur Division",
        "regionname": "North East - II Region",
        "circlename": "North Eastern Circle",
        "latitude": "24.267441000000002",
        "longitude": "93.875542999999993"
      }
    ]
  },
  "795102": {
    "state": "MANIPUR",
    "district": "CHANDEL",
    "offices": [
      {
        "officename": "Monbi B.O",
        "officetype": "BO",
        "delivery": "Delivery",
        "divisionname": "Manipur Division",
        "regionname": "North East - II Region",
        "circlename": "North Eastern Circle",
        "latitude": "24.207543999999999",
        "longitude": "93.899562000000003"
      },
      {
        "officename": "Phiran Machet B.O",
        "officetype": "BO",
        "delivery": "Delivery",
        "divisionname": "Manipur Division",
        "regionname": "North East - II Region",
        "circlename": "North Eastern Circle",
        "latitude": "24.189975",
        "longitude": "94.010895000000005"
      },
      {
        "officename": "Thorchom B.O",
        "officetype": "BO",
        "delivery": "Delivery",
        "divisionname": "Manipur Division",
        "regionname": "North East - II Region",
        "circlename": "North Eastern Circle",
        "latitude": "24.762409999999999",
        "longitude": "93.972359999999995"
      },
      {
        "officename": "Mombi",
        "officetype": "BO",
        "delivery": "Delivery",
        "divisionname": "Manipur Division",
        "regionname": "North East - II Region",
        "circlename": "North Eastern Circle",
        "latitude": "24.108173000000001",
        "longitude": "93.937082000000004"
      },
      {
        "officename": "Shalluk",
        "officetype": "BO",
        "delivery": "Delivery",
        "divisionname": "Manipur Division",
        "regionname": "North East - II Region",
        "circlename": "North Eastern Circle",
        "latitude": "24.192962000000001",
        "longitude": "93.874584999999996"
      },
      {
        "officename": "Aisi",
        "officetype": "BO",
        "delivery": "Delivery",
        "divisionname": "Manipur Division",
        "regionname": "North East - II Region",
        "circlename": "North Eastern Circle",
        "latitude": "24.014365000000002",
        "longitude": "93.845986999999994"
      },
      {
        "officename": "Molngat",
        "officetype": "BO",
        "delivery": "Delivery",
        "divisionname": "Manipur Division",
        "regionname": "North East - II Region",
        "circlename": "North Eastern Circle",
        "latitude": "23.930600999999999",
        "longitude": "94.042940999999999"
      },
      {
        "officename": "Chakpikarong S.O",
        "officetype": "PO",
        "delivery": "Delivery",
        "divisionname": "Manipur Division",
        "regionname": "North East - II Region",
        "circlename": "North Eastern Circle",
        "latitude": "24.0784680",
        "longitude": "93.9990990"
      },
      {
        "officename": "Khubungh Khullen B.O",
        "officetype": "BO",
        "delivery": "Delivery",
        "divisionname": "Manipur Division",
        "regionname": "North East - II Region",
        "circlename": "North Eastern Circle",
        "latitude": "24.131920999999998",
        "longitude": "94.025677000000002"
      },
      {
        "officename": "Libung",
        "officetype": "BO",
        "delivery": "Delivery",
        "divisionname": "Manipur Division",
        "regionname": "North East - II Region",
        "circlename": "North Eastern Circle",
        "latitude": "24.188351000000001",
        "longitude": "94.149187999999995"
      },
      {
        "officename": "Rungchang",
        "officetype": "BO",
        "delivery": "Delivery",
        "divisionname": "Manipur Division",
        "regionname": "North East - II Region",
        "circlename": "North Eastern Circle",
        "latitude": "24.181079",
        "longitude": "93.917486999999994"
      },
      {
        "officename": "Hengshi",
        "officetype": "BO",
        "delivery": "Delivery",
        "divisionname": "Manipur Division",
        "regionname": "North East - II Region",
        "circlename": "North Eastern Circle",
        "latitude": "24.044871000000001",
        "longitude": "93.987894999999995"
      },
      {
        "officename": "Tolbung",
        "officetype": "BO",
        "delivery": "Delivery",
        "divisionname": "Manipur Division",
        "regionname": "North East - II Region",
        "circlename": "North Eastern Circle",
        "latitude": "24.064281000000001",
        "longitude": "93.963911999999993"
      },
      {
        "officename": "Bollok",
        "officetype": "BO",
        "delivery": "Delivery",
        "divisionname": "Manipur Division",
        "regionname": "North East - II Region",
        "circlename": "North Eastern Circle",
        "latitude": "24.044477000000001",
        "longitude": "93.880599000000004"
      },
      {
        "officename": "Aibol Jamkhomang",
        "officetype": "BO",
        "delivery": "Delivery",
        "divisionname": "Manipur Division",
        "regionname": "North East - II Region",
        "circlename": "North Eastern Circle",
        "latitude": "23.921448000000002",
        "longitude": "94.053589000000002"
      },
      {
        "officename": "Sehlon",
        "officetype": "BO",
        "delivery": "Delivery",
        "divisionname": "Manipur Division",
        "regionname": "North East - II Region",
        "circlename": "North Eastern Circle",
        "latitude": "23.995698000000001",
        "longitude": "94.058394000000007"
      },
      {
        "officename": "S.Lhangnom",
        "officetype": "BO",
        "delivery": "Delivery",
        "divisionname": "Manipur Division",
        "regionname": "North East - II Region",
        "circlename": "North Eastern Circle",
        "latitude": "25.039397999999998",
        "longitude": "93.803695000000005"
      },
      {
        "officename": "Tuinou",
        "officetype": "BO",
        "delivery": "Delivery",
        "divisionname": "Manipur Division",
        "regionname": "North East - II Region",
        "circlename": "North Eastern Circle",
        "latitude": "24.172844999999999",
        "longitude": "93.909173999999993"
      },
      {
        "officename": "Kanakangbung",
        "officetype": "BO",
        "delivery": "Delivery",
        "divisionname": "Manipur Division",
        "regionname": "North East - II Region",
        "circlename": "North Eastern Circle",
        "latitude": "24.100482",
        "longitude": "93.929576999999995"
      },
      {
        "officename": "Songkong",
        "officetype": "BO",
        "delivery": "Delivery",
        "divisionname": "Manipur Division",
        "regionname": "North East - II Region",
        "circlename": "North Eastern Circle",
        "latitude": "24.167261",
        "longitude": "93.835425000000001"
      },
      {
        "officename": "Molpibung",
        "officetype": "BO",
        "delivery": "Delivery",
        "divisionname": "Manipur Division",
        "regionname": "North East - II Region",
        "circlename": "North Eastern Circle",
        "latitude": "24.115551",
        "longitude": "94.157082000000003"
      },
      {
        "officename": "Anal Khullen B.O",
        "officetype": "BO",
        "delivery": "Delivery",
        "divisionname": "Manipur Division",
        "regionname": "North East - II Region",
        "circlename": "North Eastern Circle",
        "latitude": "24.204153999999999",
        "longitude": "94.007908"
      },
      {
        "officename": "Sajik Tampak B.O",
        "officetype": "BO",
        "delivery": "Delivery",
        "divisionname": "Manipur Division",
        "regionname": "North East - II Region",
        "circlename": "North Eastern Circle",
        "latitude": "24.005382000000001",
        "longitude": "93.916000999999994"
      },
      {
        "officename": "Khumkot",
        "officetype": "BO",
        "delivery": "Delivery",
        "divisionname": "Manipur Division",
        "regionname": "North East - II Region",
        "circlename": "North Eastern Circle",
        "latitude": "23.994731000000002",
        "longitude": "94.199921000000003"
      },
      {
        "officename": "Gobok B.O",
        "officetype": "BO",
        "delivery": "Delivery",
        "divisionname": "Manipur Division",
        "regionname": "North East - II Region",
        "circlename": "North Eastern Circle",
        "latitude": "24.320212999999999",
        "longitude": "93.896736000000004"
      },
      {
        "officename": "Toupokpi B.O",
        "officetype": "BO",
        "delivery": "Delivery",
        "divisionname": "Manipur Division",
        "regionname": "North East - II Region",
        "circlename": "North Eastern Circle",
        "latitude": "24.762411",
        "longitude": "93.972362000000004"
      },
      {
        "officename": "Sarangtampak",
        "officetype": "BO",
        "delivery": "Delivery",
        "divisionname": "Manipur Division",
        "regionname": "North East - II Region",
        "circlename": "North Eastern Circle",
        "latitude": "24.186634000000002",
        "longitude": "93.885288000000003"
      },
      {
        "officename": "Gunjil",
        "officetype": "BO",
        "delivery": "Delivery",
        "divisionname": "Manipur Division",
        "regionname": "North East - II Region",
        "circlename": "North Eastern Circle",
        "latitude": "24.128419000000001",
        "longitude": "93.793761000000003"
      },
      {
        "officename": "Jangdung",
        "officetype": "BO",
        "delivery": "Delivery",
        "divisionname": "Manipur Division",
        "regionname": "North East - II Region",
        "circlename": "North Eastern Circle",
        "latitude": "23.963525000000001",
        "longitude": "93.850387999999995"
      },
      {
        "officename": "Khongtal",
        "officetype": "BO",
        "delivery": "Delivery",
        "divisionname": "Manipur Division",
        "regionname": "North East - II Region",
        "circlename": "North Eastern Circle",
        "latitude": "23.951402999999999",
        "longitude": "93.853808000000001"
      },
      {
        "officename": "Tuidam",
        "officetype": "BO",
        "delivery": "Delivery",
        "divisionname": "Manipur Division",
        "regionname": "North East - II Region",
        "circlename": "North Eastern Circle",
        "latitude": "24.092295",
        "longitude": "94.170935"
      },
      {
        "officename": "T.Nampao",
        "officetype": "BO",
        "delivery": "Delivery",
        "divisionname": "Manipur Division",
        "regionname": "North East - II Region",
        "circlename": "North Eastern Circle",
        "latitude": "24.167719000000002",
        "longitude": "94.179840999999996"
      }
    ]
  },
  "795103": {
    "state": "MANIPUR",
    "district": "THOUBAL",
    "offices": [
      {
        "officename": "Kalikalok B.O",
        "officetype": "BO",
        "delivery": "Delivery",
        "divisionname": "Manipur Division",
        "regionname": "North East - II Region",
        "circlename": "North Eastern Circle",
        "latitude": "24.382673",
        "longitude": "93.922161000000003"
      },
      {
        "officename": "Naodam Bazar B.O",
        "officetype": "BO",
        "delivery": "Delivery",
        "divisionname": "Manipur Division",
        "regionname": "North East - II Region",
        "circlename": "North Eastern Circle",
        "latitude": "24.492100000000001",
        "longitude": "93.988399999999999"
      },
      {
        "officename": "Arong Nongmaikhong B.O",
        "officetype": "BO",
        "delivery": "Delivery",
        "divisionname": "Manipur Division",
        "regionname": "North East - II Region",
        "circlename": "North Eastern Circle",
        "latitude": "24.436316999999999",
        "longitude": "93.850057000000007"
      },
      {
        "officename": "Mairembam B.O",
        "officetype": "BO",
        "delivery": "Delivery",
        "divisionname": "Manipur Division",
        "regionname": "North East - II Region",
        "circlename": "North Eastern Circle",
        "latitude": "24.501003000000001",
        "longitude": "93.774090000000001"
      },
      {
        "officename": "Mantak B.O",
        "officetype": "BO",
        "delivery": "Delivery",
        "divisionname": "Manipur Division",
        "regionname": "North East - II Region",
        "circlename": "North Eastern Circle",
        "latitude": "24.532005999999999",
        "longitude": "93.901376999999997"
      },
      {
        "officename": "Waikhong B.O",
        "officetype": "BO",
        "delivery": "Delivery",
        "divisionname": "Manipur Division",
        "regionname": "North East - II Region",
        "circlename": "North Eastern Circle",
        "latitude": "24.41658",
        "longitude": "93.934959000000006"
      },
      {
        "officename": "Hiyanglam B.O",
        "officetype": "BO",
        "delivery": "Delivery",
        "divisionname": "Manipur Division",
        "regionname": "North East - II Region",
        "circlename": "North Eastern Circle",
        "latitude": "24.50442",
        "longitude": "93.920950000000005"
      },
      {
        "officename": "Kakching Lamkhai B.O",
        "officetype": "BO",
        "delivery": "Delivery",
        "divisionname": "Manipur Division",
        "regionname": "North East - II Region",
        "circlename": "North Eastern Circle",
        "latitude": "24.404819",
        "longitude": "93.896891999999994"
      },
      {
        "officename": "Keirak B.O",
        "officetype": "BO",
        "delivery": "Delivery",
        "divisionname": "Manipur Division",
        "regionname": "North East - II Region",
        "circlename": "North Eastern Circle",
        "latitude": "24.512905",
        "longitude": "93.957111999999995"
      },
      {
        "officename": "Khudei Khunou B.O",
        "officetype": "BO",
        "delivery": "Delivery",
        "divisionname": "Manipur Division",
        "regionname": "North East - II Region",
        "circlename": "North Eastern Circle",
        "latitude": "24.499697000000001",
        "longitude": "93.907557999999995"
      },
      {
        "officename": "Purum Pantha B.O",
        "officetype": "BO",
        "delivery": "Delivery",
        "divisionname": "Manipur Division",
        "regionname": "North East - II Region",
        "circlename": "North Eastern Circle",
        "latitude": "24.501148000000001",
        "longitude": "93.706237999999999"
      },
      {
        "officename": "Tokpaching B.O",
        "officetype": "BO",
        "delivery": "Delivery",
        "divisionname": "Manipur Division",
        "regionname": "North East - II Region",
        "circlename": "North Eastern Circle",
        "latitude": "24.427140999999999",
        "longitude": "93.884608"
      },
      {
        "officename": "Wabagai B.O",
        "officetype": "BO",
        "delivery": "Delivery",
        "divisionname": "Manipur Division",
        "regionname": "North East - II Region",
        "circlename": "North Eastern Circle",
        "latitude": "24.533006499999999",
        "longitude": "93.897018299999999"
      },
      {
        "officename": "Wangoo Laipham B.O",
        "officetype": "BO",
        "delivery": "Delivery",
        "divisionname": "Manipur Division",
        "regionname": "North East - II Region",
        "circlename": "North Eastern Circle",
        "latitude": "24.384450000000001",
        "longitude": "93.845849999999999"
      },
      {
        "officename": "Elangkhangpokpi B.O",
        "officetype": "BO",
        "delivery": "Delivery",
        "divisionname": "Manipur Division",
        "regionname": "North East - II Region",
        "circlename": "North Eastern Circle",
        "latitude": "24.60988",
        "longitude": "94.055251999999996"
      },
      {
        "officename": "K M College B.O",
        "officetype": "BO",
        "delivery": "Delivery",
        "divisionname": "Manipur Division",
        "regionname": "North East - II Region",
        "circlename": "North Eastern Circle",
        "latitude": "24.499614000000001",
        "longitude": "93.975802999999999"
      },
      {
        "officename": "Sora B.O",
        "officetype": "BO",
        "delivery": "Delivery",
        "divisionname": "Manipur Division",
        "regionname": "North East - II Region",
        "circlename": "North Eastern Circle",
        "latitude": "24.5206464",
        "longitude": "93.766069599999994"
      },
      {
        "officename": "Kakching S.O",
        "officetype": "PO",
        "delivery": "Delivery",
        "divisionname": "Manipur Division",
        "regionname": "North East - II Region",
        "circlename": "North Eastern Circle",
        "latitude": "24.29",
        "longitude": "93.5857"
      },
      {
        "officename": "Langmeidong B.O",
        "officetype": "BO",
        "delivery": "Delivery",
        "divisionname": "Manipur Division",
        "regionname": "North East - II Region",
        "circlename": "North Eastern Circle",
        "latitude": "24.38306",
        "longitude": "93.650711999999999"
      },
      {
        "officename": "Leingangching B.O",
        "officetype": "BO",
        "delivery": "Delivery",
        "divisionname": "Manipur Division",
        "regionname": "North East - II Region",
        "circlename": "North Eastern Circle",
        "latitude": "24.648501",
        "longitude": "93.992700999999997"
      },
      {
        "officename": "Pangaltabi B.O",
        "officetype": "BO",
        "delivery": "Delivery",
        "divisionname": "Manipur Division",
        "regionname": "North East - II Region",
        "circlename": "North Eastern Circle",
        "latitude": "24.654662999999999",
        "longitude": "93.967585999999997"
      }
    ]
  },
  "795104": {
    "state": "MANIPUR",
    "district": "SENAPATI",
    "offices": [
      {
        "officename": "Chingai Khullen B.O",
        "officetype": "BO",
        "delivery": "Delivery",
        "divisionname": "Manipur Division",
        "regionname": "North East - II Region",
        "circlename": "North Eastern Circle",
        "latitude": "25.473873999999999",
        "longitude": "94.344012000000006"
      },
      {
        "officename": "Saranamei B.O",
        "officetype": "BO",
        "delivery": "Delivery",
        "divisionname": "Manipur Division",
        "regionname": "North East - II Region",
        "circlename": "North Eastern Circle",
        "latitude": "25.429690000000001",
        "longitude": "94.118970000000004"
      },
      {
        "officename": "Tungjoy B.O",
        "officetype": "BO",
        "delivery": "Delivery",
        "divisionname": "Manipur Division",
        "regionname": "North East - II Region",
        "circlename": "North Eastern Circle",
        "latitude": "25.483483",
        "longitude": "94.22578"
      },
      {
        "officename": "Chawanamei B.O",
        "officetype": "BO",
        "delivery": "Delivery",
        "divisionname": "Manipur Division",
        "regionname": "North East - II Region",
        "circlename": "North Eastern Circle",
        "latitude": "25.464057",
        "longitude": "94.107776000000001"
      },
      {
        "officename": "Liyai B.O",
        "officetype": "BO",
        "delivery": "Delivery",
        "divisionname": "Manipur Division",
        "regionname": "North East - II Region",
        "circlename": "North Eastern Circle",
        "latitude": "25.469722999999998",
        "longitude": "94.296282000000005"
      },
      {
        "officename": "Laii B.O",
        "officetype": "BO",
        "delivery": "Delivery",
        "divisionname": "Manipur Division",
        "regionname": "North East - II Region",
        "circlename": "North Eastern Circle",
        "latitude": "25.497449",
        "longitude": "94.387292000000002"
      },
      {
        "officename": "Phaibung Khullen B.O",
        "officetype": "BO",
        "delivery": "Delivery",
        "divisionname": "Manipur Division",
        "regionname": "North East - II Region",
        "circlename": "North Eastern Circle",
        "latitude": "25.426894999999998",
        "longitude": "94.333608999999996"
      },
      {
        "officename": "Tadubi S.O",
        "officetype": "PO",
        "delivery": "Delivery",
        "divisionname": "Manipur Division",
        "regionname": "North East - II Region",
        "circlename": "North Eastern Circle",
        "latitude": "25.3258550",
        "longitude": "94.1246500"
      },
      {
        "officename": "Kaibi B.O",
        "officetype": "BO",
        "delivery": "Delivery",
        "divisionname": "Manipur Division",
        "regionname": "North East - II Region",
        "circlename": "North Eastern Circle",
        "latitude": "25.468688",
        "longitude": "94.162790000000001"
      },
      {
        "officename": "Liyai Khunou B.O",
        "officetype": "BO",
        "delivery": "Delivery",
        "divisionname": "Manipur Division",
        "regionname": "North East - II Region",
        "circlename": "North Eastern Circle",
        "latitude": "25.489276",
        "longitude": "94.290970999999999"
      },
      {
        "officename": "Paomata Centre B.O",
        "officetype": "BO",
        "delivery": "Delivery",
        "divisionname": "Manipur Division",
        "regionname": "North East - II Region",
        "circlename": "North Eastern Circle",
        "latitude": "25.451134",
        "longitude": "94.208083000000002"
      },
      {
        "officename": "Siraffi B.O",
        "officetype": "BO",
        "delivery": "Delivery",
        "divisionname": "Manipur Division",
        "regionname": "North East - II Region",
        "circlename": "North Eastern Circle",
        "latitude": "25.543272000000002",
        "longitude": "94.432595000000006"
      }
    ]
  },
  "795105": {
    "state": "MANIPUR",
    "district": "SENAPATI",
    "offices": [
      {
        "officename": "Ngari Khullen B.O",
        "officetype": "BO",
        "delivery": "Delivery",
        "divisionname": "Manipur Division",
        "regionname": "North East - II Region",
        "circlename": "North Eastern Circle",
        "latitude": "25.343958000000001",
        "longitude": "94.323882999999995"
      },
      {
        "officename": "Maram S.O",
        "officetype": "PO",
        "delivery": "Delivery",
        "divisionname": "Manipur Division",
        "regionname": "North East - II Region",
        "circlename": "North Eastern Circle",
        "latitude": "25.3258550",
        "longitude": "94.1246500"
      }
    ]
  },
  "795106": {
    "state": "MANIPUR",
    "district": "KANGPOKPI",
    "offices": [
      {
        "officename": "Tumuyan Khullen B.O",
        "officetype": "BO",
        "delivery": "Delivery",
        "divisionname": "Manipur Division",
        "regionname": "North East - II Region",
        "circlename": "North Eastern Circle",
        "latitude": "25.184705999999998",
        "longitude": "93.98124"
      },
      {
        "officename": "Senapati S.O",
        "officetype": "PO",
        "delivery": "Delivery",
        "divisionname": "Manipur Division",
        "regionname": "North East - II Region",
        "circlename": "North Eastern Circle",
        "latitude": "25.3258550",
        "longitude": "94.1246500"
      },
      {
        "officename": "Oklong B.O",
        "officetype": "BO",
        "delivery": "Delivery",
        "divisionname": "Manipur Division",
        "regionname": "North East - II Region",
        "circlename": "North Eastern Circle",
        "latitude": "25.392983000000001",
        "longitude": "94.005430000000004"
      },
      {
        "officename": "Khamsom B.O",
        "officetype": "BO",
        "delivery": "Delivery",
        "divisionname": "Manipur Division",
        "regionname": "North East - II Region",
        "circlename": "North Eastern Circle",
        "latitude": "25.182595",
        "longitude": "94.154297"
      }
    ]
  },
  "795107": {
    "state": "MANIPUR",
    "district": "KANGPOKPI",
    "offices": [
      {
        "officename": "S.Bolkot B.O",
        "officetype": "BO",
        "delivery": "Delivery",
        "divisionname": "Manipur Division",
        "regionname": "North East - II Region",
        "circlename": "North Eastern Circle",
        "latitude": "25.005284",
        "longitude": "93.944312999999994"
      },
      {
        "officename": "Thingsat B.O",
        "officetype": "BO",
        "delivery": "Delivery",
        "divisionname": "Manipur Division",
        "regionname": "North East - II Region",
        "circlename": "North Eastern Circle",
        "latitude": "24.995951000000002",
        "longitude": "93.900299000000004"
      },
      {
        "officename": "Nurathel B.O",
        "officetype": "BO",
        "delivery": "Delivery",
        "divisionname": "Manipur Division",
        "regionname": "North East - II Region",
        "circlename": "North Eastern Circle",
        "latitude": "25.528645999999998",
        "longitude": "94.158099000000007"
      },
      {
        "officename": "Motbung S.O",
        "officetype": "PO",
        "delivery": "Delivery",
        "divisionname": "Manipur Division",
        "regionname": "North East - II Region",
        "circlename": "North Eastern Circle",
        "latitude": "25.3258550",
        "longitude": "94.1246500"
      },
      {
        "officename": "J Phaijang B.O",
        "officetype": "BO",
        "delivery": "Delivery",
        "divisionname": "Manipur Division",
        "regionname": "North East - II Region",
        "circlename": "North Eastern Circle",
        "latitude": "25.006444999999999",
        "longitude": "93.890486999999993"
      },
      {
        "officename": "N. Khenjang B.O",
        "officetype": "BO",
        "delivery": "Delivery",
        "divisionname": "Manipur Division",
        "regionname": "North East - II Region",
        "circlename": "North Eastern Circle",
        "latitude": "24.992650000000001",
        "longitude": "93.883278000000004"
      },
      {
        "officename": "Saitu B.O",
        "officetype": "BO",
        "delivery": "Delivery",
        "divisionname": "Manipur Division",
        "regionname": "North East - II Region",
        "circlename": "North Eastern Circle",
        "latitude": "25.033031000000001",
        "longitude": "93.907073999999994"
      },
      {
        "officename": "Sapermeina B.O",
        "officetype": "BO",
        "delivery": "Delivery",
        "divisionname": "Manipur Division",
        "regionname": "North East - II Region",
        "circlename": "North Eastern Circle",
        "latitude": "25.045811",
        "longitude": "93.926750999999996"
      }
    ]
  },
  "795112": {
    "state": "MANIPUR",
    "district": "KANGPOKPI",
    "offices": [
      {
        "officename": "Chalwa (P) B.O",
        "officetype": "BO",
        "delivery": "Delivery",
        "divisionname": "Manipur Division",
        "regionname": "North East - II Region",
        "circlename": "North Eastern Circle",
        "latitude": "25.116067999999999",
        "longitude": "93.808654000000004"
      },
      {
        "officename": "Cheljang B.O",
        "officetype": "BO",
        "delivery": "Delivery",
        "divisionname": "Manipur Division",
        "regionname": "North East - II Region",
        "circlename": "North Eastern Circle",
        "latitude": "24.402221999999998",
        "longitude": "93.705849999999998"
      },
      {
        "officename": "Irang B.O",
        "officetype": "BO",
        "delivery": "Delivery",
        "divisionname": "Manipur Division",
        "regionname": "North East - II Region",
        "circlename": "North Eastern Circle",
        "latitude": "25.34638",
        "longitude": "94.114834999999999"
      },
      {
        "officename": "Kotlien B.O",
        "officetype": "BO",
        "delivery": "Delivery",
        "divisionname": "Manipur Division",
        "regionname": "North East - II Region",
        "circlename": "North Eastern Circle",
        "latitude": "24.431892999999999",
        "longitude": "93.565867999999995"
      },
      {
        "officename": "T Waichong S.O",
        "officetype": "PO",
        "delivery": "Delivery",
        "divisionname": "Manipur Division",
        "regionname": "North East - II Region",
        "circlename": "North Eastern Circle",
        "latitude": "25.3258550",
        "longitude": "94.1246500"
      },
      {
        "officename": "Gelnal B.O",
        "officetype": "BO",
        "delivery": "Delivery",
        "divisionname": "Manipur Division",
        "regionname": "North East - II Region",
        "circlename": "North Eastern Circle",
        "latitude": "25.215226999999999",
        "longitude": "93.815009000000003"
      },
      {
        "officename": "Thengjang B.O",
        "officetype": "BO",
        "delivery": "Delivery",
        "divisionname": "Manipur Division",
        "regionname": "North East - II Region",
        "circlename": "North Eastern Circle",
        "latitude": "24.602311",
        "longitude": "93.691963999999999"
      }
    ]
  },
  "795113": {
    "state": "MANIPUR",
    "district": "IMPHAL WEST",
    "offices": [
      {
        "officename": "New Keithelmanbi B.O",
        "officetype": "BO",
        "delivery": "Delivery",
        "divisionname": "Manipur Division",
        "regionname": "North East - II Region",
        "circlename": "North Eastern Circle",
        "latitude": "24.709099999999999",
        "longitude": "93.8643"
      },
      {
        "officename": "Ngairangbam B.O",
        "officetype": "BO",
        "delivery": "Delivery",
        "divisionname": "Manipur Division",
        "regionname": "North East - II Region",
        "circlename": "North Eastern Circle",
        "latitude": "24.788699999999999",
        "longitude": "93.828599999999994"
      },
      {
        "officename": "Tairenpokpi B.O",
        "officetype": "BO",
        "delivery": "Delivery",
        "divisionname": "Manipur Division",
        "regionname": "North East - II Region",
        "circlename": "North Eastern Circle",
        "latitude": "24.8249",
        "longitude": "93.803200000000004"
      },
      {
        "officename": "Yurembam B.O",
        "officetype": "BO",
        "delivery": "Delivery",
        "divisionname": "Manipur Division",
        "regionname": "North East - II Region",
        "circlename": "North Eastern Circle",
        "latitude": "24.757670000000001",
        "longitude": "93.895970000000005"
      },
      {
        "officename": "Haorang Kairel B.O",
        "officetype": "BO",
        "delivery": "Delivery",
        "divisionname": "Manipur Division",
        "regionname": "North East - II Region",
        "circlename": "North Eastern Circle",
        "latitude": "24.75761",
        "longitude": "93.895910000000001"
      },
      {
        "officename": "Khamnam Bazar B.O",
        "officetype": "BO",
        "delivery": "Delivery",
        "divisionname": "Manipur Division",
        "regionname": "North East - II Region",
        "circlename": "North Eastern Circle",
        "latitude": "24.896000000000001",
        "longitude": "93.896000000000001"
      },
      {
        "officename": "Khumbong Bazar B.O",
        "officetype": "BO",
        "delivery": "Delivery",
        "divisionname": "Manipur Division",
        "regionname": "North East - II Region",
        "circlename": "North Eastern Circle",
        "latitude": "24.7576",
        "longitude": "93.895899999999997"
      },
      {
        "officename": "Langjing Achouba B.O",
        "officetype": "BO",
        "delivery": "Delivery",
        "divisionname": "Manipur Division",
        "regionname": "North East - II Region",
        "circlename": "North Eastern Circle",
        "latitude": "24.778600000000001",
        "longitude": "93.876999999999995"
      },
      {
        "officename": "Longa Koireng B.O",
        "officetype": "BO",
        "delivery": "Delivery",
        "divisionname": "Manipur Division",
        "regionname": "North East - II Region",
        "circlename": "North Eastern Circle",
        "latitude": "24.795100000000001",
        "longitude": "93.781000000000006"
      },
      {
        "officename": "Sagoltongba Bazar B.O",
        "officetype": "BO",
        "delivery": "Delivery",
        "divisionname": "Manipur Division",
        "regionname": "North East - II Region",
        "circlename": "North Eastern Circle",
        "latitude": "24.75761",
        "longitude": "93.895910000000001"
      },
      {
        "officename": "Kongakhul B.O",
        "officetype": "BO",
        "delivery": "Delivery",
        "divisionname": "Manipur Division",
        "regionname": "North East - II Region",
        "circlename": "North Eastern Circle",
        "latitude": "24.6432",
        "longitude": "93.670299999999997"
      },
      {
        "officename": "Konthoujam B.O",
        "officetype": "BO",
        "delivery": "Delivery",
        "divisionname": "Manipur Division",
        "regionname": "North East - II Region",
        "circlename": "North Eastern Circle",
        "latitude": "24.757680000000001",
        "longitude": "93.895979999999994"
      },
      {
        "officename": "Natok Kabui B.O",
        "officetype": "BO",
        "delivery": "Delivery",
        "divisionname": "Manipur Division",
        "regionname": "North East - II Region",
        "circlename": "North Eastern Circle",
        "latitude": "24.7576",
        "longitude": "93.895899999999997"
      },
      {
        "officename": "Takyel Khongbal B.O",
        "officetype": "BO",
        "delivery": "Delivery",
        "divisionname": "Manipur Division",
        "regionname": "North East - II Region",
        "circlename": "North Eastern Circle",
        "latitude": "24.806754000000002",
        "longitude": "93.898004"
      },
      {
        "officename": "Maklang Bazar B.O",
        "officetype": "BO",
        "delivery": "Delivery",
        "divisionname": "Manipur Division",
        "regionname": "North East - II Region",
        "circlename": "North Eastern Circle",
        "latitude": "24.808499999999999",
        "longitude": "93.8249"
      },
      {
        "officename": "Patsoi Part II B.O",
        "officetype": "BO",
        "delivery": "Delivery",
        "divisionname": "Manipur Division",
        "regionname": "North East - II Region",
        "circlename": "North Eastern Circle",
        "latitude": "24.75761",
        "longitude": "93.895910000000001"
      },
      {
        "officename": "Tharoijam B.O",
        "officetype": "BO",
        "delivery": "Delivery",
        "divisionname": "Manipur Division",
        "regionname": "North East - II Region",
        "circlename": "North Eastern Circle",
        "latitude": "93.857900000000001",
        "longitude": "93.857900000000001"
      },
      {
        "officename": "CRPF Camp Langjing S.O",
        "officetype": "PO",
        "delivery": "Delivery",
        "divisionname": "Manipur Division",
        "regionname": "North East - II Region",
        "circlename": "North Eastern Circle",
        "latitude": "24.8019722",
        "longitude": "93.9405278"
      }
    ]
  },
  "795114": {
    "state": "MANIPUR",
    "district": "IMPHAL EAST",
    "offices": [
      {
        "officename": "Pngaei Yangdong S.O",
        "officetype": "PO",
        "delivery": "Delivery",
        "divisionname": "Manipur Division",
        "regionname": "North East - II Region",
        "circlename": "North Eastern Circle",
        "latitude": "24.8165320",
        "longitude": "93.9528270"
      },
      {
        "officename": "Haraorou B.O",
        "officetype": "BO",
        "delivery": "Delivery",
        "divisionname": "Manipur Division",
        "regionname": "North East - II Region",
        "circlename": "North Eastern Circle",
        "latitude": "24.913565999999999",
        "longitude": "93.980031999999994"
      },
      {
        "officename": "Kairang Litan Makhong B.O",
        "officetype": "BO",
        "delivery": "Delivery",
        "divisionname": "Manipur Division",
        "regionname": "North East - II Region",
        "circlename": "North Eastern Circle",
        "latitude": "24.80714",
        "longitude": "93.980490000000003"
      },
      {
        "officename": "Liklikhong Bazar B.O",
        "officetype": "BO",
        "delivery": "Delivery",
        "divisionname": "Manipur Division",
        "regionname": "North East - II Region",
        "circlename": "North Eastern Circle",
        "latitude": "24.90391",
        "longitude": "94.038960000000003"
      },
      {
        "officename": "Mapao Keithelmanbi B.O",
        "officetype": "BO",
        "delivery": "Delivery",
        "divisionname": "Manipur Division",
        "regionname": "North East - II Region",
        "circlename": "North Eastern Circle",
        "latitude": "24.90391",
        "longitude": "94.038960000000003"
      },
      {
        "officename": "Satang B.O",
        "officetype": "BO",
        "delivery": "Delivery",
        "divisionname": "Manipur Division",
        "regionname": "North East - II Region",
        "circlename": "North Eastern Circle",
        "latitude": "24.972248",
        "longitude": "94.115560000000002"
      },
      {
        "officename": "Waiton B.O",
        "officetype": "BO",
        "delivery": "Delivery",
        "divisionname": "Manipur Division",
        "regionname": "North East - II Region",
        "circlename": "North Eastern Circle",
        "latitude": "24.86985",
        "longitude": "93.987493999999998"
      },
      {
        "officename": "Wakhen Phai B.O",
        "officetype": "BO",
        "delivery": "Delivery",
        "divisionname": "Manipur Division",
        "regionname": "North East - II Region",
        "circlename": "North Eastern Circle",
        "latitude": "24.872053000000001",
        "longitude": "93.978268999999997"
      },
      {
        "officename": "Yumnam Khunou B.O",
        "officetype": "BO",
        "delivery": "Delivery",
        "divisionname": "Manipur Division",
        "regionname": "North East - II Region",
        "circlename": "North Eastern Circle",
        "latitude": "24.899601000000001",
        "longitude": "93.984401000000005"
      },
      {
        "officename": "Pukhao Ahallup B.O",
        "officetype": "BO",
        "delivery": "Delivery",
        "divisionname": "Manipur Division",
        "regionname": "North East - II Region",
        "circlename": "North Eastern Circle",
        "latitude": "24.953809",
        "longitude": "94.016126"
      },
      {
        "officename": "Dolaithabi B.O",
        "officetype": "BO",
        "delivery": "Delivery",
        "divisionname": "Manipur Division",
        "regionname": "North East - II Region",
        "circlename": "North Eastern Circle",
        "latitude": "24.887454999999999",
        "longitude": "94.039837000000006"
      },
      {
        "officename": "Khongbal Tangkhul B.O",
        "officetype": "BO",
        "delivery": "Delivery",
        "divisionname": "Manipur Division",
        "regionname": "North East - II Region",
        "circlename": "North Eastern Circle",
        "latitude": "24.90391",
        "longitude": "94.038960000000003"
      },
      {
        "officename": "Khumidok (P) B.O",
        "officetype": "BO",
        "delivery": "Delivery",
        "divisionname": "Manipur Division",
        "regionname": "North East - II Region",
        "circlename": "North Eastern Circle",
        "latitude": "24.90391",
        "longitude": "94.038962999999995"
      },
      {
        "officename": "Sagolmang B.O",
        "officetype": "BO",
        "delivery": "Delivery",
        "divisionname": "Manipur Division",
        "regionname": "North East - II Region",
        "circlename": "North Eastern Circle",
        "latitude": "24.955083999999999",
        "longitude": "94.024343000000002"
      },
      {
        "officename": "Thangal Surung B.O",
        "officetype": "BO",
        "delivery": "Delivery",
        "divisionname": "Manipur Division",
        "regionname": "North East - II Region",
        "circlename": "North Eastern Circle",
        "latitude": "25.035900000000002",
        "longitude": "93.998000000000005"
      },
      {
        "officename": "Uyumpok B.O",
        "officetype": "BO",
        "delivery": "Delivery",
        "divisionname": "Manipur Division",
        "regionname": "North East - II Region",
        "circlename": "North Eastern Circle",
        "latitude": "24.929576000000001",
        "longitude": "94.046360000000007"
      }
    ]
  },
  "795115": {
    "state": "MANIPUR",
    "district": "JIRIBAM",
    "offices": [
      {
        "officename": "BR Colony B.O",
        "officetype": "BO",
        "delivery": "Delivery",
        "divisionname": "Manipur Division",
        "regionname": "North East - II Region",
        "circlename": "North Eastern Circle",
        "latitude": "24.799111",
        "longitude": "93.919511999999997"
      },
      {
        "officename": "Gularthol S.O",
        "officetype": "PO",
        "delivery": "Delivery",
        "divisionname": "Manipur Division",
        "regionname": "North East - II Region",
        "circlename": "North Eastern Circle",
        "latitude": "24.8019722",
        "longitude": "93.9405278"
      },
      {
        "officename": "New Keiphundai B.O",
        "officetype": "BO",
        "delivery": "Delivery",
        "divisionname": "Manipur Division",
        "regionname": "North East - II Region",
        "circlename": "North Eastern Circle",
        "latitude": "24.802289999999999",
        "longitude": "93.116798000000003"
      },
      {
        "officename": "Keimai B.O",
        "officetype": "BO",
        "delivery": "Delivery",
        "divisionname": "Manipur Division",
        "regionname": "North East - II Region",
        "circlename": "North Eastern Circle",
        "latitude": "24.802320000000002",
        "longitude": "93.116829999999993"
      },
      {
        "officename": "Bidyanagar B.O",
        "officetype": "BO",
        "delivery": "Delivery",
        "divisionname": "Manipur Division",
        "regionname": "North East - II Region",
        "circlename": "North Eastern Circle",
        "latitude": "24.534611000000002",
        "longitude": "93.551021000000006"
      },
      {
        "officename": "Kashimpur B.O",
        "officetype": "BO",
        "delivery": "Delivery",
        "divisionname": "Manipur Division",
        "regionname": "North East - II Region",
        "circlename": "North Eastern Circle",
        "latitude": "24.752610000000001",
        "longitude": "93.139474000000007"
      },
      {
        "officename": "Nungkao B.O.",
        "officetype": "BO",
        "delivery": "Delivery",
        "divisionname": "Manipur Division",
        "regionname": "North East - II Region",
        "circlename": "North Eastern Circle",
        "latitude": "24.789394999999999",
        "longitude": "93.308505999999994"
      }
    ]
  },
  "795116": {
    "state": "MANIPUR",
    "district": "JIRIBAM",
    "offices": [
      {
        "officename": "Bongmun B.O",
        "officetype": "BO",
        "delivery": "Delivery",
        "divisionname": "Manipur Division",
        "regionname": "North East - II Region",
        "circlename": "North Eastern Circle",
        "latitude": "24.615038999999999",
        "longitude": "93.122517999999999"
      },
      {
        "officename": "Borobekra B.O",
        "officetype": "BO",
        "delivery": "Delivery",
        "divisionname": "Manipur Division",
        "regionname": "North East - II Region",
        "circlename": "North Eastern Circle",
        "latitude": "24.633285000000001",
        "longitude": "93.089602999999997"
      },
      {
        "officename": "Champanagar B.O",
        "officetype": "BO",
        "delivery": "Delivery",
        "divisionname": "Manipur Division",
        "regionname": "North East - II Region",
        "circlename": "North Eastern Circle",
        "latitude": "24.780415000000001",
        "longitude": "93.108439000000004"
      },
      {
        "officename": "Suangpuimun B.O",
        "officetype": "BO",
        "delivery": "Delivery",
        "divisionname": "Manipur Division",
        "regionname": "North East - II Region",
        "circlename": "North Eastern Circle",
        "latitude": "24.650676000000001",
        "longitude": "93.175426000000002"
      },
      {
        "officename": "Jiribam Bazar S.O",
        "officetype": "PO",
        "delivery": "Delivery",
        "divisionname": "Manipur Division",
        "regionname": "North East - II Region",
        "circlename": "North Eastern Circle",
        "latitude": "24.8019722",
        "longitude": "93.9405278"
      },
      {
        "officename": "Chingmun B.O",
        "officetype": "BO",
        "delivery": "Delivery",
        "divisionname": "Manipur Division",
        "regionname": "North East - II Region",
        "circlename": "North Eastern Circle",
        "latitude": "24.70242",
        "longitude": "93.172341000000003"
      },
      {
        "officename": "Jakurdhar B.O",
        "officetype": "BO",
        "delivery": "Delivery",
        "divisionname": "Manipur Division",
        "regionname": "North East - II Region",
        "circlename": "North Eastern Circle",
        "latitude": "24.615822999999999",
        "longitude": "93.089371999999997"
      },
      {
        "officename": "Lalkhal B.O",
        "officetype": "BO",
        "delivery": "Delivery",
        "divisionname": "Manipur Division",
        "regionname": "North East - II Region",
        "circlename": "North Eastern Circle",
        "latitude": "24.680796000000001",
        "longitude": "93.105275000000006"
      },
      {
        "officename": "Ngamphabung B.O",
        "officetype": "BO",
        "delivery": "Delivery",
        "divisionname": "Manipur Division",
        "regionname": "North East - II Region",
        "circlename": "North Eastern Circle",
        "latitude": "24.416608",
        "longitude": "93.094650999999999"
      },
      {
        "officename": "Babukhal",
        "officetype": "BO",
        "delivery": "Delivery",
        "divisionname": "Manipur Division",
        "regionname": "North East - II Region",
        "circlename": "North Eastern Circle",
        "latitude": "24.804341000000001",
        "longitude": "93.206399000000005"
      },
      {
        "officename": "Longpi B.O",
        "officetype": "BO",
        "delivery": "Delivery",
        "divisionname": "Manipur Division",
        "regionname": "North East - II Region",
        "circlename": "North Eastern Circle",
        "latitude": "24.620622000000001",
        "longitude": "93.340507000000002"
      },
      {
        "officename": "Sonapur B.O",
        "officetype": "BO",
        "delivery": "Delivery",
        "divisionname": "Manipur Division",
        "regionname": "North East - II Region",
        "circlename": "North Eastern Circle",
        "latitude": "24.773561000000001",
        "longitude": "93.125296000000006"
      },
      {
        "officename": "Tuitengmun B.O",
        "officetype": "BO",
        "delivery": "Delivery",
        "divisionname": "Manipur Division",
        "regionname": "North East - II Region",
        "circlename": "North Eastern Circle",
        "latitude": "24.654254999999999",
        "longitude": "93.176884999999999"
      },
      {
        "officename": "Kh Jaikhan B.O",
        "officetype": "BO",
        "delivery": "Delivery",
        "divisionname": "Manipur Division",
        "regionname": "North East - II Region",
        "circlename": "North Eastern Circle",
        "latitude": "24.493425999999999",
        "longitude": "93.113973999999999"
      },
      {
        "officename": "Latingkhal B.O",
        "officetype": "BO",
        "delivery": "Delivery",
        "divisionname": "Manipur Division",
        "regionname": "North East - II Region",
        "circlename": "North Eastern Circle",
        "latitude": "24.734939000000001",
        "longitude": "93.104975999999994"
      },
      {
        "officename": "Patpuimun B.O",
        "officetype": "BO",
        "delivery": "Delivery",
        "divisionname": "Manipur Division",
        "regionname": "North East - II Region",
        "circlename": "North Eastern Circle",
        "latitude": "24.806308000000001",
        "longitude": "93.948188000000002"
      },
      {
        "officename": "Phailienthangpunji",
        "officetype": "BO",
        "delivery": "Delivery",
        "divisionname": "Manipur Division",
        "regionname": "North East - II Region",
        "circlename": "North Eastern Circle",
        "latitude": "24.626968000000002",
        "longitude": "93.132384999999999"
      },
      {
        "officename": "Chongmun B.O",
        "officetype": "BO",
        "delivery": "Delivery",
        "divisionname": "Manipur Division",
        "regionname": "North East - II Region",
        "circlename": "North Eastern Circle",
        "latitude": "24.546773999999999",
        "longitude": "93.221091000000001"
      }
    ]
  },
  "795117": {
    "state": "MANIPUR",
    "district": "CHURACHANDPUR",
    "offices": [
      {
        "officename": "Khouwpuibung B.O",
        "officetype": "BO",
        "delivery": "Delivery",
        "divisionname": "Manipur Division",
        "regionname": "North East - II Region",
        "circlename": "North Eastern Circle",
        "latitude": "24.329201999999999",
        "longitude": "93.692970000000003"
      },
      {
        "officename": "Mual Vaiphei B.O",
        "officetype": "BO",
        "delivery": "Delivery",
        "divisionname": "Manipur Division",
        "regionname": "North East - II Region",
        "circlename": "North Eastern Circle",
        "latitude": "24.361585000000002",
        "longitude": "93.744141999999997"
      },
      {
        "officename": "Tuitengphai B.O",
        "officetype": "BO",
        "delivery": "Delivery",
        "divisionname": "Manipur Division",
        "regionname": "North East - II Region",
        "circlename": "North Eastern Circle",
        "latitude": "24.350010999999999",
        "longitude": "93.699989000000002"
      },
      {
        "officename": "Saikot S.O",
        "officetype": "PO",
        "delivery": "Delivery",
        "divisionname": "Manipur Division",
        "regionname": "North East - II Region",
        "circlename": "North Eastern Circle",
        "latitude": "24.3332670",
        "longitude": "93.7518960"
      },
      {
        "officename": "Tuikham B.O",
        "officetype": "BO",
        "delivery": "Delivery",
        "divisionname": "Manipur Division",
        "regionname": "North East - II Region",
        "circlename": "North Eastern Circle",
        "latitude": "24.299885",
        "longitude": "93.763386999999994"
      },
      {
        "officename": "Sihjang(Srs)",
        "officetype": "BO",
        "delivery": "Delivery",
        "divisionname": "Manipur Division",
        "regionname": "North East - II Region",
        "circlename": "North Eastern Circle",
        "latitude": "24.326108999999999",
        "longitude": "93.817565999999999"
      },
      {
        "officename": "Tuining B.O",
        "officetype": "BO",
        "delivery": "Delivery",
        "divisionname": "Manipur Division",
        "regionname": "North East - II Region",
        "circlename": "North Eastern Circle",
        "latitude": "24.323971",
        "longitude": "93.816865000000007"
      }
    ]
  },
  "795118": {
    "state": "MANIPUR",
    "district": "KANGPOKPI",
    "offices": [
      {
        "officename": "Jangnoi B.O",
        "officetype": "BO",
        "delivery": "Delivery",
        "divisionname": "Manipur Division",
        "regionname": "North East - II Region",
        "circlename": "North Eastern Circle",
        "latitude": "25.097535300000001",
        "longitude": "94.119230599999995"
      },
      {
        "officename": "Molkon B.O",
        "officetype": "BO",
        "delivery": "Delivery",
        "divisionname": "Manipur Division",
        "regionname": "North East - II Region",
        "circlename": "North Eastern Circle",
        "latitude": "25.053826999999998",
        "longitude": "94.037975000000003"
      },