{
  "state": "Tripura",
  "districts": {
    "West Tripura": {
      "R": [
        {
          "name": "Ramnagar  (West Tripura)",
          "slug": "ramnagar",
          "pin": "799002",
          "lat": "23.8297500",
          "lng": "91.2788333"
        },
        {
          "name": "Ranirbazar",
          "slug": "ranirbazar",
          "pin": "799035",
          "lat": "23.832823",
          "lng": "91.368358"
        }
      ],
      "A": [
        {
          "name": "Arundhutinagar",
          "slug": "arundhutinagar",
          "pin": "799003",
          "lat": "23.81177778",
          "lng": "91.26766667"
        },
        {
          "name": "Agartala College",
          "slug": "agartala-college",
          "pin": "799004",
          "lat": "23.82447222",
          "lng": "91.29216667"
        },
        {
          "name": "Abhoynagar",
          "slug": "abhoynagar",
          "pin": "799005",
          "lat": "23.845491",
          "lng": "91.288864"
        },
        {
          "name": "Agartala Aerodrome",
          "slug": "agartala-aerodrome",
          "pin": "799009",
          "lat": "23.884989",
          "lng": "91.250156"
        },
        {
          "name": "Agartala Secretariat",
          "slug": "agartala-secretariat",
          "pin": "799010",
          "lat": "23.8297500",
          "lng": "91.2788333"
        },
        {
          "name": "Agartala ONGC",
          "slug": "agartala-ongc",
          "pin": "799014",
          "lat": "23.79069444",
          "lng": "91.27063889"
        }
      ],
      "K": [
        {
          "name": "Kunjaban",
          "slug": "kunjaban",
          "pin": "799006",
          "lat": "23.85744444",
          "lng": "91.28725"
        },
        {
          "name": "Khayerpur",
          "slug": "khayerpur",
          "pin": "799008",
          "lat": "23.8475",
          "lng": "91.34185"
        },
        {
          "name": "Kamalghat",
          "slug": "kamalghat",
          "pin": "799210",
          "lat": "23.929796",
          "lng": "91.336714"
        }
      ],
      "D": [
        {
          "name": "Dhaleswar",
          "slug": "dhaleswar",
          "pin": "799007",
          "lat": "23.83555556",
          "lng": "91.29502778"
        }
      ],
      "N": [
        {
          "name": "Narayanpur Bazar SO",
          "slug": "narayanpur-bazar",
          "pin": "799015",
          "lat": "23.909314",
          "lng": "91.251929"
        },
        {
          "name": "NIT Agartala",
          "slug": "nit-agartala",
          "pin": "799046",
          "lat": "23.8469704",
          "lng": "91.4145956"
        }
      ],
      "T": [
        {
          "name": "Tripura University",
          "slug": "tripura-university",
          "pin": "799022",
          "lat": "23.8297500",
          "lng": "91.2788333"
        }
      ],
      "B": [
        {
          "name": "Birendranagar",
          "slug": "birendranagar",
          "pin": "799045",
          "lat": "23.821607",
          "lng": "91.448761"
        }
      ],
      "S": [
        {
          "name": "Sekerkote",
          "slug": "sekerkote",
          "pin": "799130",
          "lat": "23.8297500",
          "lng": "91.2788333"
        },
        {
          "name": "Sidhai",
          "slug": "sidhai",
          "pin": "799212",
          "lat": "23.8297500",
          "lng": "91.2788333"
        }
      ],
      "M": [
        {
          "name": "Mohanpur  (West Tripura)",
          "slug": "mohanpur",
          "pin": "799211",
          "lat": "23.8297500",
          "lng": "91.2788333"
        }
      ]
    },
    "Sepahijala": {
      "J": [
        {
          "name": "Jampuijala SO",
          "slug": "jampuijala",
          "pin": "799011",
          "lat": "23.82975",
          "lng": "91.2788333"
        }
      ],
      "B": [
        {
          "name": "Bishalgarh",
          "slug": "bishalgarh",
          "pin": "799102",
          "lat": "23.67402778",
          "lng": "91.28225"
        },
        {
          "name": "Bishramganj",
          "slug": "bishramganj",
          "pin": "799103",
          "lat": "24.1314",
          "lng": "91.1651"
        }
      ],
      "M": [
        {
          "name": "Melaghar",
          "slug": "melaghar",
          "pin": "799115",
          "lat": "23.49172222",
          "lng": "91.32958333"
        }
      ],
      "D": [
        {
          "name": "Dhanpur",
          "slug": "dhanpur",
          "pin": "799131",
          "lat": "22.633858",
          "lng": "74.097568"
        }
      ],
      "S": [
        {
          "name": "Sonamura",
          "slug": "sonamura",
          "pin": "799131",
          "lat": "23.47791667",
          "lng": "91.26613889"
        }
      ],
      "K": [
        {
          "name": "Kathalia",
          "slug": "kathalia",
          "pin": "799132",
          "lat": "23.3825",
          "lng": "91.3517"
        }
      ]
    },
    "Gomati": {
      "M": [
        {
          "name": "Matabari",
          "slug": "matabari",
          "pin": "799013",
          "lat": "23.487446",
          "lng": "91.490975"
        }
      ],
      "A": [
        {
          "name": "Amarpur  (South Tripura)",
          "slug": "amarpur",
          "pin": "799101",
          "lat": "23.5408333",
          "lng": "91.4917500"
        }
      ],
      "J": [
        {
          "name": "Jatanbari",
          "slug": "jatanbari",
          "pin": "799104",
          "lat": "23.9408",
          "lng": "91.9881"
        }
      ],
      "K": [
        {
          "name": "Kakraban",
          "slug": "kakraban",
          "pin": "799105",
          "lat": "23.292",
          "lng": "91.2548"
        }
      ],
      "T": [
        {
          "name": "Tepania",
          "slug": "tepania",
          "pin": "799113",
          "lat": "23.555724",
          "lng": "91.451206"
        }
      ],
      "G": [
        {
          "name": "Gakulpur",
          "slug": "gakulpur",
          "pin": "799114",
          "lat": "23.546582",
          "lng": "91.47523"
        },
        {
          "name": "Garjee",
          "slug": "garjee",
          "pin": "799125",
          "lat": "23.5408333",
          "lng": "91.4917500"
        }
      ],
      "R": [
        {
          "name": "Radhakishorepur",
          "slug": "radhakishorepur",
          "pin": "799120",
          "lat": "23.54083333",
          "lng": "91.49175"
        }
      ]
    },
    "South Tripura": {
      "J": [
        {
          "name": "Jolaibari",
          "slug": "jolaibari",
          "pin": "799141",
          "lat": "21.2319",
          "lng": "92.1141"
        }
      ],
      "M": [
        {
          "name": "Muhuripur",
          "slug": "muhuripur",
          "pin": "799142",
          "lat": "23.5408333",
          "lng": "91.4917500"
        },
        {
          "name": "Manubazar",
          "slug": "manubazar",
          "pin": "799143",
          "lat": "23.0423",
          "lng": "91.3854"
        }
      ],
      "S": [
        {
          "name": "Santirbazar",
          "slug": "santirbazar",
          "pin": "799144",
          "lat": "23.31075",
          "lng": "91.56244444"
        },
        {
          "name": "Sabroom",
          "slug": "sabroom",
          "pin": "799145",
          "lat": "23.00369444",
          "lng": "91.73263889"
        }
      ],
      "R": [
        {
          "name": "Rajnagar  (South Tripura)",
          "slug": "rajnagar",
          "pin": "799150",
          "lat": "23.5408333",
          "lng": "91.4917500"
        },
        {
          "name": "Radhanagar  (West Tripura)",
          "slug": "radhanagar",
          "pin": "799153",
          "lat": "23.8297500",
          "lng": "91.2788333"
        }
      ],
      "B": [
        {
          "name": "Beloniya",
          "slug": "beloniya",
          "pin": "799155",
          "lat": "23.25177778",
          "lng": "91.45577778"
        }
      ],
      "H": [
        {
          "name": "Hrishyamukh",
          "slug": "hrishyamukh",
          "pin": "799156",
          "lat": "23.5408333",
          "lng": "91.4917500"
        }
      ],
      "A": [
        {
          "name": "Anandapur  (South Tripura)",
          "slug": "anandapur",
          "pin": "799157",
          "lat": "23.5408333",
          "lng": "91.4917500"
        }
      ]
    },
    "Khowai": {
      "K": [
        {
          "name": "Khowai",
          "slug": "khowai",
          "pin": "799201",
          "lat": "24.08130556",
          "lng": "91.59627778"
        },
        {
          "name": "Khowai Court",
          "slug": "khowai-court",
          "pin": "799202",
          "lat": "23.8297500",
          "lng": "91.2788333"
        },
        {
          "name": "Kalyanpur  (West Tripura)",
          "slug": "kalyanpur",
          "pin": "799203",
          "lat": "23.8297500",
          "lng": "91.2788333"
        }
      ],
      "T": [
        {
          "name": "Teliamura",
          "slug": "teliamura",
          "pin": "799205",
          "lat": "23.84013889",
          "lng": "91.63461111"
        }
      ],
      "C": [
        {
          "name": "Chebri",
          "slug": "chebri",
          "pin": "799207",
          "lat": "24.0441",
          "lng": "91.3622"
        }
      ],
      "R": [
        {
          "name": "RAMKRISHNABARI",
          "slug": "ramkrishnabari",
          "pin": "799207",
          "lat": "24.020841999999998",
          "lng": "91.750093000000007"
        }
      ],
      "J": [
        {
          "name": "JAGNA KOBRABARI (PART)",
          "slug": "jagna-kobrabari",
          "pin": "799207",
          "lat": "23.978663000000001",
          "lng": "91.744489000000002"
        }
      ]
    },
    "Dhalai": {
      "K": [
        {
          "name": "Kulaibazar",
          "slug": "kulaibazar",
          "pin": "799204",
          "lat": "23.9060300",
          "lng": "91.9907970"
        },
        {
          "name": "Kanchancherra",
          "slug": "kanchancherra",
          "pin": "799266",
          "lat": "24.3788333",
          "lng": "92.1598056"
        },
        {
          "name": "Karamcherra",
          "slug": "karamcherra",
          "pin": "799266",
          "lat": "24.06562",
          "lng": "91.993047"
        },
        {
          "name": "KHEDERKOT",
          "slug": "khederkot",
          "pin": "799284",
          "lat": "23.548121999999999",
          "lng": "91.825682"
        },
        {
          "name": "Kamalpur  (Dhalai)",
          "slug": "kamalpur",
          "pin": "799285",
          "lat": "23.9060300",
          "lng": "91.9907970"
        }
      ],
      "W": [
        {
          "name": "West Nalkata",
          "slug": "west-nalkata",
          "pin": "799266",
          "lat": "24.06562",
          "lng": "91.993047"
        }
      ],
      "P": [
        {
          "name": "Purba Betcherra",
          "slug": "purba-betcherra",
          "pin": "799266",
          "lat": "24.06562",
          "lng": "91.993047"
        },
        {
          "name": "PURBA KALYANSINGPARA",
          "slug": "purba-kalyansingpara",
          "pin": "799284",
          "lat": "23.626144",
          "lng": "91.914974000000001"
        },
        {
          "name": "PUSTARAIPARA",
          "slug": "pustaraipara",
          "pin": "799289",
          "lat": "23.734314999999999",
          "lng": "91.787987000000001"
        }
      ],
      "B": [
        {
          "name": "Betcherra",
          "slug": "betcherra",
          "pin": "799266",
          "lat": "24.06562",
          "lng": "91.993047"
        },
        {
          "name": "BALUCHHARA",
          "slug": "baluchhara",
          "pin": "799289",
          "lat": "23.829304",
          "lng": "91.923501999999999"
        },
        {
          "name": "BATABARI",
          "slug": "batabari",
          "pin": "799289",
          "lat": "23.771933000000001",
          "lng": "91.788826999999998"
        }
      ],
      "L": [
        {
          "name": "LALCHHARA",
          "slug": "lalchhara",
          "pin": "799273",
          "lat": "23.946315999999999",
          "lng": "92.024339999999995"
        }
      ],
      "C": [
        {
          "name": "Chailengta",
          "slug": "chailengta",
          "pin": "799273",
          "lat": "23.9060300",
          "lng": "91.9907970"
        },
        {
          "name": "CHAKMAPARA",
          "slug": "chakmapara",
          "pin": "799289",
          "lat": "23.759246999999998",
          "lng": "91.944837000000007"
        }
      ],
      "D": [
        {
          "name": "DEBCHHARA",
          "slug": "debchhara",
          "pin": "799273",
          "lat": "23.769309",
          "lng": "92.021299999999997"
        },
        {
          "name": "DANGAMAPARA",
          "slug": "dangamapara",
          "pin": "799284",
          "lat": "23.699722999999999",
          "lng": "91.846806999999998"
        }
      ],
      "M": [
        {
          "name": "Manughat",
          "slug": "manughat",
          "pin": "799275",
          "lat": "23.9060300",
          "lng": "91.9907970"
        },
        {
          "name": "Manikbhander",
          "slug": "manikbhander",
          "pin": "799287",
          "lat": "23.9060300",
          "lng": "91.9907970"
        }
      ],
      "S": [
        {
          "name": "Salema",
          "slug": "salema",
          "pin": "799278",
          "lat": "23.9060300",
          "lng": "91.9907970"
        },
        {
          "name": "Sarma",
          "slug": "sarma",
          "pin": "799284",
          "lat": "23.9060300",
          "lng": "91.9907970"
        }
      ],
      "R": [
        {
          "name": "RATANNAGAR",
          "slug": "ratannagar",
          "pin": "799284",
          "lat": "23.568363000000002",
          "lng": "91.914019999999994"
        }
      ],
      "H": [
        {
          "name": "Halahali",
          "slug": "halahali",
          "pin": "799286",
          "lat": "24.1469",
          "lng": "91.82295"
        },
        {
          "name": "HARIMANGALPARA",
          "slug": "harimangalpara",
          "pin": "799289",
          "lat": "23.876144",
          "lng": "91.904718000000003"
        }
      ],
      "A": [
        {
          "name": "Ambassa",
          "slug": "ambassa",
          "pin": "799289",
          "lat": "23.92172222",
          "lng": "91.85061111"
        }
      ]
    },
    "North Tripura": {
      "D": [
        {
          "name": "Dharmanagar",
          "slug": "dharmanagar",
          "pin": "799250",
          "lat": "24.37883333",
          "lng": "92.15980556"
        },
        {
          "name": "Dasdabazar",
          "slug": "dasdabazar",
          "pin": "799271",
          "lat": "24.3788333",
          "lng": "92.1598056"
        }
      ],
      "C": [
        {
          "name": "Chandrapur  (North Tripura)",
          "slug": "chandrapur",
          "pin": "799251",
          "lat": "24.3788333",
          "lng": "92.1598056"
        },
        {
          "name": "Churaibari",
          "slug": "churaibari",
          "pin": "799262",
          "lat": "24.437103",
          "lng": "92.242231"
        }
      ],
      "R": [
        {
          "name": "Rajbari",
          "slug": "rajbari",
          "pin": "799253",
          "lat": "24.37444444",
          "lng": "92.16497222"
        }
      ],
      "H": [
        {
          "name": "Halflongcherra",
          "slug": "halflongcherra",
          "pin": "799254",
          "lat": "23.72124",
          "lng": "91.74458"
        }
      ],
      "T": [
        {
          "name": "Tripura Damcherra",
          "slug": "tripura-damcherra",
          "pin": "799256",
          "lat": "24.1417",
          "lng": "92.1732"
        }
      ],
      "P": [
        {
          "name": "Panisagar",
          "slug": "panisagar",
          "pin": "799260",
          "lat": "24.151",
          "lng": "92.857"
        }
      ],
      "K": [
        {
          "name": "Kadamtala  (North Tripura)",
          "slug": "kadamtala",
          "pin": "799261",
          "lat": "24.3788333",
          "lng": "92.1598056"
        },
        {
          "name": "Konpui",
          "slug": "konpui",
          "pin": "799269",
          "lat": "23.81794",
          "lng": "92.259590000000003"
        },
        {
          "name": "Kanchanpur  (North Tripura)",
          "slug": "kanchanpur",
          "pin": "799270",
          "lat": "24.3788333",
          "lng": "92.1598056"
        }
      ],
      "J": [
        {
          "name": "Jampui",
          "slug": "jampui",
          "pin": "799269",
          "lat": "23.562",
          "lng": "92.1651"
        }
      ]
    },
    "Unakoti": {
      "P": [
        {
          "name": "Pecharthal",
          "slug": "pecharthal",
          "pin": "799263",
          "lat": "24.3788333",
          "lng": "92.1598056"
        },
        {
          "name": "Paiturbazar",
          "slug": "paiturbazar",
          "pin": "799279",
          "lat": "24.3788333",
          "lng": "92.1598056"
        }
      ],
      "K": [
        {
          "name": "Kumarghat",
          "slug": "kumarghat",
          "pin": "799264",
          "lat": "24.16238889",
          "lng": "92.03797222"
        },
        {
          "name": "Kailashahar",
          "slug": "kailashahar",
          "pin": "799277",
          "lat": "24.32977778",
          "lng": "91.99872222"
        },
        {
          "name": "Kanchanbari",
          "slug": "kanchanbari",
          "pin": "799288",
          "lat": "24.3788333",
          "lng": "92.1598056"
        }
      ],
      "S": [
        {
          "name": "Sonamukhi  (North Tripura)",
          "slug": "sonamukhi",
          "pin": "799280",
          "lat": "24.3788333",
          "lng": "92.1598056"
        },
        {
          "name": "SAMARUHALA RF",
          "slug": "samaruhala-rf",
          "pin": "799290",
          "lat": "24.206427000000001",
          "lng": "91.937087000000005"
        }
      ],
      "B": [
        {
          "name": "Baburbazar",
          "slug": "baburbazar",
          "pin": "799281",
          "lat": "24.3788333",
          "lng": "92.1598056"
        },
        {
          "name": "Bhagabannagar",
          "slug": "bhagabannagar",
          "pin": "799282",
          "lat": "24.3788333",
          "lng": "92.159805599999999"
        }
      ],
      "G": [
        {
          "name": "Gournagar SO",
          "slug": "gournagar",
          "pin": "799282",
          "lat": "24.3788333",
          "lng": "92.1598056"
        }
      ],
      "C": [
        {
          "name": "Chinibagan",
          "slug": "chinibagan",
          "pin": "799282",
          "lat": "24.3788333",
          "lng": "92.159805599999999"
        }
      ],
      "F": [
        {
          "name": "Fatikroy",
          "slug": "fatikroy",
          "pin": "799290",
          "lat": "24.1036",
          "lng": "92.0107"
        }
      ]
    }
  }
}